# LAS format log file from PETREL
# Project units are specified as depth units
#==================================================================
~Version information
VERS.   2.0:
WRAP.   NO:
#==================================================================
~Well
STRT .m      215.21697998 :
STOP .m      2803.2739258 :
STEP .m     0.00000000 :
NULL .        -999.250000 :
COMP.           : COMPANY
WELL.  34/10-12   : WELL
FLD.            : FIELD
LOC.            : LOCATION
SRVC.           : SERVICE COMPANY
DATE.  2018-09-11 14:48:43   : Log Export Date {yyyy-MM-dd HH:mm:ss}
PROV.           : PROVINCE
UWI.   34/10-12   : UNIQUE WELL ID
API.            : API NUMBER
#==================================================================
~Curve
DEPT .m                   : DEPTH
Lithology_geolink ._      : Lithology_geolink
CALI .in                  : CALI
DRHO .g/cm3               : DRHO
NPHI .m3/m3               : NPHI
RHOB .g/cm3               : RHOB
GR .gAPI                  : GR
DTC .us/ft                : DTC
RDEP .ohm.m               : RDEP
SP .mV                    : SP
RSHA .ohm.m               : RSHA
RMED .ohm.m               : RMED
~Parameter
#==================================================================
~Ascii
# ...
 1419.9390869  -999.250000 14.522999763 0.0370000005 0.3520500064 2.0959999561 29.134044647 129.37500000 0.7009999752 48.799602509 0.6780351996 0.6780351996
 1420.0914307  -999.250000 14.468998909 0.0540000014 0.3505899906 2.1150000095 26.967008591 129.37409973 0.7039999962 49.298301697 0.6890072227 0.6890072227
 1420.2438965  -999.250000 14.484000206 0.0489999987 0.3593800068 2.1210000515 26.137096405 128.99800110 0.7009999752 49.424701691 0.6920160055 0.6920160055
 1420.3962402  -999.250000 14.484000206 0.0390000008 0.3759799898 2.1050000191 24.926469803 128.37168884 0.7009999752 49.954601288 0.6970072389 0.6970072389
 1420.5487061  -999.250000 14.484000206 0.0320000015 0.3691400290 2.0959999561 26.791059494 126.99919891 0.6979992390 50.203197479 0.6999967694 0.6999967694
 1420.7010498  -999.250000 14.547000885 0.0120000001 0.3735400140 2.0629999638 29.924854279 126.75194550 0.6969976425 49.954299927 0.6989687681 0.6989687681
 1420.8535156  -999.250000 14.555000305 -0.003000000 0.3764599860 2.0350000858 31.105848312 127.56480408 0.6940000057 50.078197479 0.6859455705 0.6859455705
 1421.0058594  -999.250000 14.569999695 -0.004000000 0.4013700187 2.0329999924 30.123949051 128.12800598 0.6939960122 49.828697205 0.6689952016 0.6689952016
 1421.1583252  -999.250000 14.484000206 0.0080000004 0.3969699740 2.0350000858 29.685146332 129.37620544 0.6889984012 49.703598022 0.6669999957 0.6669999957
 1421.3106689  -999.250000 14.484000206 0.0120000001 0.3642599881 2.0369999409 28.799104691 129.75000000 0.6869951487 49.578697205 0.6670072079 0.6670072079
 1421.4631348  -999.250000 14.491999626 0.0099999998 0.3608399928 2.0309998989 29.669097900 129.75241089 0.6810032129 49.455501556 0.6700128317 0.6700128317
 1421.6154785  -999.250000 14.491999626 0.0170000009 0.3598600030 2.0510001183 28.763198853 130.50000000 0.6829976439 49.920295715 0.6740000248 0.6740000248
 1421.7679443  -999.250000 14.491999626 0.0270000007 0.3710900247 2.0739998817 27.894405365 130.49679565 0.6800063848 49.079399109 0.6740032434 0.6740032434
 1421.9202881  -999.250000 14.468998909 0.0280000009 0.3564499915 2.0759999752 28.951896667 129.50000000 0.6840000153 49.203998566 0.6750096083 0.6750096083
 1422.0727539  -999.250000 14.484000206 0.0020000001 0.3559600115 2.0450000763 28.609300613 129.50000000 0.6840048432 49.203598022 0.6779967546 0.6779967546
 1422.2250977  -999.250000 14.547000885 -0.004000000 0.3554700017 2.0390000343 28.689439774 129.49639893 0.6869975924 49.080600739 0.6770191789 0.6770191789
 1422.3774414  -999.250000 14.468998909 0.0099999998 0.3901399970 2.0590000153 24.471965790 128.37409973 0.6840023994 49.577194214 0.6830072403 0.6830072403
 1422.5299072  -999.250000 14.461000443 0.0340000018 0.4033200145 2.0920000076 25.702598572 127.99739075 0.6869992018 48.828598022 0.6859839559 0.6859839559
 1422.6822510  -999.250000 14.461000443 0.0340000018 0.3925800025 2.0880000591 25.586938858 127.18800354 0.6860007644 48.703697205 0.6809783578 0.6809783578
 1422.8347168  -999.250000 14.468998909 0.0160000008 0.3779299855 2.0629999638 29.291194916 127.18800354 0.6869975924 48.577396393 0.6719743609 0.6719743609
 1422.9870605  -999.250000 14.468998909 0.0250000004 0.3740200102 2.0680000782 27.489446640 127.18935394 0.6840016246 48.080501556 0.6640143991 0.6640143991
 1423.1395264  -999.250000 14.468998909 0.0340000018 0.3725599945 2.0799999237 29.744047165 127.75119781 0.6859967709 48.704299927 0.6700224280 0.6700224280
 1423.2918701  -999.250000 14.461000443 0.0230000000 0.3706099987 2.0680000782 27.889009476 128.12800598 0.6820007563 48.799575806 0.6769927740 0.6769927740
 1423.4443359  -999.250000 14.547000885 -0.001000000 0.3754900098 2.0469999313 27.057390213 129.37741089 0.6829952002 49.454399109 0.6739872098 0.6739872098
 1423.5966797  -999.250000 14.547000885 -0.003000000 0.4033200145 2.0490000248 25.316349030 130.12780762 0.6800016165 49.578598022 0.6700032353 0.6700032353
 1423.7491455  -999.250000 14.531000137 0.0020000001 0.3984400034 2.0590000153 26.366361618 130.99919128 0.6819951534 49.454799652 0.6710128188 0.6710128188
 1423.9014893  -999.250000 14.491999626 0.0189999994 0.3789099753 2.0720000267 28.654350281 130.74920654 0.6790016294 49.704299927 0.6750000119 0.6750000119
 1424.0539551  -999.250000 14.491999626 0.0149999997 0.3798799813 2.0659999847 28.140548706 130.49839783 0.6809951663 49.800003052 0.6750096083 0.6750096083
 1424.2062988  -999.250000 14.522999763 0.0080000004 0.3793900013 2.0590000153 28.001050949 129.99600220 0.6779991984 50.422199249 0.6779935956 0.6779935956
 1424.3586426  -999.250000 14.522999763 0.0049999999 0.3886699975 2.0529999733 28.330141068 128.74909973 0.6769967675 50.173225403 0.6759976149 0.6759976149
 1424.5111084  -999.250000 14.484000206 0.0099999998 0.3818399906 2.0469999313 29.223503113 128.37620544 0.6729999781 50.265796661 0.6750256419 0.6750256419
 1424.6634521  -999.250000 14.547000885 0.0179999992 0.3789099753 2.0510001183 30.622821808 128.75390625 0.6729951501 49.890495300 0.6829735637 0.6829735637
 1424.8159180  -999.250000 14.547000885 0.0040000002 0.3701200187 2.0350000858 29.723451614 130.37300110 0.6669992208 49.268199921 0.6719999909 0.6719999909
 1424.9682617  -999.250000 14.508000374 0.0120000001 0.3730500042 2.0469999313 31.113544464 129.75149536 0.6659976244 49.640571594 0.6719831824 0.6719831824
 1425.1207275  -999.250000 14.491999626 0.0189999994 0.3769499958 2.0490000248 33.001903534 130.37699890 0.6630007625 49.047500610 0.6650416255 0.6650416255
 1425.2730713  -999.250000 14.491999626 0.0260000005 0.3852500021 2.0550000668 33.595428467 130.99879456 0.6639991999 48.891773224 0.6779567003 0.6779567003
 1425.4255371  -999.250000 14.508000374 0.0040000002 0.3730500042 2.0269999504 34.186695099 130.50199890 0.6630063653 48.796096802 0.6600000262 0.6600000262
 1425.5778809  -999.250000 14.430000305 0.0049999999 0.3583999872 2.0209999084 33.792942047 131.12559509 0.6670007706 48.204826355 0.6599856019 0.6599856019
 1425.7303467  -999.250000 14.383001328 0.0109999999 0.3623000085 2.0290000439 38.758514404 131.37419128 0.6680095792 48.546398163 0.6539743543 0.6539743543
 1425.8826904  -999.250000 14.180000305 0.0250000004 0.3720700145 2.0429999828 41.408401489 131.12379456 0.6739992499 48.047698975 0.6461121440 0.6461121440
 1426.0351563  -999.250000 13.522999763 0.0089999996 0.3969699740 2.0409998894 42.151191711 130.74679565 0.6729999781 47.953998566 0.6809070706 0.6809070706
 1426.1875000  -999.250000 14.022999763 0.0080000004 0.4081999958 2.0409998894 40.652793884 129.74920654 0.6729975939 47.952796936 0.6520704627 0.6520704627
 1426.3398438  -999.250000 14.241999626 0.0109999999 0.3945299983 2.0490000248 39.649463654 129.49758911 0.6699992418 47.580501556 0.6740360856 0.6740360856
 1426.4923096  -999.250000 14.258000374 0.0320000015 0.3916000128 2.0639998913 36.923187256 128.49879456 0.6689968109 48.203998566 0.6889775991 0.6889775991
 1426.6446533  -999.250000 14.211000443 0.0260000005 0.3979499936 2.0510001183 32.308715820 128.12590027 0.6649984121 48.205276489 0.6819639206 0.6819639206
 1426.7971191  -999.250000 14.319999695 0.0199999996 0.3959999979 2.0409998894 30.529901505 128.50199890 0.6629951596 48.738002777 0.6670288444 0.6670288444
 1426.9494629  -999.250000 14.359000206 0.0160000008 0.4038099945 2.0390000343 30.191715240 129.12590027 0.6569983959 49.361000061 0.6759807467 0.6759807467
 1427.1019287  -999.250000 14.336000443 0.0309999995 0.4028300047 2.0590000153 31.732749939 129.50160217 0.6549991965 49.361801147 0.6679903865 0.6679903865
 1427.2542725  -999.250000 14.319999695 0.0529999994 0.4204100072 2.0840001106 31.340469360 129.99850464 0.6540007591 49.609798431 0.6650000215 0.6650000215
 1427.4067383  -999.250000 14.430000305 0.0579999983 0.4257799983 2.0920000076 29.876201630 129.36979675 0.6549959779 49.111801147 0.6650320292 0.6650320292
 1427.5590820  -999.250000 14.406000137 0.0549999997 0.4384799898 2.0940001011 30.252065659 127.74669647 0.6499999762 49.360698700 0.6750312448 0.6750312448
