# LAS format log file from PETREL
# Project units are specified as depth units
#==================================================================
~Version information
VERS.   2.0:
WRAP.   NO:
#==================================================================
~Well
STRT .m      215.21697998 :
STOP .m      2803.2739258 :
STEP .m     0.00000000 :
NULL .        -999.250000 :
COMP.           : COMPANY
WELL.  34/10-12   : WELL
FLD.            : FIELD
LOC.            : LOCATION
SRVC.           : SERVICE COMPANY
DATE.  2018-09-11 14:48:43   : Log Export Date {yyyy-MM-dd HH:mm:ss}
PROV.           : PROVINCE
UWI.   34/10-12   : UNIQUE WELL ID
API.            : API NUMBER
#==================================================================
~Curve
DEPT .m                   : DEPTH
Lithology_geolink ._      : Lithology_geolink
CALI .in                  : CALI
DRHO .g/cm3               : DRHO
NPHI .m3/m3               : NPHI
RHOB .g/cm3               : RHOB
GR .gAPI                  : GR
DTC .us/ft                : DTC
RDEP .ohm.m               : RDEP
SP .mV                    : SP
RSHA .ohm.m               : RSHA
RMED .ohm.m               : RMED
~Parameter
#==================================================================
~Ascii
# ...
 1598.7042236  -999.250000 13.765999794 -0.009000000 0.5087900162 2.0079998970 35.220203400 158.99940491 0.7590000033 56.889801025 0.8079615831 0.8079615831
 1598.8565674  -999.250000 13.687999725 -0.005000000 0.5043900013 2.0120000839 35.717697144 158.75201416 0.7680000067 57.639202118 0.7920079827 0.7920079827
 1599.0090332  -999.250000 13.508000374 -0.007000000 0.5000000000 2.0139999390 34.905250549 159.99850464 0.7760000229 58.390701294 0.7970864773 0.7970864773
 1599.1613770  -999.250000 13.781000137 0.0000000000 0.5039100051 2.0269999504 34.594203949 159.37399292 0.7789999843 59.514003754 0.8330528736 0.8330528736
 1599.3138428  -999.250000 13.515999794 0.0010000000 0.4975599945 2.0230000019 34.714645386 158.75151062 0.7820000052 60.138599396 0.8660264015 0.8660264015
 1599.4661865  -999.250000 13.555001259 0.0130000003 0.4960900247 2.0369999409 32.903720856 159.38641357 0.7820000052 60.387599945 0.8769951463 0.8769951463
 1599.6186523  -999.250000 13.663999557 0.0049999999 0.4599599838 2.0350000858 31.479421616 166.49398804 0.7799999714 60.138000488 0.8740504384 0.8740504384
 1599.7709961  -999.250000 13.819999695 0.0000000000 0.4902299941 2.0490000248 29.577272415 164.00320435 0.7789999843 60.138401031 0.8949646950 0.8949646950
 1599.9234619  -999.250000 14.000000000 -0.005000000 0.4858399928 2.0369999409 29.128227234 165.97445679 0.7779999971 60.387401581 0.8728631139 0.8728631139
 1600.0758057  -999.250000 13.944999695 -0.002000000 0.5219699740 2.0350000858 30.472555161 155.36437988 0.7710000277 60.138000488 0.8159374595 0.8159374595
 1600.2281494  -999.250000 13.843999863 -0.005000000 0.5288100243 2.0209999084 32.690902710 148.75219727 0.7559999824 60.136596680 0.7770320773 0.7770320773
 1600.3806152  -999.250000 13.555001259 -0.009000000 0.5502899885 2.0290000439 34.502254486 150.14421082 0.7350000143 59.262401581 0.7970672250 0.7970672250
 1600.5329590  -999.250000 13.546999931 -0.007000000 0.5410200357 2.0309998989 35.436744690 158.12440491 0.7129999995 59.013603210 0.8249775767 0.8249775767
 1600.6854248  -999.250000 13.781000137 -0.001000000 0.5053699613 2.0309998989 34.657276154 157.72538757 0.6970000267 59.387699127 0.8109207153 0.8109207153
 1600.8377686  -999.250000 13.765999794 0.0109999999 0.4882799983 2.0390000343 35.186798096 147.49819946 0.6959999800 59.264003754 0.7779711485 0.7779711485
 1600.9902344  -999.250000 13.758000374 0.0109999999 0.4765599966 2.0350000858 34.442127228 146.40052795 0.6940000057 59.888599396 0.7599807978 0.7599807978
 1601.1425781  -999.250000 14.000000000 0.0049999999 0.4946300089 2.0290000439 36.155849457 157.00180054 0.7020000219 60.137798309 0.7520111799 0.7520111799
 1601.2950439  -999.250000 13.788999557 -0.004000000 0.5175799727 2.0060000420 36.063522339 158.12890625 0.7099999785 60.011798859 0.7590528727 0.7590528727
 1601.4473877  -999.250000 13.781000137 -0.002000000 0.5449200273 2.0060000420 36.277343750 159.74960327 0.7220000029 59.511196136 0.7810705304 0.7810705304
 1601.5998535  -999.250000 14.000000000 -0.005000000 0.5229499936 2.0079998970 33.996623993 159.52401733 0.7310000062 58.388301849 0.8251008391 0.8251008391
 1601.7521973  -999.250000 14.180000305 0.0109999999 0.5024399757 2.0369999409 32.595455170 169.49980164 0.7400000095 58.511997223 0.8670352697 0.8670352697
 1601.9046631  -999.250000 14.265999794 0.0049999999 0.4848600030 2.0390000343 33.505256653 169.34767151 0.7459999919 57.888301849 0.8889855742 0.8889855742
 1602.0570068  -999.250000 14.383001328 0.0189999994 0.5024399757 2.0490000248 35.690303802 158.01722717 0.7559999824 58.013000488 0.8829423189 0.8829423189
 1602.2093506  -999.250000 14.304999352 0.0049999999 0.4804700017 2.0369999409 37.124500275 168.73298645 0.7639999986 58.013401031 0.8469519019 0.8469519019
 1602.3618164  -999.250000 14.202999115 0.0080000004 0.4653300047 2.0450000763 36.811199188 158.10098267 0.7659999728 58.263599396 0.8169903755 0.8169903755
 1602.5141602  -999.250000 14.438000679 0.0049999999 0.4755899906 2.0490000248 36.063148499 148.12660217 0.7670000196 58.513000488 0.8130080104 0.8130080104
 1602.6666260  -999.250000 14.046999931 0.0260000005 0.5087900162 2.0680000782 36.155548096 149.14871216 0.7680000067 58.514202118 0.8179759979 0.8179759979
 1602.8189697  -999.250000 14.319999695 0.0350000001 0.5083000064 2.0840001106 35.968750000 159.00059509 0.7699999809 59.012798309 0.8079823852 0.8079823852
 1602.9714355  -999.250000 14.109000206 0.0280000009 0.5122100115 2.0820000172 35.811496735 159.37170410 0.7760000229 58.888599396 0.7970552444 0.7970552444
 1603.1237793  -999.250000 14.063000679 0.0149999997 0.5161100030 2.0780000687 35.193008423 157.99919128 0.7839999795 59.138202667 0.8200672865 0.8200672865
 1603.2762451  -999.250000 14.140999794 0.0080000004 0.5468800068 2.0629999638 38.316226959 157.49760437 0.7900000215 59.263000488 0.8620504141 0.8620504141
 1603.4285889  -999.250000 14.296999931 0.0120000001 0.5332000256 2.0639998913 39.655948639 156.51643372 0.7979999781 59.264003754 0.8830000162 0.8830000162
 1603.5810547  -999.250000 14.500000000 0.0000000000 0.5083000064 2.0529999733 39.616668701 166.75480652 0.8100000024 59.886497498 0.8829663992 0.8829663992
 1603.7333984  -999.250000 14.991999626 -0.007000000 0.4819300175 2.0450000763 36.152591705 168.73498535 0.8209999800 59.263000488 0.8689888120 0.8689888120
 1603.8858643  -999.250000 13.750000000 -0.011000000 0.5034199953 2.0550000668 34.030323029 159.39991760 0.8280000091 59.261497498 0.8620144129 0.8620144129
 1604.0382080  -999.250000 12.953000069 -0.012000000 0.5141599774 2.0590000153 33.750904083 169.75100708 0.8259999752 58.637199402 0.8680160046 0.8680160046
 1604.1905518  -999.250000 12.694999695 -0.014000000 0.5166000128 2.0639998913 34.314548492 170.35697937 0.8199999928 58.137802124 0.8779888153 0.8779888153
 1604.3430176  -999.250000 12.640999794 -0.021000000 0.5136700273 2.0490000248 35.280899048 159.12339783 0.8100000024 58.012397766 0.8709791303 0.8709791303
 1604.4953613  -999.250000 12.647999763 -0.021000000 0.5048800111 2.0510001183 35.220302582 158.10777283 0.7979999781 57.638801575 0.8579871655 0.8579871655
 1604.6478271  -999.250000 12.694999695 -0.016000001 0.5043900013 2.0680000782 36.027397156 147.37409973 0.7870000005 58.137100220 0.8499615788 0.8499615788
 1604.8001709  -999.250000 12.640999794 -0.010000000 0.4775400162 2.0920000076 34.531700134 147.00059509 0.7799999714 57.763000488 0.8339711428 0.8339711428
 1604.9526367  -999.250000 12.640999794 -0.002000000 0.4716799855 2.1070001125 34.968849182 147.39691162 0.7770000100 57.763599396 0.8159615397 0.8159615397
 1605.1049805  -999.250000 12.640999794 -0.001000000 0.5068399906 2.0999999046 34.905948639 156.49839783 0.7799999714 58.012599945 0.8000208735 0.8000208735
 1605.2574463  -999.250000 12.680000305 -0.006000000 0.4960900247 2.0959999561 34.875000000 155.49909973 0.7839999795 57.764202118 0.8130312562 0.8130312562
 1605.4097900  -999.250000 12.680000305 -0.010000000 0.5112299919 2.0940001011 34.871543884 155.12219238 0.7879999876 58.263000488 0.8260432482 0.8260432482
 1605.5622559  -999.250000 12.680000305 -0.006000000 0.5117200017 2.1050000191 32.726734161 153.35337830 0.7919999957 58.263599396 0.8530095816 0.8530095816
 1605.7145996  -999.250000 12.859000206 -0.007000000 0.5297899842 2.1229999065 35.939701080 144.37600708 0.7990000248 58.513000488 0.8570352793 0.8570352793
 1605.8670654  -999.250000 13.022999763 -0.003000000 0.5102500319 2.1540000439 37.002174377 145.00329590 0.8029999733 58.513599396 0.8790240288 0.8790240288
 1606.0194092  -999.250000 13.062999725 0.0130000003 0.5048800111 2.1840000153 37.903743744 146.37460327 0.8069999814 58.763401031 0.8889839649 0.8889839649
 1606.1718750  -999.250000 13.062999725 0.0179999992 0.5278300047 2.1459999084 36.500598907 146.12500000 0.8069999814 59.012699127 0.8789447546 0.8789447546
 1606.3242188  -999.250000 13.147999763 -0.003000000 0.5761700273 2.0840001106 36.747795105 146.12440491 0.8069999814 58.888801575 0.8559423089 0.8559423089
