# LAS format log file from PETREL
# Project units are specified as depth units
#==================================================================
~Version information
VERS.   2.0:
WRAP.   NO:
#==================================================================
~Well
STRT .m      215.21697998 :
STOP .m      2803.2739258 :
STEP .m     0.00000000 :
NULL .        -999.250000 :
COMP.           : COMPANY
WELL.  34/10-12   : WELL
FLD.            : FIELD
LOC.            : LOCATION
SRVC.           : SERVICE COMPANY
DATE.  2018-09-11 14:48:43   : Log Export Date {yyyy-MM-dd HH:mm:ss}
PROV.           : PROVINCE
UWI.   34/10-12   : UNIQUE WELL ID
API.            : API NUMBER
#==================================================================
~Curve
DEPT .m                   : DEPTH
Lithology_geolink ._      : Lithology_geolink
CALI .in                  : CALI
DRHO .g/cm3               : DRHO
NPHI .m3/m3               : NPHI
RHOB .g/cm3               : RHOB
GR .gAPI                  : GR
DTC .us/ft                : DTC
RDEP .ohm.m               : RDEP
SP .mV                    : SP
RSHA .ohm.m               : RSHA
RMED .ohm.m               : RMED
~Parameter
#==================================================================
~Ascii
# ...
 728.19543457  -999.250000 12.258000374 0.0820000023 0.3955099881 2.1909999847 66.306182861 134.50100708 2.4140176773 30.447248459 2.1859681606 2.1859681606
 728.34783936  -999.250000 12.241999626 0.1019999981 0.4116199911 2.1909999847 62.908439636 134.99874878 2.4359970093 30.074251175 2.1700119972 2.1700119972
 728.50024414  -999.250000 12.272999763 0.1040000021 0.4677700102 2.1840000153 64.125373840 134.37725830 2.4319982529 30.696748734 2.1759560108 2.1759560108
 728.65264893  -999.250000 12.343999863 0.1080000028 0.4706999958 2.1800000668 64.313880920 135.49850464 2.4299728870 30.074218750 2.1540641785 2.1540641785
 728.80505371  -999.250000 12.343999863 0.0900000036 0.4379900098 2.1500000954 64.750747681 134.75350952 2.3959746361 30.682750702 2.1860220432 2.1860220432
 728.95745850  -999.250000 12.343999863 0.0759999976 0.4072299898 2.1519999504 65.125747681 136.49774170 2.3749783039 31.057498932 2.1969840527 2.1969840527
 729.10986328  -999.250000 12.343999863 0.0399999991 0.4140599966 2.1250000000 65.501876831 135.37725830 2.3569819927 31.309755325 2.1888437271 2.1888437271
 729.26226807  -999.250000 12.343999863 0.0280000009 0.4331099987 2.1429998875 66.436248779 136.50700378 2.3419904709 32.681999207 2.1109058857 2.1109058857
 729.41467285  -999.250000 12.343999863 0.0219999999 0.4423799813 2.1480000019 65.561500549 139.99699402 2.3339807987 32.682750702 2.0639297962 2.0639297962
 729.56707764  -999.250000 12.093999863 0.0130000003 0.4360400140 2.1349999905 64.814254761 138.50125122 2.3179771900 33.056247711 2.0290641785 2.0290641785
 729.71942139  -999.250000 12.227000237 0.0309999995 0.4375000000 2.1619999409 65.439102173 139.12440491 2.2989840508 32.681198120 2.0610401630 2.0610401630
 729.87182617  -999.250000 12.218999863 0.0619999990 0.3974599838 2.1970000267 66.125625610 138.74449158 2.2789752483 32.183219910 2.0860240459 2.0860240459
 730.02423096  -999.250000 12.218999863 0.0719999969 0.4291999936 2.2269999981 66.439506531 136.00000000 2.2479782104 32.790000916 2.0979440212 2.0979440212
 730.17663574  -999.250000 12.227000237 0.0480000004 0.4448199868 2.2109999657 67.192008972 136.00024414 2.2209792137 32.290500641 2.0699617863 2.0699617863
 730.32904053  -999.250000 12.241999626 0.0299999993 0.4521499872 2.1989998817 69.182624817 136.12976074 2.1949768066 32.040500641 2.0508980751 2.0508980751
 730.48144531  -999.250000 12.241999626 0.0509999990 0.4238300025 2.2049999237 66.500000000 138.50575256 2.1659734249 31.789813995 1.9998759031 1.9998759031
 730.63385010  -999.250000 12.241999626 0.0549999997 0.4482400119 2.1819999218 66.495491028 141.37774658 2.1329574585 31.199218750 1.9378777742 1.9378777742
 730.78625488  -999.250000 12.227000237 0.0399999991 0.4550800025 2.1410000324 64.255508423 142.75726318 2.0799062252 31.805746078 1.8768877983 1.8768877983
 730.93865967  -999.250000 12.272999763 0.0209999997 0.4575199783 2.1229999065 66.983917236 146.37049866 2.0018656254 31.180997849 1.8209999800 1.8209999800
 731.09106445  -999.250000 12.241999626 0.0149999997 0.4350599945 2.1210000515 58.953796387 144.11874390 1.8898594379 30.680498123 1.8210420609 1.8210420609
 731.24346924  -999.250000 12.227000237 0.0160000008 0.4384799898 2.1150000095 51.367053986 141.00199890 1.7728871107 29.929244995 1.8420140743 1.8420140743
 731.39587402  -999.250000 12.227000237 0.0149999997 0.4545899928 2.0920000076 47.403495789 142.00000000 1.6789290905 28.556247711 1.8487256765 1.8487256765
 731.54827881  -999.250000 12.218999863 0.0089999996 0.4614300132 2.0429999828 46.151618958 142.02027893 1.6199820042 28.180747986 1.7117216587 1.7117216587
 731.70062256  -999.250000 12.227000237 0.0460000001 0.4428699911 2.0209999084 43.967750549 152.13520813 1.6050032377 27.556573868 1.5728108883 1.5728108883
 731.85302734  -999.250000 12.492000580 0.0790000036 0.4521499872 1.9839999676 43.194309235 158.50198364 1.6090015173 27.292001724 1.4550448656 1.4550448656
 732.00543213  -999.250000 12.687999725 0.0930000022 0.4448199868 1.9689999819 47.140079498 159.75399780 1.6110223532 27.915248871 1.4832823277 1.4832823277
 732.15783691  -999.250000 13.500000000 0.0419999994 0.4624000192 1.9479999542 54.657375336 161.73548889 1.6390280724 27.543252945 1.6244885921 1.6244885921
 732.31024170  -999.250000 15.055000305 0.0130000003 0.4243199825 1.9989999533 55.346504211 154.48248291 1.6740432978 28.667472839 1.8680821657 1.8680821657
 732.46264648  -999.250000 14.555000305 0.0149999997 0.4023400247 2.0780000687 56.592124939 145.74398804 1.7280737162 29.402250290 1.9089599848 1.9089599848
 732.61505127  -999.250000 12.796999931 0.0230000000 0.4008800089 2.1289999485 55.660442352 142.74549866 1.8200784922 30.028062820 1.8888639212 1.8888639212
 732.76745605  -999.250000 13.359000206 0.0209999997 0.4111299813 2.1429998875 57.875377655 140.49574280 1.9180561304 31.056999207 1.8210079670 1.8210079670
 732.91986084  -999.250000 13.210999489 0.0219999999 0.4081999958 2.1679999828 58.063251495 138.38050842 1.9880660772 31.057968140 1.8250681162 1.8250681162
 733.07226563  -999.250000 12.781000137 0.0219999999 0.4101599753 2.1760001183 58.183868408 141.12899780 2.0430395603 31.539999008 1.8591240644 1.8591240644
 733.22467041  -999.250000 12.930000305 0.0280000009 0.3979499936 2.1800000668 56.116176605 143.12950134 2.0760264397 31.041000366 1.9211581945 1.9211581945
 733.37707520  -999.250000 12.531000137 0.0209999997 0.4394499958 2.1559998989 51.722755432 145.37699890 2.0980253220 31.042221069 2.0000000000 2.0000000000
 733.52947998  -999.250000 12.477000237 0.0350000001 0.4511699975 2.1719999313 53.597255707 146.37174988 2.1190288067 31.651748657 1.9999719858 1.9999719858
 733.68188477  -999.250000 12.694999695 0.0340000018 0.4501999915 2.1879999638 55.230388641 144.74124146 2.1430251598 32.027252197 1.9859318733 1.9859318733
 733.83422852  -999.250000 12.741999626 0.0320000015 0.4252899885 2.2109999657 60.910003662 140.36718750 2.1640248299 32.650825500 1.9520288706 1.9520288706
 733.98663330  -999.250000 12.921999931 0.0299999993 0.3989300132 2.2290000916 63.408954620 135.49598694 2.1950294971 32.540397644 1.9700433016 1.9700433016
 734.13903809  -999.250000 12.694999695 0.0230000000 0.4233399928 2.2249999046 65.256004333 132.99899292 2.2320306301 32.166000366 1.9971121550 1.9971121550
 734.29144287  -999.250000 12.781000137 0.0260000005 0.4257799983 2.2209999561 68.247245789 132.50199890 2.2700295448 32.164249420 2.0531201363 2.0531201363
 734.44384766  -999.250000 12.796999931 0.0120000001 0.4541000128 2.2109999657 66.875877380 133.50000000 2.3070247173 31.291219711 2.1130599976 2.1130599976
 734.59625244  -999.250000 13.508000374 0.0120000001 0.4160200059 2.2130000591 67.310752869 133.50050354 2.3380153179 31.400751114 2.1430780888 2.1430780888
 734.74865723  -999.250000 14.296999931 0.0179999992 0.3911100030 2.2339999676 66.191253662 133.75000000 2.3570096493 31.275217056 2.1820180416 2.1820180416
 734.90100098  -999.250000 13.453001022 0.0260000005 0.3627899885 2.2460000515 67.815505981 133.74879456 2.3689999580 30.885200500 2.1910576820 2.1910576820
 735.05340576  -999.250000 13.069999695 0.0320000015 0.3535200059 2.2539999485 69.377700806 132.99920654 2.3690047264 31.009048462 2.2269871235 2.2269871235
 735.20581055  -999.250000 13.210999489 0.0419999994 0.3374000192 2.2560000420 71.064605713 132.50239563 2.3750000000 30.415575027 2.2189216614 2.2189216614
 735.35821533  -999.250000 12.796999931 0.0599999987 0.3378900290 2.2639999390 72.063400269 134.00160217 2.3750030994 30.151599884 2.1699712276 2.1699712276
 735.51055908  -999.250000 12.616999626 0.0450000018 0.3754900098 2.2360000610 72.306999207 135.00000000 2.3790006638 30.525735855 2.1519422531 2.1519422531
 735.66296387  -999.250000 12.875000000 0.0219999999 0.4038099945 2.2070000172 67.315856934 135.00000000 2.3810024261 30.307899475 2.1040132046 2.1040132046
 735.81536865  -999.250000 13.508000374 0.0209999997 0.4043000042 2.2090001106 69.688827515 134.99850464 2.3869993687 31.056980133 2.1150095463 2.1150095463
