# LAS format log file from PETREL
# Project units are specified as depth units
#==================================================================
~Version information
VERS.   2.0:
WRAP.   NO:
#==================================================================
~Well
STRT .m      215.21697998 :
STOP .m      2803.2739258 :
STEP .m     0.00000000 :
NULL .        -999.250000 :
COMP.           : COMPANY
WELL.  34/10-12   : WELL
FLD.            : FIELD
LOC.            : LOCATION
SRVC.           : SERVICE COMPANY
DATE.  2018-09-11 14:48:43   : Log Export Date {yyyy-MM-dd HH:mm:ss}
PROV.           : PROVINCE
UWI.   34/10-12   : UNIQUE WELL ID
API.            : API NUMBER
#==================================================================
~Curve
DEPT .m                   : DEPTH
Lithology_geolink ._      : Lithology_geolink
CALI .in                  : CALI
DRHO .g/cm3               : DRHO
NPHI .m3/m3               : NPHI
RHOB .g/cm3               : RHOB
GR .gAPI                  : GR
DTC .us/ft                : DTC
RDEP .ohm.m               : RDEP
SP .mV                    : SP
RSHA .ohm.m               : RSHA
RMED .ohm.m               : RMED
~Parameter
#==================================================================
~Ascii
 215.21697998  -999.250000 26.718999863 0.0839999989 0.5283200145 1.9670000076 14.747756958 65.999702454 0.8579999804 -123.7850494 0.2800047994 0.2800047994
 215.36938477  -999.250000 26.718999863 0.0860000029 0.5600600243 1.9639999866 12.885252953 65.750000000 0.8580231071 -122.1591492 0.2840072215 0.2840072215
 215.52178955  -999.250000 26.718999863 0.0909999982 0.5937500000 1.9670000076 14.757465363 65.750000000 0.8790286183 -119.7844467 0.2900011837 0.2900011837
 215.67419434  -999.250000 26.718999863 0.0780000016 0.5610399842 1.9450000525 14.316029549 65.750328064 0.9049966931 -117.6594009 0.2910013199 0.2910013199
 215.82658386  -999.250000 26.718999863 0.0790000036 0.5297899842 1.9459999800 16.641637802 66.010063171 0.9020010829 -115.6612549 0.2920072079 0.2920072079
 215.97898865  -999.250000 26.718999863 0.0700000003 0.5371099710 1.9340000153 17.174873352 74.375450134 0.9030286074 -115.0363998 0.2980156243 0.2980156243
 216.13139343  -999.250000 26.718999863 0.0769999996 0.5214799643 1.9450000525 19.561250687 74.749755859 0.9290231466 -114.5363541 0.3110117018 0.3110117018
 216.28378296  -999.250000 26.718999863 0.0700000003 0.5346699953 1.9359999895 18.217855453 74.563224792 0.9500054717 -114.0382004 0.3200083971 0.3200083971
 216.43618774  -999.250000 26.718999863 0.0680000037 0.5473600030 1.9249999523 17.265907288 74.749778748 0.9550043941 -115.0371552 0.3270108104 0.3270108104
 216.58859253  -999.250000 26.718999863 0.0549999997 0.5791000128 1.9040000439 17.188468933 74.562553406 0.9590209126 -115.1613998 0.3360060155 0.3360060155
 216.74099731  -999.250000 26.718999863 0.0570000000 0.5932599902 1.9010000229 17.575548172 74.188003540 0.9780066013 -114.6618423 0.3410103917 0.3410103917
 216.89338684  -999.250000 26.718999863 0.0529999994 0.5703099966 1.8980000019 15.693283081 74.187774658 0.9839967489 -114.5336990 0.3489988148 0.3489988148
 217.04579163  -999.250000 26.718999863 0.0630000010 0.6015599966 1.9110000134 14.266562462 73.999702454 0.9810165167 -111.7824936 0.3480035961 0.3480035961
 217.19819641  -999.250000 26.718999863 0.0570000000 0.5952100158 1.8999999762 14.735770226 73.750328064 0.9960385561 -108.0296783 0.3509961069 0.3509961069
 217.35058594  -999.250000 26.718999863 0.0740000010 0.5693399906 1.9160000086 16.093473434 73.999473572 1.0310099125 -102.4035950 0.3480047882 0.3480047882
 217.50299072  -999.250000 26.718999863 0.0640000030 0.5405300260 1.8990000486 15.656563759 73.563224792 1.0400121212 -95.40299225 0.3520216346 0.3520216346
 217.65539551  -999.250000 26.718999863 0.0689999983 0.5122100115 1.8969999552 16.123949051 73.750297546 1.0510098934 -87.90404510 0.3700252473 0.3700252473
 217.80778503  -999.250000 26.718999863 0.0460000001 0.5244100094 1.8639999628 15.251745224 74.000450134 1.0600407124 -81.28610229 0.3910192251 0.3910192251
 217.96018982  -999.250000 26.718999863 0.0489999987 0.5317400098 1.8600000143 16.703599930 74.375228882 1.0970352888 -80.53715515 0.4070060253 0.4070060253
 218.11259460  -999.250000 26.718999863 0.0619999990 0.5600600243 1.8710000515 17.205196381 74.563003540 1.1289867163 -80.65959930 0.4119988084 0.4119988084
 218.26499939  -999.250000 26.718999863 0.0829999968 0.5483400226 1.8880000114 19.028518677 74.563247681 1.1170264482 -78.66037750 0.4109908938 0.4109908938
 218.41738892  -999.250000 26.718999863 0.0839999989 0.5463899970 1.8819999695 17.128190994 74.750526428 1.1410363913 -77.41260529 0.4039891958 0.4039891958
 218.56979370  -999.250000 26.718999863 0.0960000008 0.5678699613 1.8860000372 19.779891968 75.188446045 1.1740231514 -77.91260529 0.3949868083 0.3949868083
 218.72219849  -999.250000 26.718999863 0.0860000029 0.6181600094 1.8750000000 18.859506607 75.563003540 1.1950078011 -78.41260529 0.3839891851 0.3839891851
 218.87458801  -999.250000 26.718999863 0.0909999982 0.6127899885 1.8810000420 19.276090622 75.552719116 1.2020484209 -78.90959930 0.3749952018 0.3749952018
 219.02699280  -999.250000 26.718999863 0.0630000010 0.5830099583 1.8710000515 15.195516586 66.999473572 1.2460815907 -76.90959930 0.3709963858 0.3709963858
 219.17939758  -999.250000 26.718999863 0.0719999969 0.5620099902 1.9199999571 15.626746178 66.562553406 1.3200507164 -74.91012573 0.3680000007 0.3680000007
 219.33180237  -999.250000 26.718999863 0.0599999987 0.5986300111 1.9769999981 17.076271057 66.178359985 1.3660286665 -73.34558105 0.3679947853 0.3679947853
 219.48419189  -999.250000 26.718999863 0.0700000003 0.5683599710 2.0680000782 15.750112534 58.780284882 1.3920737505 -70.72212219 0.3639915884 0.3639915884
 219.63659668  -999.250000 26.718999863 0.0850000009 0.5532199740 2.1760001183 15.844056129 58.188224792 1.4591013193 -69.16065216 0.3569783568 0.3569783568
 219.78900146  -999.250000 26.718999863 0.1340000033 0.5097700357 2.2909998894 15.893419266 58.374752045 1.5510891676 -68.03765106 0.3389713466 0.3389713466
 219.94139099  -999.250000 26.718999863 0.1589999944 0.5610399842 2.3069999218 17.750507355 58.187511444 1.6320847273 -68.53887939 0.3169807792 0.3169807792
 220.09379578  -999.250000 26.718999863 0.1490000039 0.5502899885 2.2090001106 18.170272827 57.780998230 1.7090771198 -70.09839630 0.3009819686 0.3009819686
 220.24620056  -999.250000 26.718999863 0.1209999993 0.5629900098 2.0980000496 16.735595703 57.780998230 1.7791322470 -69.59802246 0.2859880030 0.2859880030
 220.39859009  -999.250000 26.718999863 0.1080000028 0.5874000192 2.0290000439 18.065156937 57.781711578 1.8991520405 -68.78677368 0.2759975791 0.2759975791
 220.55099487  -999.250000 26.718999863 0.0710000023 0.6342800260 1.9630000591 19.861740112 58.375259399 2.0371201038 -68.59862518 0.2740024030 0.2740024030
 220.70339966  -999.250000 26.718999863 0.0740000010 0.6210899949 1.9559999704 22.140924454 58.593513489 2.1462223530 -68.28782654 0.2760083973 0.2760083973
 220.85580444  -999.250000 26.718999863 0.0610000007 0.5146499872 1.9420000315 22.075010300 58.187755585 2.3484427929 -68.97351074 0.2830208242 0.2830208242
 221.00819397  -999.250000 26.718999863 0.0769999996 0.4946300089 1.9759999514 19.781562805 57.999736786 2.7506256104 -68.59817505 0.2990216315 0.2990216315
 221.16059875  -999.250000 26.718999863 0.0759999976 0.5419900417 1.9839999676 20.249568939 57.781261444 3.3184537888 -67.91222382 0.3170120120 0.3170120120
 221.31300354  -999.250000 26.718999863 0.0790000036 0.5825200081 2.0000000000 19.891075134 58.000000000 3.7302136421 -68.09839630 0.3270011842 0.3270011842
 221.46539307  -999.250000 26.718999863 0.0689999983 0.5595700145 1.9780000448 19.952585220 57.999511719 3.9245827198 -67.59786987 0.3280000091 0.3280000091
 221.61779785  -999.250000 26.718999863 0.0680000037 0.5424799919 1.9659999609 19.609056473 57.594223022 4.4543809891 -66.65930176 0.3279952109 0.3279952109
 221.77020264  -999.250000 26.718999863 0.0630000010 0.5986300111 1.9349999428 19.659210205 57.780773163 5.7052793503 -64.40779877 0.3239543438 0.3239543438
 221.92260742  -999.250000 26.718999863 0.0719999969 0.5878900290 1.9110000134 22.327226639 57.593467712 4.1444964409 -60.90898895 0.2859440446 0.2859440446
 222.07499695  -999.250000 26.718999863 0.0680000037 0.5722700357 1.8769999743 21.734394073 57.186573029 3.6893887520 -58.59561920 0.2429819852 0.2429819852
 222.22740173  -999.250000 26.718999863 0.0799999982 0.4873000085 1.8719999790 22.064088821 56.087413788 4.8462576866 -55.78376770 0.2279759645 0.2279759645
 222.37980652  -999.250000 26.718999863 0.0750000030 0.5000000000 1.8639999628 22.968978882 128.74951172 6.7257800102 -53.09704590 0.2079427242 0.2079427242
 222.53219604  -999.250000 26.718999863 0.0719999969 0.4985400140 1.8550000191 22.952430725 128.37451172 8.8912334442 -51.59574509 0.1639609635 0.1639609635
 222.68460083  -999.250000 26.718999863 0.0599999987 0.5253900290 1.8439999819 22.515430450 127.98046875 35.650169373 -49.09672165 0.1339934915 0.1339934915
 222.83700562  -999.250000 26.733999252 0.0560000017 0.5136700273 1.8600000143 22.079969406 113.00025940 4.1954178810 -47.34654617 0.1290939003 0.1290939003
