# LAS format log file from PETREL
# Project units are specified as depth units
#==================================================================
~Version information
VERS.   2.0:
WRAP.   NO:
#==================================================================
~Well
STRT .m      215.21697998 :
STOP .m      2803.2739258 :
STEP .m     0.00000000 :
NULL .        -999.250000 :
COMP.           : COMPANY
WELL.  34/10-12   : WELL
FLD.            : FIELD
LOC.            : LOCATION
SRVC.           : SERVICE COMPANY
DATE.  2018-09-11 14:48:43   : Log Export Date {yyyy-MM-dd HH:mm:ss}
PROV.           : PROVINCE
UWI.   34/10-12   : UNIQUE WELL ID
API.            : API NUMBER
#==================================================================
~Curve
DEPT .m                   : DEPTH
Lithology_geolink ._      : Lithology_geolink
CALI .in                  : CALI
DRHO .g/cm3               : DRHO
NPHI .m3/m3               : NPHI
RHOB .g/cm3               : RHOB
GR .gAPI                  : GR
DTC .us/ft                : DTC
RDEP .ohm.m               : RDEP
SP .mV                    : SP
RSHA .ohm.m               : RSHA
RMED .ohm.m               : RMED
~Parameter
#==================================================================
~Ascii
# ...
 2282.6755371 5.0000000000 12.039000511 0.0120000001 0.4091799855 2.3550000191 73.994995117 115.00120544 1.4290000200 82.746009827 1.6421377659 1.6421377659
 2282.8278809 5.0000000000 12.227000237 0.0140000004 0.3974599838 2.3420000076 72.428390503 115.37620544 1.3969999552 83.373512268 1.6853685379 1.6853685379
 2282.9802246 5.0000000000 11.961000443 0.0179999992 0.4003900290 2.3480000496 69.447616577 115.75640869 1.3610575199 84.777404785 1.7999839783 1.7999839783
 2283.1325684 5.0000000000 12.241999626 0.0209999997 0.3994100094 2.3550000191 72.449798584 117.74680328 1.3310480118 85.513404846 1.7945519686 1.7945519686
 2283.2849121 5.0000000000 12.171998978 0.0410000011 0.4204100072 2.3750000000 76.125999451 116.75039673 1.3130288124 81.900604248 1.6548204422 1.6548204422
 2283.4375000 5.0000000000 11.819999695 0.0329999998 0.4438499808 2.3570001125 76.744789124 117.00000000 1.3070000410 82.275001526 1.5428845882 1.5428845882
 2283.5898438 5.0000000000 11.593999863 0.0450000018 0.4492200017 2.3650000095 75.113983154 117.00240326 1.2970160246 82.273796082 1.5069454908 1.5069454908
 2283.7421875 5.0000000000 11.805000305 0.0379999988 0.4223600030 2.3519999981 71.685005188 117.75199890 1.2840209007 81.899200439 1.4899840355 1.4899840355
 2283.8945313 5.0000000000 11.944999695 0.0320000015 0.4106400013 2.3440001011 70.751800537 118.37599945 1.2770111561 81.649200439 1.4849984646 1.4849984646
 2284.0471191 5.0000000000 11.866999626 0.0160000008 0.3940399885 2.3220000267 71.886016846 118.99919891 1.2790000439 81.150405884 1.4841089249 1.4841089249
 2284.1994629 6.0000000000 11.866999626 0.0120000001 0.3808599710 2.3220000267 75.315605164 118.74679565 1.2810000181 81.271797180 1.5181506872 1.5181506872
 2284.3518066 6.0000000000 11.944999695 0.0070000002 0.3564499915 2.3139998913 76.126403809 117.74819946 1.2879887819 80.275001526 1.5651216507 1.5651216507
 2284.5041504 6.0000000000 12.171998978 0.0049999999 0.3842800260 2.3239998817 76.556892395 117.18890381 1.3059711456 80.274002075 1.6030176878 1.6030176878
 2284.6567383 6.0000000000 11.788999557 0.0070000002 0.4174800217 2.3440001011 72.767028809 117.74559021 1.3229999542 79.643188477 1.6140447855 1.6140447855
 2284.8090820 6.0000000000 11.593999863 -0.002000000 0.4360400140 2.3380000591 78.063003540 116.37059021 1.3400000334 77.537117004 1.6280288696 1.6280288696
 2284.9614258 6.0000000000 11.398000717 0.0020000001 0.4321300089 2.3480000496 78.072814941 115.00560760 1.3549760580 81.309204102 1.6369870901 1.6369870901
 2285.1137695 6.0000000000 11.508000374 0.0010000000 0.4067400098 2.3259999752 81.113403320 116.75579071 1.3669807911 82.312400818 1.6329872608 1.6329872608
 2285.2661133 6.0000000000 11.500000954 0.0170000009 0.4204100072 2.3359999657 77.497192383 118.56650543 1.3689967394 84.305595398 1.6290464401 1.6290464401
 2285.4187012 6.0000000000 11.522999763 0.0189999994 0.4086900055 2.3299999237 75.750404358 120.74879456 1.3630000353 84.049591064 1.6580417156 1.6580417156
 2285.5710449 6.0000000000 11.538999557 0.0189999994 0.3984400034 2.3280000687 75.864585876 120.37560272 1.3550127745 82.057205200 1.6709166765 1.6709166765
 2285.7233887 5.0000000000 11.484000206 0.0299999993 0.3925800025 2.3480000496 72.619796753 120.53740692 1.3430192471 82.430999756 1.6448527575 1.6448527575
 2285.8757324 5.0000000000 11.477000237 0.0379999988 0.3847700059 2.3480000496 71.002006531 112.56460571 1.3300209045 82.430000305 1.5989534855 1.5989534855
 2286.0283203 5.0000000000 11.468999863 0.0219999999 0.3911100030 2.3320000172 72.255409241 113.56240082 1.3279999495 81.807502747 1.5699391365 1.5699391365
 2286.1806641 5.0000000000 11.484000206 0.0170000009 0.3881800175 2.3239998817 73.945213318 113.37059021 1.3220000267 82.274597168 1.5510480404 1.5510480404
 2286.3330078 5.0000000000 11.430000305 0.0060000001 0.3837900162 2.3259999752 76.186805725 112.02480316 1.3200032711 82.150802612 1.5660511255 1.5660511255
 2286.4853516 5.0000000000 11.359000206 0.0280000009 0.4096699953 2.3519999981 75.815406799 119.74839783 1.3329790831 82.400405884 1.5820417404 1.5820417404
 2286.6379395 5.0000000000 11.328000069 0.0329999998 0.4111299813 2.3480000496 77.306388855 118.75080109 1.3470000029 82.640785217 1.6080898046 1.6080898046
 2286.7902832 5.0000000000 11.758000374 0.0379999988 0.4123499990 2.3429999352 75.235374451 118.98778534 1.3650000095 79.779312134 1.6361442804 1.6361442804
 2286.9426270 5.0000000000 12.187999725 0.0430000015 0.4135699868 2.3380000591 70.685600281 115.17958069 1.3929551840 81.131118774 1.6812435389 1.6812435389
 2287.0949707 5.0000000000 11.961000443 0.0399999991 0.4065099955 2.3320000172 69.942604065 112.56120300 1.4059791565 84.897201538 1.7571088076 1.7571088076
 2287.2475586 6.0000000000 11.734000206 0.0370000005 0.3993899822 2.3259999752 71.386817932 111.99859619 1.4190000296 84.016586304 1.7909808159 1.7909808159
 2287.3999023 6.0000000000 11.706999779 0.0250000004 0.3920899928 2.3180000782 75.066009521 111.57202148 1.4409999847 81.399200439 1.7846890688 1.7846890688
 2287.5522461 6.0000000000 11.680000305 0.0140000004 0.3847700059 2.3110001087 75.997192383 114.37059784 1.4699536562 81.150001526 1.6878460646 1.6878460646
 2287.7045898 6.0000000000 11.550000191 0.0040000002 0.3888300061 2.3159999847 75.136001587 112.99159241 1.4969567060 81.147598267 1.6401696205 1.6401696205
 2287.8569336 6.0000000000 11.413000107 0.0010000000 0.3829499781 2.3229999542 78.560096741 110.37279510 1.5239567757 80.400199890 1.6931810379 1.6931810379
 2288.0095215 6.0000000000 11.415000916 0.0089999996 0.3777000010 2.3469998837 76.748199463 108.99359131 1.5479999781 80.524597168 1.8062852621 1.8062852621
 2288.1618652 6.0000000000 11.345999718 0.0089999996 0.3686899841 2.3580000401 76.163566589 106.99599457 1.5719616413 80.393188477 1.8952211142 1.8952211142
 2288.3142090 16.000000000 11.225999832 0.0070000002 0.3574000299 2.3629999161 68.548805237 105.75399780 1.6099390984 78.280204773 1.9642463923 1.9642463923
 2288.4665527 16.000000000 11.159001350 0.0020000001 0.3401499987 2.3629999161 64.128807068 107.00029755 1.6619166136 79.903610229 2.0410847664 2.0410847664
 2288.6191406 16.000000000 11.166001320 -0.003000000 0.3243999779 2.3599998951 66.511215210 107.18860626 1.6979999542 82.152008057 2.0940866470 2.0940866470
 2288.7714844 5.0000000000 11.203000069 -0.004000000 0.3147900105 2.3619999886 70.019432068 107.37700653 1.7330000401 82.776206970 2.1209616661 2.1209616661
 2288.9238281 5.0000000000 11.277000427 0.0000000000 0.3160099983 2.3689999580 76.058593750 108.00059509 1.7549648285 83.152908325 2.1089198589 2.1089198589
 2289.0761719 5.0000000000 11.376000404 0.0080000004 0.3329000175 2.3780000210 74.681602478 108.18600464 1.7669807673 84.058799744 2.0838689804 2.0838689804
 2289.2287598 5.0000000000 11.345999718 0.0199999996 0.3402799964 2.3919999599 72.683998108 107.56440735 1.7690000534 84.937309265 2.0430512428 2.0430512428
 2289.3811035 5.0000000000 11.445999146 0.0149999997 0.3559199870 2.3800001144 71.445816040 107.99919128 1.7549999952 86.886779785 2.0589807034 2.0589807034
 2289.5334473 6.0000000000 11.453000069 0.0160000008 0.3554700017 2.3889999390 73.894836426 107.75000000 1.7290415764 82.776206970 2.0529165268 2.0529165268
 2289.6857910 6.0000000000 11.475000381 0.0109999999 0.3703700006 2.3889999390 80.058204651 107.75080109 1.7040400505 83.148803711 2.0267696381 2.0267696381
 2289.8381348 6.0000000000 11.576000214 0.0080000004 0.3748899698 2.3789999485 78.559196472 108.00189972 1.6810368299 82.774398804 1.9549311399 1.9549311399
 2289.9907227 6.0000000000 11.647999763 0.0049999999 0.3879100084 2.3659999371 76.179786682 109.19181061 1.6579999924 82.398796082 1.9119582176 1.9119582176
 2290.1430664 6.0000000000 11.647999763 0.0030000000 0.3797399998 2.3519999981 73.634216309 110.37560272 1.6330400705 82.023796082 1.8989647627 1.8989647627
 2290.2954102 6.0000000000 11.766000748 0.0109999999 0.3627500236 2.3599998951 76.506401062 110.56500244 1.6040464640 81.646003723 1.8879040480 1.8879040480
