# LAS format log file from PETREL
# Project units are specified as depth units
#==================================================================
~Version information
VERS.   2.0:
WRAP.   NO:
#==================================================================
~Well
STRT .m      215.21697998 :
STOP .m      2803.2739258 :
STEP .m     0.00000000 :
NULL .        -999.250000 :
COMP.           : COMPANY
WELL.  34/10-12   : WELL
FLD.            : FIELD
LOC.            : LOCATION
SRVC.           : SERVICE COMPANY
DATE.  2018-09-11 14:48:43   : Log Export Date {yyyy-MM-dd HH:mm:ss}
PROV.           : PROVINCE
UWI.   34/10-12   : UNIQUE WELL ID
API.            : API NUMBER
#==================================================================
~Curve
DEPT .m                   : DEPTH
Lithology_geolink ._      : Lithology_geolink
CALI .in                  : CALI
DRHO .g/cm3               : DRHO
NPHI .m3/m3               : NPHI
RHOB .g/cm3               : RHOB
GR .gAPI                  : GR
DTC .us/ft                : DTC
RDEP .ohm.m               : RDEP
SP .mV                    : SP
RSHA .ohm.m               : RSHA
RMED .ohm.m               : RMED
~Parameter
#==================================================================
~Ascii
# ...
 1940.6899414 13.000000000 12.944999695 -0.005000000 0.4548300207 2.2030000687 33.305934906 136.99398804 1.0099999905 67.138000488 0.9800384641 0.9800384641
 1940.8422852 13.000000000 13.461000443 -0.001000000 0.4986999929 2.2130000591 31.116355896 135.12940979 1.0089999437 67.138801575 0.9919263124 0.9919263124
 1940.9946289 13.000000000 13.125000000 -0.003000000 0.4896200299 2.2090001106 33.413288116 136.50149536 1.0080000162 67.386795044 0.9689038396 0.9689038396
 1941.1470947 13.000000000 13.703000069 -0.011000000 0.4659000039 2.1989998817 36.445606232 137.13220215 1.0060000420 66.889198303 0.9289456010 0.9289456010
 1941.2994385 13.000000000 13.336000443 -0.009000000 0.4280399978 2.1889998913 38.807590485 139.38461304 1.0069999695 67.262702942 0.9120023847 0.9120023847
 1941.4519043 13.000000000 13.086000443 -0.006000000 0.4745999873 2.1909999847 36.555191040 143.35379028 1.0149999857 67.138000488 0.9131217003 0.9131217003
 1941.6042480 13.000000000 13.156000137 -0.003000000 0.4740999937 2.2030000687 34.123271942 136.73977661 1.0329999924 67.138000488 0.9510769248 0.9510769248
 1941.7567139 13.000000000 13.413999557 -0.002000000 0.4867500067 2.2209999561 33.409500122 132.49119568 1.0509999990 67.136802673 0.9831120968 0.9831120968
 1941.9090576 13.000000000 13.234000206 -0.006000000 0.4458100200 2.2269999981 34.501201630 129.74519348 1.0789999962 66.763900757 1.0181683302 1.0181683302
 1942.0615234 13.000000000 13.218999863 -0.008000000 0.4552800059 2.2170000076 35.007507324 127.76480865 1.0959999561 67.138000488 1.0878943205 1.0878943205
 1942.2138672 13.000000000 13.476999283 -0.011000000 0.4389099777 2.2049999237 37.346855164 132.35577393 1.1059999466 67.138603210 1.0550792217 1.0550792217
 1942.3663330 13.000000000 13.234000206 -0.006000000 0.4361200035 2.2170000076 38.527694702 124.38201904 1.0959999561 67.386314392 1.0876955986 1.0876955986
 1942.5186768 13.000000000 13.750000000 -0.002000000 0.4223899841 2.2320001125 37.500000000 126.58522797 1.0720000267 66.862396240 0.9930576086 0.9930576086
 1942.6711426 13.000000000 13.180001259 -0.002000000 0.4389300048 2.2360000610 37.498497009 133.49438477 1.0779999495 66.978988647 1.0107212067 1.0107212067
 1942.8234863 13.000000000 13.718998909 0.0030000000 0.4604499936 2.2439999580 37.029499054 131.75640869 1.1100000143 64.491806030 0.9239904284 0.9239904284
 1942.9759521 13.000000000 13.687999725 0.0070000002 0.4465000033 2.2249999046 36.542167664 133.72836304 1.1579999924 65.998619080 0.9211314321 0.9211314321
 1943.1282959 16.000000000 13.125000000 -0.002000000 0.4356299937 2.2049999237 30.055141449 126.92874146 1.2150000334 69.616004944 0.9624676108 0.9624676108
 1943.2806396 16.000000000 13.515999794 -0.032000002 0.4189499915 2.2300000191 27.607196808 104.75781250 1.1909999847 70.854339600 1.1083630323 1.1083630323
 1943.4331055 16.000000000 14.779999733 -0.026000001 0.4240199924 2.2109999657 26.866407394 108.01840973 1.1339999437 67.675399780 1.2592113018 1.2592113018
 1943.5854492 13.000000000 16.142000198 -0.012000000 0.4327700138 2.2000000477 29.174161911 113.77579498 1.1089999676 67.799682617 1.3240288496 1.3240288496
 1943.7379150 13.000000000 16.472000122 0.0049999999 0.4642399848 2.1510000229 30.061576843 124.52810669 1.0829999447 67.665458679 0.9205420613 0.9205420613
 1943.8902588 13.000000000 16.947000504 -0.074000001 0.5022699833 2.1840000153 27.119480133 138.88275146 1.0460000038 67.495018005 0.7780095935 0.7780095935
 1944.0427246 13.000000000 17.760000229 -0.063000001 0.5085499883 2.1809999943 23.173076630 141.24250793 0.9520000219 67.082679749 0.7820832729 0.7820832729
 1944.1950684 13.000000000 18.597000122 -0.067000002 0.5319100022 2.1519999504 24.449445724 132.98307800 0.8669999838 66.048202515 0.8079735637 0.8079735637
 1944.3475342 13.000000000 19.843000412 -0.075000003 0.5302699804 2.1310000420 27.540145874 127.24008942 0.8249999881 65.299575806 0.7969487309 0.7969487309
 1944.4998779 13.000000000 19.452999115 -0.090000004 0.5349000096 2.0940001011 27.592082977 136.29809570 0.8399999738 65.158416748 0.7809680104 0.7809680104
 1944.6523438 13.000000000 20.340999603 -0.096000001 0.5474900007 2.0599999428 29.808067322 139.76803589 0.8840000033 62.504226685 0.7709904313 0.7709904313
 1944.8046875 13.000000000 20.595001221 -0.118000001 0.5350999832 2.0109999180 33.268413544 145.37219238 0.9089999795 67.862998962 0.7679871917 0.7679871917
 1944.9571533 13.000000000 20.101999283 -0.128000006 0.5307800174 2.0020000935 39.009716034 144.48277283 0.9190000296 68.167388916 0.7641121745 0.7641121745
 1945.1094971 13.000000000 18.719999313 -0.123000003 0.5072299838 2.0220000744 42.033103943 139.11178589 0.9139999747 65.798805237 0.7993651032 0.7993651032
 1945.2618408 13.000000000 17.292999268 -0.097000003 0.4952999949 2.0739998817 42.678833008 134.99609375 0.9139999747 65.421249390 0.9131730795 0.9131730795
 1945.4143066 13.000000000 15.366999626 -0.068000004 0.4837099910 2.1250000000 38.873096466 133.37699890 0.9290000200 63.866600037 0.9847918749 0.9847918749
 1945.5666504 13.000000000 13.512000084 -0.039999999 0.4700299799 2.1319999695 38.285205841 134.01562500 0.9789999723 65.304962158 0.9198245406 0.9198245406
 1945.7191162 13.000000000 12.711999893 -0.037999999 0.4867599905 2.0710000992 40.041206360 140.50280762 1.0319999456 67.369003296 0.8469871879 0.8469871879
 1945.8714600 13.000000000 12.866000175 -0.059999999 0.4943200052 1.9930000305 43.219001770 141.38311768 1.0340000391 69.540840149 0.8431153893 0.8431153893
 1946.0239258 13.000000000 13.876999855 -0.094999999 0.5170199871 1.9559999704 43.216796875 144.74359131 1.0049999952 65.747810364 0.8912913799 0.8912913799
 1946.1762695 13.000000000 14.475001335 -0.093000002 0.5300599933 2.0050001144 42.531223297 142.74578857 0.9610000253 69.115005493 0.9819350839 0.9819350839
 1946.3287354 13.000000000 13.012000084 -0.048000000 0.5329200029 2.0969998837 42.639812469 140.98638916 0.9290000200 70.351593018 0.9547982216 0.9547982216
 1946.4810791 13.000000000 11.701001167 -0.008000000 0.5058400035 2.1250000000 47.255783081 136.75901794 0.9290000200 67.110198975 0.8918293715 0.8918293715
 1946.6335449 13.000000000 11.692999840 0.0109999999 0.4787300229 2.0899999142 49.656299591 140.49559021 0.9430000186 66.359596252 0.8210672736 0.8210672736
 1946.7858887 13.000000000 11.647999763 0.0140000004 0.4563399851 2.0460000038 49.744697571 139.12059021 0.9470000267 65.612800598 0.8420736790 0.8420736790
 1946.9383545 13.000000000 11.510000229 0.0060000001 0.4412499964 2.0179998875 48.090496063 137.74159241 0.9430000186 65.859992981 0.8650096059 0.8650096059
 1947.0906982 13.000000000 11.395000458 -0.003000000 0.4376599789 2.0090000629 46.998497009 135.12780762 0.9319999814 65.238800049 0.8680288196 0.8680288196
 1947.2430420 13.000000000 11.376000404 -0.010000000 0.4659599960 2.0079998970 46.523937225 136.00811768 0.9110000134 65.798049927 0.8769999743 0.8769999743
 1947.3955078 13.000000000 11.366000175 -0.008000000 0.4915599823 2.0209999084 43.589698792 139.38140869 0.8980000019 64.984199524 0.8770672083 0.8770672083
 1947.5478516 13.000000000 11.376999855 -0.007000000 0.4814300239 2.0329999924 42.246620178 141.37890625 0.9060000181 64.123115540 0.8980432749 0.8980432749
 1947.7003174 13.000000000 11.253999710 -0.017999999 0.4673799872 2.0380001068 40.849304199 142.99800110 0.9079999924 68.734802246 0.9160416126 0.9160416126
 1947.8526611 13.000000000 11.314000130 -0.046000000 0.4691999853 2.0280001163 42.500000000 142.37831116 0.9120000005 68.044593811 0.9289663434 0.9289663434
 1948.0051270 13.000000000 11.336000443 -0.071999997 0.4698099792 2.0239999294 42.501804352 143.76281738 0.9240000248 65.798400879 0.9150192142 0.9150192142
 1948.1574707 13.000000000 12.039000511 -0.061000001 0.4617100060 2.0669999123 43.067356110 147.73257446 0.9340000153 65.300003052 0.9210360646 0.9210360646
 1948.3099365 13.000000000 11.507000923 -0.048999999 0.4561000168 2.1159999371 44.882808685 140.50199890 0.9330000281 65.299400330 0.9360896349 0.9360896349
