# LAS format log file from PETREL
# Project units are specified as depth units
#==================================================================
~Version information
VERS.   2.0:
WRAP.   NO:
#==================================================================
~Well
STRT .m      215.21697998 :
STOP .m      2803.2739258 :
STEP .m     0.00000000 :
NULL .        -999.250000 :
COMP.           : COMPANY
WELL.  34/10-12   : WELL
FLD.            : FIELD
LOC.            : LOCATION
SRVC.           : SERVICE COMPANY
DATE.  2018-09-11 14:48:43   : Log Export Date {yyyy-MM-dd HH:mm:ss}
PROV.           : PROVINCE
UWI.   34/10-12   : UNIQUE WELL ID
API.            : API NUMBER
#==================================================================
~Curve
DEPT .m                   : DEPTH
Lithology_geolink ._      : Lithology_geolink
CALI .in                  : CALI
DRHO .g/cm3               : DRHO
NPHI .m3/m3               : NPHI
RHOB .g/cm3               : RHOB
GR .gAPI                  : GR
DTC .us/ft                : DTC
RDEP .ohm.m               : RDEP
SP .mV                    : SP
RSHA .ohm.m               : RSHA
RMED .ohm.m               : RMED
~Parameter
#==================================================================
~Ascii
# ...
 2453.6682129 5.0000000000 10.250000000 0.0049999999 0.3173800111 2.4430000782 66.938804626 101.99799347 2.1270225048 84.335998535 2.4393203259 2.4393203259
 2453.8205566 5.0000000000 10.305000305 0.0130000003 0.3081099987 2.4530000687 67.196617126 101.37239838 2.1210095882 84.024200439 2.5391123295 2.5391123295
 2453.9731445 5.0000000000 10.234000206 0.0170000009 0.3222700059 2.4570000172 69.888504028 100.56210327 2.1250000000 83.773498535 2.5738701820 2.5738701820
 2454.1254883 5.0000000000 10.147999763 0.0170000009 0.3374000192 2.4690001011 72.689208984 100.37700653 2.1329870224 83.463600159 2.5469806194 2.5469806194
 2454.2778320 5.0000000000 10.071000099 0.0170000009 0.3168900013 2.4590001106 73.050781250 101.00060272 2.1349968910 83.960998535 2.5409805775 2.5409805775
 2454.4301758 5.0000000000 10.046999931 0.0120000001 0.3256800175 2.4409999847 69.243186951 101.18980408 2.1310064793 83.645195007 2.5349264145 2.5349264145
 2454.5827637 5.0000000000 10.046999931 -0.001000000 0.3227500021 2.4119999409 67.140327454 101.75209808 2.1310000420 82.156913757 2.5118415356 2.5118415356
 2454.7351074 5.0000000000 10.046999931 -0.008000000 0.3456999958 2.4040000439 70.324104309 102.18890381 2.1250000000 83.575599670 2.4787840843 2.4787840843
 2454.8874512 5.0000000000 10.046999931 -0.009000000 0.3344699740 2.4140000343 72.624000549 102.37439728 2.1289935112 81.224815369 2.4339680672 2.4339680672
 2455.0397949 5.0000000000 10.038999557 -0.001000000 0.3300800025 2.4319999218 72.315605164 102.18740082 2.1309969425 85.201385498 2.4240546227 2.4240546227
 2455.1923828 5.0000000000 9.9689998627 0.0140000004 0.3090800047 2.4409999847 73.112083435 101.99790192 2.1349999905 81.915321350 2.4411346912 2.4411346912
 2455.3447266 5.0000000000 9.9610004425 0.0049999999 0.3173800111 2.4159998894 70.423004150 101.56391144 2.1410000324 85.092994690 2.4691777229 2.4691777229
 2455.4970703 5.0000000000 9.9689998627 0.0099999998 0.3105500042 2.4140000343 67.301887512 101.74938965 2.1499857903 86.332389832 2.5060994625 2.5060994625
 2455.6494141 5.0000000000 9.9840002060 0.0130000003 0.3251999915 2.4179999828 63.853519440 101.56301117 2.1679711342 84.897796631 2.5371184349 2.5371184349
 2455.8017578 5.0000000000 9.9919996262 0.0289999992 0.3178700209 2.4379999638 66.812805176 101.56301117 2.1779839993 84.212196350 2.5740895271 2.5740895271
 2455.9543457 5.0000000000 10.008000374 0.0230000000 0.3344699740 2.4260001183 66.772201538 101.56121063 2.1819999218 84.285202026 2.6020624638 2.6020624638
 2456.1066895 5.0000000000 10.038999557 0.0070000002 0.3281300068 2.4340000153 71.369590759 101.18800354 2.1740128994 86.400001526 2.6149199009 2.6149199009
 2456.2590332 5.0000000000 10.038999557 -0.003000000 0.3339799941 2.4370000362 69.697013855 101.18860626 2.1600224972 86.394393921 2.5898237228 2.5898237228
 2456.4113770 6.0000000000 10.125000000 -0.002000000 0.3300800025 2.4470000267 72.499801636 101.37500000 2.1500160694 84.647994995 2.5348205566 2.5348205566
 2456.5639648 6.0000000000 10.147999763 0.0140000004 0.3515599966 2.4509999752 72.456932068 101.37590027 2.1459999084 84.024696350 2.4788174629 2.4788174629
 2456.7163086 6.0000000000 10.125000000 0.0060000001 0.3359400034 2.4279999733 76.372596741 101.56391144 2.1270000935 83.961097717 2.4411344528 2.4411344528
 2456.8686523 6.0000000000 10.211000443 0.0060000001 0.3256800175 2.4260001183 75.876808167 101.75199890 2.1050353050 83.775802612 2.4690866470 2.4690866470
 2457.0209961 6.0000000000 10.195000648 -0.002000000 0.3076199889 2.4200000763 76.424980164 102.37439728 2.1050000191 84.021591187 2.4959616661 2.4959616661
 2457.1735840 6.0000000000 10.187999725 0.0270000007 0.3256800175 2.4690001011 72.353363037 102.18409729 2.0980000496 82.963500977 2.4839758873 2.4839758873
 2457.3259277 5.0000000000 10.046999931 0.0209999997 0.3310500085 2.4649999142 67.860900879 101.37500000 2.0940001011 83.275299072 2.4791104794 2.4791104794
 2457.4782715 5.0000000000 9.9689998627 0.0209999997 0.3266600072 2.4649999142 64.937004089 101.37620544 2.0880095959 83.335792542 2.5020737648 2.5020737648
 2457.6306152 5.0000000000 9.9689998627 -0.002000000 0.3461900055 2.4260001183 64.628005981 101.75199890 2.0860030651 82.964805603 2.5249583721 2.5249583721
 2457.7832031 5.0000000000 9.9840002060 0.0000000000 0.3510699868 2.4279999733 65.553688049 102.37890625 2.0799999237 83.837898254 2.5117933750 2.5117933750
 2457.9355469 5.0000000000 9.9840002060 0.0020000001 0.3642599881 2.4200000763 63.599948883 103.19190216 2.0720000267 84.025604248 2.4689040184 2.4689040184
 2458.0878906 5.0000000000 10.015999794 0.0130000003 0.3354499936 2.4509999752 58.427333832 103.99799347 2.0739967823 84.147193909 2.4490447044 2.4490447044
 2458.2402344 6.0000000000 10.015999794 0.0260000005 0.3393599987 2.4630000591 65.087242126 103.37560272 2.0610208511 83.272796631 2.4630513191 2.4630513191
 2458.3925781 6.0000000000 10.163999557 0.0089999996 0.3286100030 2.4379999638 72.647033691 103.56300354 2.0430288315 82.594207764 2.4789872169 2.4789872169
 2458.5451660 6.0000000000 10.156000137 0.0040000002 0.3574199975 2.4119999409 79.475959778 103.56300354 2.0269999504 84.834594727 2.4747738838 2.4747738838
 2458.6975098 6.0000000000 10.195000648 -0.014000000 0.3652299941 2.3770000935 74.472396851 103.56510162 2.0100271702 84.346595764 2.4277262688 2.4277262688
 2458.8498535 5.0000000000 10.250000000 -0.011000000 0.3867200017 2.3829998970 68.744194031 104.00380707 1.9880353212 86.339202881 2.3708941936 2.3708941936
 2459.0021973 5.0000000000 10.265999794 -0.007000000 0.3847700059 2.3849999905 66.946617126 105.18979645 1.9760191441 87.028610229 2.3379135132 2.3379135132
 2459.1547852 5.0000000000 10.297000885 0.0089999996 0.3803699911 2.4079999924 69.632514954 105.75120544 1.9630000591 88.135879517 2.3109040260 2.3109040260
 2459.3071289 5.0000000000 10.305000305 0.0080000004 0.3588899970 2.4040000439 71.185302734 106.00270081 1.9529999495 85.213500977 2.2909519672 2.2909519672
 2459.4594727 5.0000000000 10.319999695 0.0010000000 0.3349599838 2.4000000954 70.619789124 106.56180573 1.9420176744 85.524597168 2.2809998989 2.2809998989
 2459.6118164 5.0000000000 10.327999115 -0.004000000 0.3369100094 2.3949999809 68.997795105 106.18800354 1.9220321178 85.400001526 2.2809934616 2.2809934616
 2459.7644043 5.0000000000 10.359000206 -0.012000000 0.3505899906 2.3929998875 68.316909790 106.18710327 1.9049999714 85.396392822 2.2789375782 2.2789375782
 2459.9167480 5.0000000000 10.250000000 -0.011000000 0.3735400140 2.3959999084 69.136703491 106.00000000 1.8930000067 84.646102905 2.2658464909 2.2658464909
 2460.0690918 5.0000000000 10.250000000 -0.003000000 0.3515599966 2.4059998989 71.566207886 106.00060272 1.8790223598 83.835594177 2.2339262962 2.2339262962
 2460.2214355 5.0000000000 10.250000000 0.0160000008 0.3510699868 2.4340000153 72.563804626 106.18980408 1.8740079403 83.406814575 2.2109680176 2.2109680176
 2460.3737793 5.0000000000 10.297000885 0.0199999996 0.3408200145 2.4340000153 72.796173096 106.74999237 1.8730015755 85.520996094 2.2009391785 2.2009391785
 2460.5263672 5.0000000000 10.156000137 0.0040000002 0.3647499979 2.4140000343 67.546478271 106.75299835 1.8719999790 84.263877869 2.1818940639 2.1818940639
 2460.6787109 5.0000000000 10.055001259 0.0040000002 0.3662099838 2.4100000858 64.121398926 107.37319946 1.8789887428 81.971595764 2.1600673199 2.1600673199
 2460.8310547 5.0000000000 10.078000069 -0.002000000 0.3852500021 2.3980000019 63.380607605 106.99859619 1.8799984455 83.960792542 2.1741442680 2.1741442680
 2460.9833984 5.0000000000 10.046999931 -0.003000000 0.3808599710 2.3959999084 65.124397278 106.55980682 1.8740096092 83.596015930 2.2192244530 2.2192244530
 2461.1359863 5.0000000000 10.078000069 -0.003000000 0.4038099945 2.4119999409 64.944610596 105.56120300 1.8680000305 86.390983582 2.2891058922 2.2891058922
 2461.2883301 5.0000000000 10.046999931 0.0000000000 0.3891600072 2.4159998894 66.310897827 105.18799591 1.8660000563 84.525299072 2.3108272552 2.3108272552
