# LAS format log file from PETREL
# Project units are specified as depth units
#==================================================================
~Version information
VERS.   2.0:
WRAP.   NO:
#==================================================================
~Well
STRT .m      215.21697998 :
STOP .m      2803.2739258 :
STEP .m     0.00000000 :
NULL .        -999.250000 :
COMP.           : COMPANY
WELL.  34/10-12   : WELL
FLD.            : FIELD
LOC.            : LOCATION
SRVC.           : SERVICE COMPANY
DATE.  2018-09-11 14:48:43   : Log Export Date {yyyy-MM-dd HH:mm:ss}
PROV.           : PROVINCE
UWI.   34/10-12   : UNIQUE WELL ID
API.            : API NUMBER
#==================================================================
~Curve
DEPT .m                   : DEPTH
Lithology_geolink ._      : Lithology_geolink
CALI .in                  : CALI
DRHO .g/cm3               : DRHO
NPHI .m3/m3               : NPHI
RHOB .g/cm3               : RHOB
GR .gAPI                  : GR
DTC .us/ft                : DTC
RDEP .ohm.m               : RDEP
SP .mV                    : SP
RSHA .ohm.m               : RSHA
RMED .ohm.m               : RMED
~Parameter
#==================================================================
~Ascii
# ...
 2111.6826172 5.0000000000 8.8129997253 -0.002000000 0.3547600210 2.2890000343 60.589096069 106.00501251 1.7200000286 71.904808044 2.1196923256 2.1196923256
 2111.8352051 5.0000000000 8.8030004501 -0.017000001 0.3437799811 2.2569999695 59.044246674 107.57740021 1.6929999590 73.405403137 1.7115888596 1.7115888596
 2111.9875488 4.0000000000 8.8269996643 -0.018999999 0.3420799971 2.2709999084 55.168720245 110.56761169 1.6649999619 74.514587402 1.4189391136 1.4189391136
 2112.1398926 4.0000000000 9.0290002823 -0.007000000 0.3476499915 2.3190000057 59.133914948 111.99419403 1.6289999485 71.270591736 1.4004647732 1.4004647732
 2112.2922363 4.0000000000 9.3210000992 0.0170000009 0.3707799911 2.3670001030 61.914913177 110.18338776 1.5720000267 69.902008057 1.5458045006 1.5458045006
 2112.4448242 4.0000000000 9.8420000076 0.0179999992 0.3868800104 2.3759999275 64.691612244 108.77133942 1.5260000229 70.528610229 1.7967836857 1.7967836857
 2112.5971680 5.0000000000 9.7550001144 0.0080000004 0.3950199783 2.3870000839 65.436500549 113.18980408 1.5199999809 71.274398804 1.9589232206 1.9589232206
 2112.7495117 5.0000000000 9.8649997711 0.0140000004 0.3872499764 2.4249999523 65.105972290 113.56240082 1.5559999943 71.149200439 1.9429999590 1.9429999590
 2112.9018555 5.0000000000 9.8219995499 0.0230000000 0.3898099959 2.4140000343 59.192703247 113.37299347 1.5970000029 70.894393921 1.9429711103 1.9429711103
 2113.0544434 5.0000000000 9.7779998779 0.0299999993 0.4015200138 2.4000000954 60.643081665 112.73768616 1.6410000324 69.145339966 1.9341106415 1.9341106415
 2113.2067871 5.0000000000 9.6379995346 0.0359999985 0.4177199900 2.3729999065 57.983699799 110.19669342 1.6729999781 68.200798035 1.9562079906 1.9562079906
 2113.3591309 5.0000000000 9.6250000000 0.0540000014 0.4373799860 2.3029999733 61.024391174 112.00380707 1.6729999781 72.307601929 1.7918461561 1.7918461561
 2113.5114746 18.000000000 9.5939998627 0.0780000016 0.4560500085 2.1970000267 58.978519440 113.19380951 1.6679999828 72.806404114 1.7438589334 1.7438589334
 2113.6638184 18.000000000 9.7110004425 0.0419999994 0.4975599945 2.0859999657 61.939300537 115.00881195 1.6590000391 72.933303833 1.7002308369 1.7002308369
 2113.8164063 18.000000000 9.5159997940 0.0250000004 0.5351600051 2.0469999313 62.345352173 117.75389862 1.6399999857 73.659751892 1.7720288038 1.7720288038
 2113.9687500 18.000000000 8.9770002365 -0.006000000 0.5361300111 1.8919999599 62.620796204 118.58744049 1.6369999647 75.682601929 1.7779134512 1.7779134512
 2114.1210938 18.000000000 9.2270002365 -0.009000000 0.5346699953 1.7009999752 61.307392120 126.20262909 1.6879999638 76.172889709 1.7506346703 1.7506346703
 2114.2734375 18.000000000 9.1409997940 -0.035999998 0.5424799919 1.6239999533 59.538959503 130.76161194 1.7899999619 73.648399353 1.6366922855 1.6366922855
 2114.4260254 18.000000000 9.0080003738 -0.063000001 0.5625000000 1.6859999895 52.020027161 134.40084839 1.8689999580 73.147598267 1.5414615870 1.5414615870
 2114.5783691 18.000000000 8.7189998627 -0.044000000 0.4877899885 1.9579999447 43.096950531 139.74879456 1.8890000582 72.647003174 1.6379791498 1.6379791498
 2114.7307129 3.0000000000 8.6639995575 -0.006000000 0.3989300132 2.1559998989 37.269779205 139.48797607 1.8259999752 72.023796082 1.8416025639 1.8416025639
 2114.8830566 3.0000000000 8.6250000000 -0.001000000 0.3100599945 2.1410000324 33.770282745 135.72195435 1.6289999485 71.645996094 2.0285961628 2.0285961628
 2115.0356445 3.0000000000 8.6169996262 -0.012000000 0.2973600030 2.1089999676 30.403966904 126.94410706 1.3420000076 70.388732910 1.9013029337 1.9013029337
 2115.1879883 3.0000000000 8.6169996262 -0.015000000 0.3076199889 2.0999999046 23.344224930 115.32879639 1.1109999418 68.046249390 1.5477055311 1.5477055311
 2115.3403320 3.0000000000 8.6169996262 -0.018999999 0.3261699975 2.0899999142 20.278846741 105.73076630 0.9390000105 66.035018921 1.0707885027 1.0707885027
 2115.4926758 3.0000000000 8.6090002060 -0.021000000 0.3286100030 2.0859999657 19.616262436 99.758415222 0.7950000167 69.152809143 0.6934936047 0.6934936047
 2115.6450195 3.0000000000 8.6090002060 -0.025000000 0.3168900013 2.0759999752 21.873147964 102.39162445 0.6840000153 70.023399353 0.5358878374 0.5358878374
 2115.7976074 3.0000000000 8.6090002060 -0.026000001 0.3203099966 2.0739998817 21.296852112 107.56990051 0.5960000157 69.530403137 0.5010767579 0.5010767579
 2115.9499512 3.0000000000 8.6020002365 -0.021000000 0.3203099966 2.0840001106 21.267900467 109.00060272 0.5210000277 70.645591736 0.5170544982 0.5170544982
 2116.1022949 3.0000000000 8.6090002060 -0.017999999 0.3222700059 2.0980000496 21.862806320 109.18800354 0.4690000117 69.267387390 0.5340800881 0.5340800881
 2116.2546387 3.0000000000 8.6020002365 -0.016000001 0.3071299791 2.1070001125 23.043344498 109.18599701 0.4420000017 66.906013489 0.5590416789 0.5590416789
 2116.4072266 3.0000000000 8.6090002060 -0.021000000 0.3120099902 2.1019999981 21.897811890 108.55909729 0.4350000024 68.768989563 0.5720432997 0.5720432997
 2116.5595703 3.0000000000 8.6020002365 -0.028000001 0.3100599945 2.0920000076 20.194675446 107.74729919 0.4329999983 67.526947021 0.5809903741 0.5809903741
 2116.7119141 3.0000000000 8.6020002365 -0.032000002 0.3051799834 2.0899999142 18.476762772 107.18740082 0.4399999976 67.931800842 0.5789294839 0.5789294839
 2116.8642578 3.0000000000 8.6020002365 -0.039999999 0.3090800047 2.1040000916 20.888847351 107.00000000 0.4469999969 68.182205200 0.5569455028 0.5569455028
 2117.0168457 3.0000000000 8.6090002060 -0.028999999 0.3115200102 2.1310000420 20.224260330 106.99879456 0.4539999962 68.556602478 0.5399663448 0.5399663448
 2117.1691895 3.0000000000 8.6090002060 -0.021000000 0.3271499872 2.1519999504 21.306922913 106.75209808 0.4609999955 68.681747437 0.5330240130 0.5330240130
 2117.3215332 3.0000000000 8.6090002060 -0.022000000 0.3212900162 2.1329998970 20.052709579 107.18659973 0.4659999907 68.837402344 0.5380352736 0.5380352736
 2117.4738770 3.0000000000 8.6090002060 -0.023000000 0.3212900162 2.1089999676 21.826147079 106.74938965 0.4709999859 68.962295532 0.5490545034 0.5490545034
 2117.6264648 3.0000000000 8.6090002060 -0.035999998 0.3242200017 2.0739998817 21.241662979 106.56301117 0.4760000110 69.057800293 0.5660288334 0.5660288334
 2117.7788086 3.0000000000 8.6090002060 -0.034000002 0.3251999915 2.0799999237 19.527400970 106.56301117 0.4839999974 69.428596497 0.5719088316 0.5719088316
 2117.9311523 3.0000000000 8.6090002060 -0.037999999 0.3222700059 2.0859999657 21.889398575 106.56441498 0.4930000007 68.930999756 0.5530064106 0.5530064106
 2118.0834961 3.0000000000 8.6090002060 -0.037999999 0.3134799898 2.0880000591 21.397010803 107.00180817 0.4979999959 68.928596497 0.5550384521 0.5550384521
 2118.2358398 3.0000000000 8.6169996262 -0.032000002 0.3139599860 2.1019999981 23.264446259 107.56240082 0.5009999871 68.177391052 0.5670448542 0.5670448542
 2118.3884277 3.0000000000 8.6250000000 -0.024000000 0.3105500042 2.1129999161 22.789037704 107.37590027 0.5000000000 67.061408997 0.5809759498 0.5809759498
 2118.5407715 3.0000000000 8.6330003738 -0.014000000 0.3061499894 2.1289999485 24.446849823 107.56390381 0.5019999743 68.196746826 0.5759423971 0.5759423971
 2118.6931152 3.0000000000 8.6250000000 -0.024000000 0.3066399992 2.1089999676 23.165939331 107.74939728 0.5009999871 71.452285767 0.5639967918 0.5639967918
 2118.8454590 3.0000000000 8.6250000000 -0.032000002 0.3149400055 2.0880000591 21.290567398 107.56360626 0.5030000210 68.428192139 0.5629807711 0.5629807711
 2118.9980469 3.0000000000 8.6250000000 -0.039999999 0.3173800111 2.0739998817 24.277418137 107.75601196 0.5030000210 67.555252075 0.5570095778 0.5570095778
 2119.1503906 3.0000000000 8.6250000000 -0.030999999 0.3173800111 2.0899999142 26.640697479 109.00180054 0.5040000081 67.399398804 0.5589904189 0.5589904189
 2119.3027344 3.0000000000 8.6330003738 -0.033000000 0.3286100030 2.0999999046 26.572341919 109.37440491 0.5019999743 67.275001526 0.5570160151 0.5570160151
