# LAS format log file from PETREL
# Project units are specified as depth units
#==================================================================
~Version information
VERS.   2.0:
WRAP.   NO:
#==================================================================
~Well
STRT .m      215.21697998 :
STOP .m      2803.2739258 :
STEP .m     0.00000000 :
NULL .        -999.250000 :
COMP.           : COMPANY
WELL.  34/10-12   : WELL
FLD.            : FIELD
LOC.            : LOCATION
SRVC.           : SERVICE COMPANY
DATE.  2018-09-11 14:48:43   : Log Export Date {yyyy-MM-dd HH:mm:ss}
PROV.           : PROVINCE
UWI.   34/10-12   : UNIQUE WELL ID
API.            : API NUMBER
#==================================================================
~Curve
DEPT .m                   : DEPTH
Lithology_geolink ._      : Lithology_geolink
CALI .in                  : CALI
DRHO .g/cm3               : DRHO
NPHI .m3/m3               : NPHI
RHOB .g/cm3               : RHOB
GR .gAPI                  : GR
DTC .us/ft                : DTC
RDEP .ohm.m               : RDEP
SP .mV                    : SP
RSHA .ohm.m               : RSHA
RMED .ohm.m               : RMED
~Parameter
#==================================================================
~Ascii
# ...
 2795.6538086  -999.250000 9.8199996948 -0.018999999 0.2231399864 2.4219999313 -197.1250000 92.999992371 1.9708156586 109.76859283 1.8260352612 1.8260352612
 2795.8061523  -999.250000 9.5629997253 -0.017000001 0.2270500064 2.4019999504 -197.1250000 92.999992371 1.9999535084 107.78862000 1.8370288610 1.8370288610
 2795.9584961  -999.250000 9.8669996262 -0.018999999 0.2270500064 2.3770000935 -197.1250000 92.999992371 1.9910289049 112.01177979 1.8460063934 1.8460063934
 2796.1110840  -999.250000 10.125000000 -0.013000000 0.2275400013 2.3929998875 -197.1250000 92.999992371 1.9840111732 107.89939880 1.8480048180 1.8480048180
 2796.2634277  -999.250000 9.0860004425 -0.006000000 0.2392600030 2.4549999237 -197.1250000 92.999992371 1.9760128260 107.78501892 1.8490064144 1.8490064144
 2796.4157715  -999.250000 8.8360004425 0.0399999991 0.2412099987 2.5639998913 -197.1250000 92.999992371 1.9670144320 110.89839935 1.8509999514 1.8509999514
 2796.5681152  -999.250000 8.8669996262 0.0419999994 0.2402300090 2.5720000267 -197.1250000 92.999992371 1.9650064707 110.40320587 1.8509999514 1.8509999514
 2796.7207031  -999.250000 8.8050003052 0.0280000009 0.2431599945 2.5199999809 -197.1250000 92.999992371 1.9630032778 111.38858032 1.8510047197 1.8510047197
 2796.8730469  -999.250000 8.7270002365 0.0080000004 0.2392600030 2.4769999981 -197.1250000 92.999992371 1.9590064287 109.02560425 1.8519999981 1.8519999981
 2797.0253906  -999.250000 8.7270002365 0.0020000001 0.2329100072 2.4670000076 -197.1250000 92.999992371 1.9609967470 109.14920044 1.8520032167 1.8520032167
 2797.1777344  -999.250000 8.7340002060 0.0030000000 0.2255900055 2.4609999657 -197.1250000 92.999992371 1.9699711800 108.90000153 1.8530000448 1.8530000448
 2797.3303223  -999.250000 8.7189998627 -0.010000000 0.2304700017 2.4379999638 -197.1250000 92.999992371 1.9729952812 108.89579773 1.8530577421 1.8530577421
 2797.4826660  -999.250000 8.6949996948 -0.001000000 0.2294899970 2.4549999237 -197.1250000 92.999992371 1.9680080414 108.02200317 1.8649711609 1.8649711609
 2797.6350098  -999.250000 8.6719999313 -0.004000000 0.2412099987 2.4609999657 -197.1250000 92.999992371 1.9620096684 107.39959717 1.8589935303 1.8589935303
 2797.7873535  -999.250000 8.6639995575 -0.001000000 0.2377899885 2.4590001106 -197.1250000 92.999992371 1.9570080042 107.27459717 1.8570032120 1.8570032120
 2797.9396973  -999.250000 8.6719999313 -0.002000000 0.1850600094 2.4449999332 -197.1250000 92.999992371 1.9570000172 107.14920044 1.8580064774 1.8580064774
 2798.0922852  -999.250000 8.6800003052 -0.005000000 0.1259799898 2.4470000267 -197.1250000 92.999992371 1.9589967728 106.89759827 1.8599952459 1.8599952459
 2798.2446289  -999.250000 8.6409997940 -0.003000000 0.0751999989 2.4590001106 -197.1250000 92.999992371 1.9570032358 106.40441132 1.8589935303 1.8589935303
 2798.3969727  -999.250000 8.6409997940 -0.008000000 0.0751999989 2.4630000591 -197.1250000 92.999992371 1.9570000172 107.77099609 1.8569935560 1.8569935560
 2798.5493164  -999.250000 8.6479997635 -0.006000000 0.0751999989 2.4609999657 -197.1250000 92.999992371 1.9570000172 106.52820587 1.8550000191 1.8550000191
 2798.7019043  -999.250000 8.6479997635 -0.004000000 0.0751999989 2.4590001106 -197.1250000 92.999992371 1.9570000172 107.52620697 1.8550000191 1.8550000191
 2798.8542480  -999.250000 8.6479997635 -0.007000000 0.0751999989 2.4530000687 -197.1250000 92.999992371 1.9570000172 107.77140045 1.8549952507 1.8549952507
 2799.0065918  -999.250000 8.6479997635 -0.003000000 0.0751999989 2.4630000591 -197.1250000 92.999992371 1.9570000172 107.02700806 1.8539999723 1.8539999723
 2799.1589355  -999.250000 8.6479997635 -0.001000000 0.0751999989 2.4769999981 -197.1250000 92.999992371 1.9540096521 107.64920044 1.8539999723 1.8539999723
 2799.3115234  -999.250000 8.6479997635 0.0070000002 0.0751999989 2.4979999065 -197.1250000 92.999992371 1.9549984932 107.40300751 1.8540047407 1.8540047407
 2799.4638672  -999.250000 8.6479997635 0.0089999996 0.0751999989 2.4839999676 -197.1250000 92.999992371 1.9030833244 108.02320099 1.8549952507 1.8549952507
 2799.6162109  -999.250000 8.6479997635 0.0020000001 0.0751999989 2.4790000916 -197.1250000 92.999992371 1.9029999971 107.65120697 1.8539999723 1.8539999723
 2799.7685547  -999.250000 8.6479997635 -0.004000000 0.0751999989 2.4590001106 -197.1250000 92.999992371 1.9029999971 108.02179718 1.8539999723 1.8539999723
 2799.9211426  -999.250000 8.6479997635 -0.004000000 0.0751999989 2.4800000191 -197.1250000 92.999992371 1.9010032415 107.02620697 1.8539999723 1.8539999723
 2800.0734863  -999.250000 8.6479997635 -0.008000000 0.0751999989 2.4570000172 -197.1250000 92.999992371 1.9010000229 107.27439880 1.8539999723 1.8539999723
 2800.2258301  -999.250000 8.6479997635 -0.009000000 0.0751999989 2.4509999752 -197.1250000 92.999992371 1.8990032673 107.14920044 1.8539999723 1.8539999723
 2800.3781738  -999.250000 8.6479997635 -0.013000000 0.0751999989 2.4319999218 -197.1250000 92.999992371 1.8990000486 106.89920044 1.8539999723 1.8539999723
 2800.5305176  -999.250000 8.6479997635 -0.003000000 0.0751999989 2.4530000687 -197.1250000 92.999992371 1.9009935856 106.64799500 1.8539999723 1.8539999723
 2800.6831055  -999.250000 8.6479997635 0.0149999997 0.0751999989 2.4820001125 -197.1250000 92.999992371 1.8990032673 106.02680206 1.8539999723 1.8539999723
 2800.8354492  -999.250000 8.6479997635 0.0170000009 0.0751999989 2.4879999161 -197.1250000 92.999992371 1.8990000486 106.40000153 1.8539999723 1.8539999723
 2800.9877930  -999.250000 8.6479997635 0.0070000002 0.0751999989 2.4709999561 -197.1250000 92.999992371 1.8970031738 106.40200806 1.8539967537 1.8539967537
 2801.1401367  -999.250000 8.6479997635 -0.001000000 0.0751999989 2.4530000687 -197.1250000 92.999992371 1.8969999552 107.02580261 1.8530032635 1.8530032635
 2801.2927246  -999.250000 8.6479997635 -0.003000000 0.0751999989 2.4489998817 -197.1250000 92.999992371 1.8920079470 107.27560425 1.8539999723 1.8539999723
 2801.4450684  -999.250000 8.6479997635 -0.005000000 0.0751999989 2.4389998913 -197.1250000 92.999992371 4.2891526222 107.40180206 1.8539999723 1.8539999723
 2801.5974121  -999.250000 8.6479997635 0.0020000001 0.0751999989 2.4570000172 -197.1250000 92.999992371 4.2930002213 107.77660370 1.8539999723 1.8539999723
 2801.7497559  -999.250000 8.6479997635 0.0060000001 0.0751999989 2.4549999237 -197.1250000 92.999992371 4.2930002213 108.27459717 1.8539999723 1.8539999723
 2801.9023438  -999.250000 8.6479997635 0.0089999996 0.0751999989 2.4730000496 -197.1250000 92.999992371 4.2930002213 108.15120697 1.8539999723 1.8539999723
 2802.0546875  -999.250000 8.6479997635 -0.006000000 0.0751999989 2.4470000267 -197.1250000 92.999992371 4.2930002213 108.40060425 1.8539999723 1.8539999723
 2802.2070313  -999.250000 8.6479997635 -0.005000000 0.0751999989 2.4570000172 -197.1250000 92.999992371 4.2930002213 108.52379608 1.8539999723 1.8539999723
 2802.3593750  -999.250000 8.6409997940 1.2740000486 0.0751999989 2.5610001087 -197.1250000 92.999992371 4.2930002213 108.15040588 1.8539999723 1.8539999723
 2802.5117188  -999.250000 8.6409997940 -0.593999982 0.0751999989 0.4219999909 -197.1250000 92.999992371 4.2930002213 108.31009674 1.8539999723 1.8539999723
 2802.6643066  -999.250000 8.6409997940 -2.568000078 0.0751999989 -1.712000012 -197.1250000 92.999992371 4.2930002213 119.22439575 1.8539999723 1.8539999723
 2802.8166504  -999.250000 8.6409997940 -2.568000078 0.0751999989 -1.712000012 -197.1250000 92.999992371 4.2930002213 119.08860016 1.8539999723 1.8539999723
 2802.9689941  -999.250000 8.6409997940 -2.568000078 0.0751999989 -1.712000012  -999.250000  -999.250000 4.2930002213  -999.250000  -999.250000  -999.250000
 2803.1213379  -999.250000 8.6409997940 -2.568000078 0.0751999989 -1.712000012  -999.250000  -999.250000  -999.250000  -999.250000  -999.250000  -999.250000
 2803.2739258  -999.250000 8.6409997940 -2.568000078 0.0751999989 -1.712000012  -999.250000  -999.250000  -999.250000  -999.250000  -999.250000  -999.250000
