# LAS format log file from PETREL
# Project units are specified as depth units
#==================================================================
~Version information
VERS.   2.0:
WRAP.   NO:
#==================================================================
~Well
STRT .m      215.21697998 :
STOP .m      2803.2739258 :
STEP .m     0.00000000 :
NULL .        -999.250000 :
COMP.           : COMPANY
WELL.  34/10-12   : WELL
FLD.            : FIELD
LOC.            : LOCATION
SRVC.           : SERVICE COMPANY
DATE.  2018-09-11 14:48:43   : Log Export Date {yyyy-MM-dd HH:mm:ss}
PROV.           : PROVINCE
UWI.   34/10-12   : UNIQUE WELL ID
API.            : API NUMBER
#==================================================================
~Curve
DEPT .m                   : DEPTH
Lithology_geolink ._      : Lithology_geolink
CALI .in                  : CALI
DRHO .g/cm3               : DRHO
NPHI .m3/m3               : NPHI
RHOB .g/cm3               : RHOB
GR .gAPI                  : GR
DTC .us/ft                : DTC
RDEP .ohm.m               : RDEP
SP .mV                    : SP
RSHA .ohm.m               : RSHA
RMED .ohm.m               : RMED
~Parameter
#==================================================================
~Ascii
# ...
 386.20980835  -999.250000 12.616999626 0.0579999983 0.4472700059 2.1500000954 61.539260864 155.75379944 2.6270232201 19.713399887 2.3380000591 2.3380000591
 386.36218262  -999.250000 12.616999626 0.0399999991 0.4379900098 2.1389999390 66.685722351 158.12202454 2.6500160694 19.963262558 2.3380084038 2.3380084038
 386.51458740  -999.250000 12.616999626 0.0359999985 0.4409199953 2.1640000343 65.059501648 156.00138855 2.6700332165 20.151306152 2.3439481258 2.3439481258
 386.66699219  -999.250000 12.711000443 0.0280000009 0.4668000042 2.1659998894 62.556297302 156.99684143 2.7030351162 20.371072769 2.3069915771 2.3069915771
 386.81939697  -999.250000 12.805000305 0.0359999985 0.4833999872 2.1740000248 57.780780792 154.74754333 2.7380280495 21.134321213 2.3010575771 2.3010575771
 386.97180176  -999.250000 12.906000137 0.0410000011 0.4560500085 2.1679999828 57.629806519 152.99739075 2.7660191059 20.651199341 2.3420817852 2.3420817852
 387.12420654  -999.250000 13.031000137 0.0280000009 0.4501999915 2.1480000019 60.626449585 151.37359619 2.7850182056 20.775398254 2.3930799961 2.3930799961
 387.27661133  -999.250000 13.140999794 0.0189999994 0.4399400055 2.1540000439 61.533599854 150.49839783 2.8030109406 20.400548935 2.4430594444 2.4430594444
 387.42898560  -999.250000 12.819999695 0.0049999999 0.4404299855 2.1559998989 63.156436920 149.49929810 2.8140139580 20.120000839 2.4800281525 2.4800281525
 387.58139038  -999.250000 12.546999931 0.0060000001 0.4218800068 2.1740000248 63.470359802 149.00140381 2.8280181885 20.119125366 2.5000195503 2.5000195503
 387.73379517  -999.250000 12.328000069 0.0089999996 0.4208999872 2.1640000343 64.434410095 150.00070190 2.8460130692 19.494606018 2.5139858723 2.5139858723
 387.88619995  -999.250000 12.382999420 0.0509999990 0.4282199740 2.1909999847 61.870094299 150.50122070 2.8590040207 19.213174820 2.5039663315 2.5039663315
 388.03860474  -999.250000 12.421999931 0.0750000030 0.4492200017 2.1909999847 58.372947693 151.37559509 2.8629918098 19.336898804 2.4799535275 2.4799535275
 388.19100952  -999.250000 12.477000237 0.0790000036 0.4580099881 2.1949999332 57.098857880 151.75000000 2.8550040722 18.651149750 2.4508879185 2.4508879185
 388.34338379  -999.250000 13.038999557 0.0309999995 0.4423799813 2.1540000439 60.126533508 151.74948120 2.8589847088 18.744342804 2.3810083866 2.3810083866
 388.49578857  -999.250000 12.382999420 0.0219999999 0.4204100072 2.1700000763 61.225002289 151.37413025 2.8399879932 18.275823593 2.3869917393 2.3869917393
 388.64819336  -999.250000 12.382999420 0.0189999994 0.4150400162 2.1840000153 65.497856140 150.74894714 2.8279981613 18.151874542 2.3810744286 2.3810744286
 388.80059814  -999.250000 12.382999420 0.0350000001 0.4213899970 2.2070000172 63.974914551 150.00051880 2.8259940147 18.775648117 2.4340267181 2.4340267181
 388.95300293  -999.250000 12.343999863 0.0280000009 0.4047900140 2.1989998817 68.186866760 150.37448120 2.8200018406 18.526742935 2.4530141354 2.4530141354
 389.10540771  -999.250000 12.343999863 0.0140000004 0.3984400034 2.1779999733 67.379905701 150.00079346 2.8220119476 19.057600021 2.4629743099 2.4629743099
 389.25781250  -999.250000 12.343999863 0.0250000004 0.3959999979 2.1879999638 70.431396484 150.50360107 2.8340041637 19.432199478 2.4469857216 2.4469857216
 389.41018677  -999.250000 12.343999863 0.0509999990 0.4375000000 2.2130000591 66.309150696 152.75000000 2.8379919529 19.558576584 2.4379804134 2.4379804134
 389.56259155  -999.250000 12.343999863 0.0419999994 0.4311500192 2.1909999847 63.559188843 152.75245667 2.8279981613 20.682327271 2.4239971638 2.4239971638
 389.71499634  -999.250000 12.343999863 0.0170000009 0.4335900247 2.1659998894 60.846630096 154.50035095 2.8259849548 20.916175842 2.4219942093 2.4219942093
 389.86740112  -999.250000 12.343999863 0.0040000002 0.4081999958 2.1579999924 62.725090027 154.74824524 2.8109881878 21.040824890 2.4179942608 2.4179942608
 390.01980591  -999.250000 12.343999863 0.0170000009 0.4135699868 2.1879999638 67.067298889 153.49858093 2.7989881039 20.915321350 2.4140169621 2.4140169621
 390.17221069  -999.250000 12.352001190 0.0250000004 0.4013700187 2.1930000782 70.122497559 152.50100708 2.7869939804 20.432624817 2.4260096550 2.4260096550
 390.32461548  -999.250000 12.382999420 0.0140000004 0.4043000042 2.1819999218 68.556495667 153.12539673 2.7810039520 20.822374344 2.4320094585 2.4320094585
 390.47698975  -999.250000 12.343999863 0.0280000009 0.4169900119 2.1889998913 64.494522095 153.37500000 2.7850031853 20.431823730 2.4379396439 2.4379396439
 390.62939453  -999.250000 12.352001190 0.0209999997 0.4062500000 2.1840000153 60.598644257 153.37586975 2.7890019417 20.307350159 2.3950042725 2.3950042725
 390.78179932  -999.250000 12.352001190 0.0320000015 0.4169900119 2.1860001087 63.905078888 153.99772644 2.7909939289 20.555948257 2.3980531693 2.3980531693
 390.93420410  -999.250000 12.366999626 0.0189999994 0.4130899906 2.1619999409 63.245574951 152.37182617 2.7849850655 19.807350159 2.4360239506 2.4360239506
 391.08660889  -999.250000 12.437999725 0.0250000004 0.4389599860 2.1619999409 60.097114563 150.12727356 2.7699999809 20.056648254 2.4529805183 2.4529805183
 391.23901367  -999.250000 12.546999931 0.0070000002 0.4233399928 2.1559998989 62.317405701 151.74839783 2.7699980736 19.806598663 2.4389469624 2.4389469624
 391.39141846  -999.250000 12.531000137 0.0049999999 0.3945299983 2.1640000343 65.068107605 150.75219727 2.7680029869 19.557800293 2.4059598446 2.4059598446
 391.54379272  -999.250000 12.352001190 0.0040000002 0.3847700059 2.1740000248 68.244659424 152.12675476 2.7709975243 20.056123734 2.3809621334 2.3809621334
 391.69619751  -999.250000 12.352001190 0.0070000002 0.3867200017 2.1779999733 64.435157776 153.37640381 2.7679939270 19.432174683 2.3539860249 2.3539860249
 391.84860229  -999.250000 12.352001190 0.0189999994 0.4150400162 2.1889998913 62.405605316 154.37516785 2.7619860172 19.556823730 2.3440113068 2.3440113068
 392.00100708  -999.250000 12.437999725 0.0270000007 0.4052700102 2.1909999847 62.122501373 154.50035095 2.7479858398 19.431123734 2.3519971371 2.3519971371
 392.15341187  -999.250000 12.819999695 0.0340000018 0.4003900290 2.1989998817 60.343200684 154.75000000 2.7339789867 18.807399750 2.3499934673 2.3499934673
 392.30581665  -999.250000 13.758000374 0.0209999997 0.3837900162 2.1930000782 59.843700409 154.74839783 2.7129800320 19.056598663 2.3459806442 2.3459806442
 392.45822144  -999.250000 12.711000443 0.0160000008 0.3881800175 2.1889998913 59.655597687 153.74900818 2.6929790974 18.807199478 2.3340337276 2.3340337276
 392.61059570  -999.250000 12.453000069 0.0219999999 0.3891600072 2.1889998913 59.404464722 153.12413025 2.6719839573 18.933006287 2.3550281525 2.3550281525
 392.76300049  -999.250000 12.508000374 0.0209999997 0.4018599987 2.1760001183 58.316722870 152.50035095 2.6560118198 19.650648117 2.3749480247 2.3749480247
 392.91540527  -999.250000 12.546999931 0.0109999999 0.4023400247 2.1700000763 60.969703674 152.75175476 2.6680200100 19.401699066 2.3378963470 2.3378963470
 393.06781006  -999.250000 12.633000374 0.0049999999 0.4081999958 2.1600000858 61.472812653 154.00192261 2.6880369186 19.901393890 2.2639522552 2.2639522552
 393.22021484  -999.250000 12.694999695 0.0070000002 0.3964799941 2.1600000858 64.185897827 155.37399292 2.7250330448 20.182199478 2.2300944328 2.2300944328
 393.37261963  -999.250000 12.796999931 0.0280000009 0.3906300068 2.1879999638 62.880908966 154.74639893 2.7580308914 20.307825089 2.2892034054 2.2892034054
 393.52499390  -999.250000 12.977000237 0.0329999998 0.3793900013 2.2170000076 66.562652588 152.49667358 2.7890441418 20.822628021 2.4162242413 2.4162242413
 393.67739868  -999.250000 12.867000580 0.0320000015 0.3920899928 2.2379999161 66.320541382 150.12062073 2.8440511227 20.557350159 2.5760939121 2.5760939121
 393.82980347  -999.250000 12.867000580 0.0149999997 0.3842800260 2.2320001125 71.685722351 146.99913025 2.8950619698 20.807525635 2.6430153847 2.6430153847
