# LAS format log file from PETREL
# Project units are specified as depth units
#==================================================================
~Version information
VERS.   2.0:
WRAP.   NO:
#==================================================================
~Well
STRT .m      215.21697998 :
STOP .m      2803.2739258 :
STEP .m     0.00000000 :
NULL .        -999.250000 :
COMP.           : COMPANY
WELL.  34/10-12   : WELL
FLD.            : FIELD
LOC.            : LOCATION
SRVC.           : SERVICE COMPANY
DATE.  2018-09-11 14:48:43   : Log Export Date {yyyy-MM-dd HH:mm:ss}
PROV.           : PROVINCE
UWI.   34/10-12   : UNIQUE WELL ID
API.            : API NUMBER
#==================================================================
~Curve
DEPT .m                   : DEPTH
Lithology_geolink ._      : Lithology_geolink
CALI .in                  : CALI
DRHO .g/cm3               : DRHO
NPHI .m3/m3               : NPHI
RHOB .g/cm3               : RHOB
GR .gAPI                  : GR
DTC .us/ft                : DTC
RDEP .ohm.m               : RDEP
SP .mV                    : SP
RSHA .ohm.m               : RSHA
RMED .ohm.m               : RMED
~Parameter
#==================================================================
~Ascii
# ...
 1769.6970215  -999.250000 12.288999557 0.0109999999 0.4335900247 2.1310000420 38.471481323 138.12710571 0.7440000176 65.010894775 0.8000000119 0.8000000119
 1769.8494873  -999.250000 12.163999557 0.0189999994 0.4726599753 2.1459999084 39.495494843 139.00360107 0.7519999743 64.138801575 0.8000128269 0.8000128269
 1770.0018311  -999.250000 12.281000137 0.0080000004 0.5122100115 2.1370000839 38.097702026 140.12899780 0.7549999952 64.386398315 0.8040672541 0.8040672541
 1770.1542969  -999.250000 12.272999763 0.0040000002 0.5102500319 2.1270000935 39.249198914 141.37500000 0.7549999952 63.886795044 0.8250352740 0.8250352740
 1770.3066406  -999.250000 12.272999763 -0.002000000 0.4755899906 2.1070001125 39.002502441 141.37219238 0.7549999952 63.514205933 0.8359776139 0.8359776139
 1770.4591064  -999.250000 12.211000443 -0.003000000 0.4653300047 2.1070001125 39.782501221 140.49559021 0.7549999952 63.887996674 0.8289134502 0.8289134502
 1770.6114502  -999.250000 12.187999725 0.0010000000 0.4624000192 2.1050000191 40.247097015 139.12899780 0.7559999824 63.890399933 0.8019391298 0.8019391298
 1770.7637939  -999.250000 12.141000748 0.0060000001 0.4697299898 2.1050000191 39.343101501 140.37831116 0.7570000291 64.638298035 0.7830144167 0.7830144167
 1770.9162598  -999.250000 12.156000137 0.0060000001 0.4765599966 2.0999999046 38.969200134 141.75720215 0.7509999871 64.764999390 0.7890127897 0.7890127897
 1771.0686035  -999.250000 12.156000137 -0.003000000 0.4946300089 2.0940001011 39.028972626 144.00270081 0.7459999919 65.389205933 0.7930264473 0.7930264473
 1771.2210693  -999.250000 12.250000954 -0.001000000 0.5024399757 2.1040000916 38.185695648 145.12620544 0.7379999757 65.889198303 0.8039968014 0.8039968014
 1771.3734131  -999.250000 12.336000443 0.0000000000 0.5019500256 2.1040000916 37.471252441 145.50120544 0.7329999804 66.263603210 0.8029783368 0.8029783368
 1771.5258789  -999.250000 12.397999763 0.0020000001 0.4477500021 2.1070001125 38.410102844 145.99839783 0.7289999723 66.511802673 0.7939552069 0.7939552069
 1771.6782227  -999.250000 12.461001396 0.0030000000 0.4458000064 2.1129999161 39.689804077 145.49879456 0.7250000238 66.138298035 0.7799735069 0.7799735069
 1771.8306885  -999.250000 12.258000374 0.0010000000 0.4550800025 2.1129999161 40.425979614 144.99519348 0.7170000076 66.262199402 0.7689967752 0.7689967752
 1771.9830322  -999.250000 12.288999557 0.0130000003 0.5014600158 2.1229999065 36.682292938 143.49960327 0.7129999995 66.013000488 0.7679936290 0.7679936290
 1772.1354980  -999.250000 12.468999863 0.0080000004 0.5014600158 2.1070001125 34.901493073 143.37620544 0.7059999704 66.010993958 0.7659935355 0.7659935355
 1772.2878418  -999.250000 12.352001190 -0.002000000 0.5278300047 2.0940001011 33.495800018 143.75000000 0.7030000091 65.386001587 0.7639871836 0.7639871836
 1772.4403076  -999.250000 12.281000137 -0.006000000 0.5141599774 2.0799999237 32.189601898 143.74879456 0.7020000219 64.764205933 0.7600288391 0.7600288391
 1772.5926514  -999.250000 12.375000000 0.0000000000 0.5361300111 2.0899999142 32.689701080 143.37500000 0.7070000172 65.136398315 0.7690544128 0.7690544128
 1772.7449951  -999.250000 12.382999420 0.0089999996 0.5043900013 2.0920000076 33.221481323 143.37109375 0.7129999995 64.638603210 0.7860216498 0.7860216498
 1772.8974609  -999.250000 12.375000000 0.0170000009 0.4965800047 2.1089999676 34.252002716 141.74879456 0.7229999900 64.887199402 0.7950448394 0.7950448394
 1773.0498047  -999.250000 12.352001190 0.0120000001 0.4663099945 2.1070001125 34.878604889 141.37109375 0.7350000143 64.636795044 0.8090000153 0.8090000153
 1773.2022705  -999.250000 12.375000000 0.0280000009 0.4379900098 2.1329998970 36.373298645 139.74879456 0.7509999871 64.138000488 0.8090865016 0.8090865016
 1773.3546143  -999.250000 12.461001396 0.0250000004 0.4404299855 2.1229999065 35.845806122 139.37590027 0.7609999776 64.136497498 0.8360528946 0.8360528946
 1773.5070801  -999.250000 12.484000206 0.0289999992 0.4130899906 2.1189999580 36.590499878 139.75840759 0.7689999938 63.514205933 0.8580543995 0.8580543995
 1773.6594238  -999.250000 12.586000443 0.0250000004 0.4331099987 2.1110000610 35.504280090 142.37289429 0.7760000229 63.887393951 0.8749783635 0.8749783635
 1773.8118896  -999.250000 12.671999931 0.0230000000 0.4394499958 2.1129999161 37.281101227 141.49559021 0.7850000262 63.638000488 0.8659551740 0.8659551740
 1773.9642334  -999.250000 12.640999794 0.0149999997 0.4643599987 2.1019999981 37.322013855 140.12229919 0.7929999828 63.639202118 0.8519735336 0.8519735336
 1774.1166992  -999.250000 12.500000000 0.0020000001 0.4482400119 2.0980000496 41.072216034 138.99278259 0.8059999943 64.137596130 0.8409935832 0.8409935832
 1774.2690430  -999.250000 12.421999931 -0.002000000 0.4550800025 2.0899999142 43.936695099 136.74159241 0.8100000024 64.014999390 0.8390640616 0.8390640616
 1774.4215088  -999.250000 12.375000000 -0.002000000 0.4580099881 2.1040000916 43.523887634 134.12258911 0.8090000153 64.638000488 0.8591122031 0.8591122031
 1774.5738525  -999.250000 12.516000748 -0.006000000 0.4658200145 2.0980000496 41.312095642 133.36740112 0.8109999895 64.639602661 0.8940063715 0.8940063715
 1774.7261963  -999.250000 12.397999763 -0.007000000 0.4565399885 2.1070001125 41.041065216 131.00241089 0.8130000234 65.138000488 0.8959447145 0.8959447145
 1774.8786621  -999.250000 12.500000000 -0.002000000 0.4609400034 2.1170001030 45.215499878 132.01521301 0.8199999928 65.137603760 0.8728302717 0.8728302717
 1775.0310059  -999.250000 12.586000443 0.0010000000 0.4736299813 2.1480000019 44.118690491 136.73977661 0.8339999914 65.013603210 0.8200793266 0.8200793266
 1775.1834717  -999.250000 12.671999931 -0.010000000 0.4604499936 2.1930000782 41.495498657 132.45095825 0.8280000091 65.262199402 0.8537237644 0.8537237644
 1775.3358154  -999.250000 12.758000374 -0.012000000 0.4453099966 2.2709999084 40.092800140 117.18409729 0.8199999928 65.014205933 1.0792860985 1.0792860985
 1775.4882813  -999.250000 12.812999725 0.0120000001 0.4252899885 2.3180000782 39.594303131 115.56820679 0.8180000186 65.512199402 1.1975132227 1.1975132227
 1775.6406250  -999.250000 12.492000580 0.0419999994 0.4262699783 2.2809998989 39.687774658 117.19175720 0.8180000186 65.262397766 1.0454879999 1.0454879999
 1775.7930908  -999.250000 12.437999725 0.0439999998 0.4160200059 2.2049999237 39.609214783 118.81605530 0.8220000267 65.013000488 0.8328526616 0.8328526616
 1775.9454346  -999.250000 12.727001190 0.0209999997 0.4267599881 2.1429998875 44.341899872 139.37831116 0.8339999914 65.011199951 0.7871322036 0.7871322036
 1776.0979004  -999.250000 12.421999931 0.0060000001 0.4394499958 2.1310000420 43.477313995 140.74559021 0.8330000043 64.263404846 0.8420577049 0.8420577049
 1776.2502441  -999.250000 12.772999763 -0.002000000 0.4536100030 2.1310000420 46.054489136 139.36979675 0.8320000172 64.387199402 0.8599904180 0.8599904180
 1776.4027100  -999.250000 12.680000305 0.0000000000 0.4365200102 2.1310000420 43.412109375 137.74758911 0.8349999785 64.138000488 0.8569935560 0.8569935560
 1776.5550537  -999.250000 12.437999725 0.0070000002 0.4428699911 2.1370000839 45.306491852 136.98118591 0.8410000205 64.137603760 0.8550608754 0.8550608754
 1776.7075195  -999.250000 12.578000069 0.0080000004 0.4189499915 2.1310000420 43.280399323 131.13661194 0.8439999819 64.010993958 0.8741763234 0.8741763234
 1776.8598633  -999.250000 12.852000237 0.0000000000 0.4409199953 2.1289999485 43.091899872 134.74920654 0.8479999900 63.389198303 0.9290512800 0.9290512800
 1777.0122070  -999.250000 12.453000069 0.0070000002 0.4570299983 2.1270000935 42.433341980 134.50300598 0.8519999981 63.761196136 0.9450144172 0.9450144172
 1777.1646729  -999.250000 12.647999763 0.0089999996 0.4882799983 2.1189999580 40.489593506 135.75559998 0.8510000110 63.015003204 0.9510960579 0.9510960579
 1777.3170166  -999.250000 12.609000206 0.0080000004 0.4809600115 2.1110000610 37.251277924 137.50210571 0.8479999900 63.639503479 0.9810408950 0.9810408950
