# LAS format log file from PETREL
# Project units are specified as depth units
#==================================================================
~Version information
VERS.   2.0:
WRAP.   NO:
#==================================================================
~Well
STRT .m      215.21697998 :
STOP .m      2803.2739258 :
STEP .m     0.00000000 :
NULL .        -999.250000 :
COMP.           : COMPANY
WELL.  34/10-12   : WELL
FLD.            : FIELD
LOC.            : LOCATION
SRVC.           : SERVICE COMPANY
DATE.  2018-09-11 14:48:43   : Log Export Date {yyyy-MM-dd HH:mm:ss}
PROV.           : PROVINCE
UWI.   34/10-12   : UNIQUE WELL ID
API.            : API NUMBER
#==================================================================
~Curve
DEPT .m                   : DEPTH
Lithology_geolink ._      : Lithology_geolink
CALI .in                  : CALI
DRHO .g/cm3               : DRHO
NPHI .m3/m3               : NPHI
RHOB .g/cm3               : RHOB
GR .gAPI                  : GR
DTC .us/ft                : DTC
RDEP .ohm.m               : RDEP
SP .mV                    : SP
RSHA .ohm.m               : RSHA
RMED .ohm.m               : RMED
~Parameter
#==================================================================
~Ascii
# ...
 1077.9534912  -999.250000 14.718999863 0.0199999996 0.5043900013 1.8849999905 38.941905975 151.37258911 1.2610136271 47.986301422 1.2870647907 1.2870647907
 1078.1058350  -999.250000 14.679999352 0.0209999997 0.5122100115 1.8559999466 40.564800262 150.37680054 1.2780088186 48.111301422 1.3139928579 1.3139928579
 1078.2583008  -999.250000 14.781000137 0.0140000004 0.5043900013 1.8339999914 41.316226959 151.12831116 1.2890008688 48.235099792 1.3109278679 1.3109278679
 1078.4106445  -999.250000 14.796999931 0.0160000008 0.5131800175 1.8220000267 42.655921936 152.50390625 1.2899919748 47.861000061 1.2809567451 1.2809567451
 1078.5629883  -999.250000 14.671999931 0.0209999997 0.5375999808 1.8159999847 42.626651764 154.12820435 1.2799999714 47.859798431 1.2629776001 1.2629776001
 1078.7154541  -999.250000 14.671999931 0.0140000004 0.5537099838 1.7849999666 43.649845123 156.12590027 1.2619814873 47.109798431 1.2488967180 1.2488967180
 1078.8677979  -999.250000 14.508000374 0.0020000001 0.5288100243 1.7469999790 41.088592529 156.50360107 1.2389887571 46.611400604 1.2059150934 1.2059150934
 1079.0202637  -999.250000 14.647999763 -0.003000000 0.5429700017 1.7289999723 37.720050812 158.75421143 1.2249896526 46.859420776 1.1528679132 1.1528679132
 1079.1726074  -999.250000 14.616999626 0.0000000000 0.5473600030 1.7309999466 38.154193878 160.50000000 1.2119911909 46.204601288 1.0979840755 1.0979840755
 1079.3249512  -999.250000 14.796999931 0.0089999996 0.5468800068 1.7510000467 37.033954620 160.49719238 1.2009999752 46.577995300 1.0880129337 1.0880129337
 1079.4774170  -999.250000 14.679999352 0.0060000001 0.5483400226 1.7569999695 38.878002167 158.74942017 1.1939967871 45.953399658 1.0960671902 1.0960671902
 1079.6297607  -999.250000 15.030999184 0.0120000001 0.5468800068 1.7740000486 40.127506256 158.50158691 1.1900000572 45.704849243 1.1240047216 1.1240047216
 1079.7822266  -999.250000 14.508000374 0.0209999997 0.5629900098 1.7829999924 41.687622070 159.50000000 1.1900024414 46.235698700 1.1270359755 1.1270359755
 1079.9345703  -999.250000 14.406000137 0.0260000005 0.5410200357 1.7790000439 41.527294159 159.50080872 1.1929999590 46.112003326 1.1420096159 1.1420096159
 1080.0870361  -999.250000 14.319999695 0.0230000000 0.5517599583 1.7589999437 39.218925476 160.00000000 1.2030040026 46.736000061 1.1480480433 1.1480480433
 1080.2393799  -999.250000 14.343999863 0.0040000002 0.5541999936 1.7239999771 39.187198639 160.00160217 1.2079999447 46.736202240 1.1680079699 1.1680079699
 1080.3918457  -999.250000 14.421999931 0.0080000004 0.5668900013 1.7309999466 38.689273834 161.00178528 1.2109975815 46.862125397 1.1729687452 1.1729687452
 1080.5441895  -999.250000 14.296999931 0.0099999998 0.5546900034 1.7419999838 39.219802856 161.75219727 1.2079999447 47.328796387 1.1599678993 1.1599678993
 1080.6966553  -999.250000 14.406000137 0.0260000005 0.5458999872 1.7589999437 39.719303131 163.13220215 1.1979902983 47.205200195 1.1399183273 1.1399183273
 1080.8489990  -999.250000 14.906000137 0.0230000000 0.5312500000 1.7439999580 39.842849731 166.12480164 1.1859928370 47.703598022 1.1059470177 1.1059470177
 1081.0014648  -999.250000 14.694999695 0.0340000018 0.5512700081 1.7419999838 39.120872498 166.00088501 1.1769936085 47.454299927 1.0729615688 1.0729615688
 1081.1538086  -999.250000 14.711000443 0.0199999996 0.5541999936 1.7319999933 37.410057068 166.37399292 1.1689928770 47.579147339 1.0569920540 1.0569920540
 1081.3061523  -999.250000 14.531000137 0.0089999996 0.5747100115 1.7259999514 39.941905975 165.74639893 1.1599999666 47.672199249 1.0520224571 1.0520224571
 1081.4586182  -999.250000 14.734000206 -0.001000000 0.5468800068 1.7220000029 42.379955292 163.49578857 1.1519951820 47.173675537 1.0660071373 1.0660071373
 1081.6109619  -999.250000 14.843999863 0.0060000001 0.5190399885 1.7369999886 44.439250946 161.74940491 1.1460000277 47.453247070 1.0690159798 1.0690159798
 1081.7634277  -999.250000 15.046999931 0.0080000004 0.5131800175 1.7419999838 45.219150543 161.37199402 1.1389968395 46.985698700 1.0790312290 1.0790312290
 1081.9157715  -999.250000 14.898000717 0.0020000001 0.5156300068 1.7419999838 45.283153534 160.12379456 1.1349999905 46.861400604 1.0920159817 1.0920159817
 1082.0682373  -999.250000 14.758001328 0.0020000001 0.5170900226 1.7319999933 46.621097565 159.37649536 1.1309976578 47.109199524 1.1020023823 1.1020023823
 1082.2205811  -999.250000 15.258000374 0.0020000001 0.5151399970 1.7289999723 44.998645782 160.00059509 1.1280000210 46.361602783 1.1029871702 1.1029871702
 1082.3730469  -999.250000 14.508000374 0.0130000003 0.5473600030 1.7269999981 44.153148651 160.37680054 1.1229935884 46.735698700 1.0950071812 1.0950071812
 1082.5253906  -999.250000 14.508000374 0.0080000004 0.6044900417 1.7209999561 42.969203949 161.12760925 1.1150000095 46.611351013 1.0979647636 1.0979647636
 1082.6778564  -999.250000 14.445000648 0.0140000004 0.5981400013 1.7289999723 43.094451904 162.75419617 1.1130000353 46.830200195 1.0759687424 1.0759687424
 1082.8302002  -999.250000 14.679999352 0.0049999999 0.5800799727 1.7359999418 43.277442932 164.49879456 1.1129984856 47.327995300 1.0629663467 1.0629663467
 1082.9826660  -999.250000 14.859000206 0.0040000002 0.5864300132 1.7430000305 41.058269501 163.74671936 1.1109991074 46.703998566 1.0420457125 1.0420457125
 1083.1350098  -999.250000 14.819998741 0.0099999998 0.5776399970 1.7510000467 39.095653534 162.37197876 1.1099984646 46.703395844 1.0610272884 1.0610272884
 1083.2873535  -999.250000 14.711000443 0.0140000004 0.5742200017 1.7469999790 40.125499725 160.49819946 1.1080000401 46.328796387 1.0780447721 1.0780447721
 1083.4398193  -999.250000 14.679999352 0.0120000001 0.5375999808 1.7460000515 40.441226959 159.37680054 1.1040031910 46.205123901 1.1059951782 1.1059951782
 1083.5921631  -999.250000 14.586000443 0.0020000001 0.5517599583 1.7380000353 41.783153534 160.12921143 1.1080000401 46.673252106 1.1040031910 1.1040031910
 1083.7446289  -999.250000 14.734000206 -0.008000000 0.5351600051 1.7400000095 43.127025604 162.75239563 1.1119999886 46.830501556 1.1059927940 1.1059927940
 1083.8969727  -999.250000 14.711000443 -0.002000000 0.5356400013 1.7560000420 43.966247559 163.74880981 1.1119999886 47.453998566 1.1030048132 1.1030048132
 1084.0494385  -999.250000 14.711000443 0.0040000002 0.5161100030 1.7649999857 42.244972229 162.99789429 1.1089967489 47.453697205 1.1060096025 1.1060096025
 1084.2017822  -999.250000 14.679999352 0.0149999997 0.5405300260 1.7690000534 40.158603668 162.12239075 1.1050000191 47.329750061 1.1099808216 1.1099808216
 1084.3542480  -999.250000 14.781000137 0.0049999999 0.5180699825 1.7480000257 41.774993896 160.50000000 1.0969976187 47.798000336 1.0979688168 1.0979688168
 1084.5065918  -999.250000 14.843999863 0.0020000001 0.5102500319 1.7460000515 39.278144836 160.50039673 1.0939999819 47.799053192 1.0849903822 1.0849903822
 1084.6590576  -999.250000 14.805000305 0.0120000001 0.4956099987 1.7710000277 37.501350403 160.74940491 1.0960031748 48.453998566 1.0789999962 1.0789999962
 1084.8114014  -999.250000 14.843999863 0.0179999992 0.5244100094 1.7890000343 38.071762085 160.49919128 1.0999991894 48.453548431 1.0790032148 1.0790032148
 1084.9638672  -999.250000 14.944999695 0.0120000001 0.5356400013 1.7860000134 43.534225464 159.99609375 1.0990015268 48.173076630 1.0810312033 1.0810312033
 1085.1162109  -999.250000 14.772999763 -0.001000000 0.5107400417 1.7640000582 44.872844696 158.37660217 1.1009999514 48.202995300 1.0940256119 1.0940256119
 1085.2685547  -999.250000 14.718999863 0.0030000000 0.5151399970 1.7560000420 43.529647827 159.37559509 1.1009999514 47.579399109 1.1099920273 1.1099920273
 1085.4210205  -999.250000 14.906000137 0.0120000001 0.4956099987 1.7589999437 42.686595917 159.75059509 1.1040064096 47.828395844 1.1049759388 1.1049759388
 1085.5733643  -999.250000 14.898000717 0.0120000001 0.5219699740 1.7450000048 41.810344696 160.12879944 1.1119999886 47.453598022 1.0900064707 1.0900064707
