# LAS format log file from PETREL
# Project units are specified as depth units
#==================================================================
~Version information
VERS.   2.0:
WRAP.   NO:
#==================================================================
~Well
STRT .m      215.21697998 :
STOP .m      2803.2739258 :
STEP .m     0.00000000 :
NULL .        -999.250000 :
COMP.           : COMPANY
WELL.  34/10-12   : WELL
FLD.            : FIELD
LOC.            : LOCATION
SRVC.           : SERVICE COMPANY
DATE.  2018-09-11 14:48:43   : Log Export Date {yyyy-MM-dd HH:mm:ss}
PROV.           : PROVINCE
UWI.   34/10-12   : UNIQUE WELL ID
API.            : API NUMBER
#==================================================================
~Curve
DEPT .m                   : DEPTH
Lithology_geolink ._      : Lithology_geolink
CALI .in                  : CALI
DRHO .g/cm3               : DRHO
NPHI .m3/m3               : NPHI
RHOB .g/cm3               : RHOB
GR .gAPI                  : GR
DTC .us/ft                : DTC
RDEP .ohm.m               : RDEP
SP .mV                    : SP
RSHA .ohm.m               : RSHA
RMED .ohm.m               : RMED
~Parameter
#==================================================================
~Ascii
# ...
 2624.6608887 6.0000000000 9.8199996948 0.0080000004 0.3222700059 2.4609999657 77.376502991 96.749992371 2.3540737629 88.534217834 2.7910623550 2.7910623550
 2624.8134766 7.0000000000 9.8129997253 0.0149999997 0.3320299983 2.4690001011 78.333602905 96.749992371 2.3160607815 94.266601563 2.8301310539 2.8301310539
 2624.9658203 7.0000000000 9.7659997940 0.0099999998 0.3281300068 2.4549999237 84.749801636 96.750694275 2.2710719109 91.647796631 2.8709599972 2.8709599972
 2625.1181641 7.0000000000 9.7340002060 -0.001000000 0.3276399970 2.4470000267 84.631011963 97.188903809 2.2340593338 90.274200439 2.8457772732 2.8457772732
 2625.2705078 7.0000000000 9.7270002365 0.0000000000 0.3378900290 2.4489998817 88.372299194 97.750999451 2.2270112038 89.774200439 2.7067661285 2.7067661285
 2625.4228516 7.0000000000 9.7110004425 0.0060000001 0.3510699868 2.4570000172 86.683799744 98.375999451 2.2289936543 89.276206970 2.5607774258 2.5607774258
 2625.5754395 6.0000000000 9.6719999313 0.0049999999 0.3530300260 2.4549999237 84.049003601 98.999198914 2.2419793606 90.023803711 2.4217855930 2.4217855930
 2625.7277832 6.0000000000 9.6020002365 0.0170000009 0.3251999915 2.4769999981 79.681694031 98.749397278 2.2579741478 89.650604248 2.3551073074 2.3551073074
 2625.8801270 6.0000000000 9.6020002365 0.0199999996 0.3120099902 2.4900000095 75.754310608 98.373397827 2.2619936466 90.023399353 2.4224405289 2.4224405289
 2626.0324707 6.0000000000 9.6250000000 0.0270000007 0.3173800111 2.4960000515 78.437705994 97.374397278 2.2580127716 89.026802063 2.6974534988 2.6974534988
 2626.1850586 6.0000000000 9.6250000000 0.0049999999 0.3261699975 2.4590001106 78.242797852 97.000000000 2.2520096302 90.153999329 2.9799199104 2.9799199104
 2626.3374023 6.0000000000 9.5780000687 0.0000000000 0.3466799855 2.4360001087 76.000404358 96.999595642 2.2579903603 91.396598816 2.9547531605 2.9547531605
 2626.4897461 6.0000000000 9.5780000687 -0.006000000 0.3403300047 2.4379999638 76.255111694 96.750694275 2.2699806690 89.276603699 2.8007373810 2.8007373810
 2626.6420898 6.0000000000 9.5699996948 -0.002000000 0.3632799983 2.4409999847 79.441818237 97.189308167 2.2769775391 90.273796082 2.6367738247 2.6367738247
 2626.7946777 6.0000000000 9.5699996948 -0.003000000 0.3613300025 2.4570000172 81.814804077 97.995185852 2.2750031948 89.523200989 2.4959230423 2.4959230423
 2626.9470215 6.0000000000 9.6879997253 0.0109999999 0.3740200102 2.4960000515 82.181701660 97.000900269 2.2640175819 89.175804138 2.4807248116 2.4807248116
 2627.0993652 6.0000000000 9.7270002365 0.0120000001 0.3559600115 2.5209999084 80.872398376 97.181594849 2.2420353889 94.512184143 2.6315128803 2.6315128803
 2627.2517090 6.0000000000 9.7340002060 0.0140000004 0.3476599753 2.5269999504 80.067611694 95.183387756 2.2150430679 90.527809143 2.7912306786 2.7912306786
 2627.4040527 6.0000000000 9.7340002060 0.0140000004 0.3452099860 2.5060000420 81.484573364 93.748794556 2.1930704117 91.403205872 2.8629326820 2.8629326820
 2627.5566406 6.0000000000 9.7419996262 0.0000000000 0.3437500000 2.4769999981 76.689201355 93.377998352 2.1840143204 92.395797729 2.8416543007 2.8416543007
 2627.7089844 6.0000000000 9.7659997940 -0.006000000 0.3505899906 2.4800000191 76.948219299 93.990386963 2.1820030212 91.524597168 2.7696602345 2.7696602345
 2627.8613281 6.0000000000 9.8199996948 -0.001000000 0.3334999979 2.5060000420 80.126602173 91.004409790 2.1660256386 91.400405884 2.6635193825 2.6635193825
 2628.0136719 6.0000000000 9.9840002060 0.0120000001 0.3359400034 2.5199999809 80.628608704 92.377006531 2.1580255032 91.520195007 2.5136282444 2.5136282444
 2628.1662598 6.0000000000 9.9139995575 0.0130000003 0.3198200166 2.4920001030 81.741287231 93.000892639 2.1639904976 90.020195007 2.3976056576 2.3976056576
 2628.3186035 6.0000000000 9.8750000000 0.0049999999 0.3227500021 2.4749999046 79.949104309 93.195503235 2.1779775620 89.026199341 2.3161728382 2.3161728382
 2628.4709473 6.0000000000 9.8669996262 0.0070000002 0.3173800111 2.4839999676 82.231369019 94.755813599 2.2029600143 89.279411316 2.3523879051 2.3523879051
 2628.6232910 6.0000000000 9.8199996948 0.0280000009 0.3056600094 2.5450000763 76.411361694 96.556602478 2.2518432140 90.649200439 2.4736378193 2.4736378193
 2628.7758789 6.0000000000 9.8520002365 0.0189999994 0.2968800068 2.5490000248 68.109680176 94.555488586 2.3139004707 90.388580322 2.6732788086 2.6732788086
 2628.9282227 5.0000000000 9.9300003052 0.0209999997 0.2880899906 2.5699999332 64.980606079 92.988296509 2.3958685398 88.021400452 2.9392719269 2.9392719269
 2629.0805664 5.0000000000 9.9610004425 0.0230000000 0.3012700081 2.5569999218 73.830032349 90.563003540 2.4918463230 87.284614563 3.2032148838 3.2032148838
 2629.2329102 5.0000000000 10.015999794 0.0209999997 0.3129900098 2.5160000324 79.125602722 90.561798096 2.5918397903 90.270195007 3.2693300247 3.2693300247
 2629.3854980 5.0000000000 9.9689998627 0.0149999997 0.3051799834 2.5020000935 79.270629883 90.187095642 2.6758656502 88.775001526 3.0605962276 3.0605962276
 2629.5378418 5.0000000000 10.022999763 0.0130000003 0.2910200059 2.4920001030 70.465950012 89.990402222 2.7069504261 88.774398804 2.9774463177 2.9774463177
 2629.6901855 5.0000000000 10.078000069 0.0199999996 0.2900399864 2.5020000935 63.415313721 87.998588562 2.6930224895 88.650001526 3.0702884197 3.0702884197
 2629.8425293 5.0000000000 10.078000069 0.0120000001 0.3081099987 2.4790000916 66.317008972 87.565605164 2.6540625095 88.650405884 3.1598942280 3.1598942280
 2629.9948730 5.0000000000 10.078000069 0.0120000001 0.3364300132 2.4630000591 67.579833984 88.385215759 2.6330671310 88.775405884 3.1265418530 3.1265418530
 2630.1474609 5.0000000000 9.9060001373 0.0199999996 0.3334999979 2.4730000496 72.831634521 91.573524475 2.6150288582 88.889183044 2.9834566116 2.9834566116
 2630.2998047 5.0000000000 9.8280000687 0.0140000004 0.3300800025 2.4670000076 76.698806763 93.749099731 2.6110064983 86.667999268 2.8707263470 2.8707263470
 2630.4521484 5.0000000000 9.7729997635 -0.002000000 0.3125000000 2.4409999847 78.935997009 93.563003540 2.6249775887 90.402404785 2.8139646053 2.8139646053
 2630.6044922 5.0000000000 9.7729997635 -0.011000000 0.3037100136 2.4319999218 78.301788330 93.561195374 2.6429421902 91.150001526 2.8030672073 2.8030672073
 2630.7570801 5.0000000000 9.7419996262 -0.006000000 0.2890599966 2.4360001087 74.787460327 92.998786926 2.6539824009 91.154808044 2.8243749142 2.8243749142
 2630.9094238 5.0000000000 9.6560001373 0.0020000001 0.2861300111 2.4670000076 69.473899841 92.748199463 2.6599905491 92.137397766 2.9027726650 2.9027726650
 2631.0617676 5.0000000000 9.6020002365 0.0209999997 0.2841799855 2.4920001030 64.055091858 92.368591309 2.6460223198 89.522193909 3.0635864735 3.0635864735
 2631.2141113 5.0000000000 9.5780000687 0.0179999992 0.2934600115 2.4839999676 61.615535736 90.375000000 2.6150991917 88.647994995 3.2462563515 3.2462563515
 2631.3666992 5.0000000000 9.5939998627 0.0109999999 0.3037100136 2.4730000496 68.366790771 90.378005981 2.6130030155 88.022598267 3.3249037266 3.3249037266
 2631.5190430 6.0000000000 9.5780000687 0.0199999996 0.3291000128 2.4790000916 79.517997742 91.008399963 2.6369616985 87.541801453 3.0964975357 3.0964975357
 2631.6713867 6.0000000000 9.5159997940 0.0199999996 0.3452099860 2.4820001125 83.245590210 92.755210876 2.6739406586 91.027404785 2.7844295502 2.7844295502
 2631.8237305 6.0000000000 9.5080003738 0.0170000009 0.3359400034 2.5079998970 81.861381531 94.374404907 2.7009568214 91.768188477 2.6070771217 2.6070771217
 2631.9760742 6.0000000000 9.4610004425 -0.006000000 0.3066399992 2.4939999580 77.615783691 94.181594849 2.6910319328 89.650405884 2.6315257549 2.6315257549
 2632.1286621 6.0000000000 9.5310001373 0.0000000000 0.2856400013 2.5139999390 74.734077454 92.182289124 2.6480689049 89.770797729 2.7962307930 2.7962307930
 2632.2810059 5.0000000000 9.5310001373 0.0160000008 0.2802700102 2.5199999809 71.428703308 91.000000000 2.6110594273 88.901199341 3.0518162251 3.0518162251
