# LAS format log file from PETREL
# Project units are specified as depth units
#==================================================================
~Version information
VERS.   2.0:
WRAP.   NO:
#==================================================================
~Well
STRT .m      215.21697998 :
STOP .m      2803.2739258 :
STEP .m     0.00000000 :
NULL .        -999.250000 :
COMP.           : COMPANY
WELL.  34/10-12   : WELL
FLD.            : FIELD
LOC.            : LOCATION
SRVC.           : SERVICE COMPANY
DATE.  2018-09-11 14:48:43   : Log Export Date {yyyy-MM-dd HH:mm:ss}
PROV.           : PROVINCE
UWI.   34/10-12   : UNIQUE WELL ID
API.            : API NUMBER
#==================================================================
~Curve
DEPT .m                   : DEPTH
Lithology_geolink ._      : Lithology_geolink
CALI .in                  : CALI
DRHO .g/cm3               : DRHO
NPHI .m3/m3               : NPHI
RHOB .g/cm3               : RHOB
GR .gAPI                  : GR
DTC .us/ft                : DTC
RDEP .ohm.m               : RDEP
SP .mV                    : SP
RSHA .ohm.m               : RSHA
RMED .ohm.m               : RMED
~Parameter
#==================================================================
~Ascii
# ...
 906.96063232  -999.250000 14.671999931 0.0500000007 0.4570299983 2.0409998894 23.621652603 146.99198914 1.1269952059 38.736000061 0.9760060310 0.9760060310
 907.11303711  -999.250000 14.656001091 0.0189999994 0.4687500000 2.0550000668 21.955127716 142.99899292 1.1150000095 38.735000610 0.9790120125 0.9790120125
 907.26544189  -999.250000 14.694999695 0.0240000002 0.4521499872 2.0880000591 23.014278412 142.50050354 1.1150023937 38.236251831 0.9850160480 0.9850160480
 907.41784668  -999.250000 14.805000305 0.0149999997 0.4506800175 2.0920000076 22.156814575 142.74349976 1.1210000515 38.358745575 0.9930019975 0.9930019975
 907.57025146  -999.250000 14.805000305 0.0160000008 0.4443399906 2.1040000916 22.559118271 139.49899292 1.1209985018 37.237751007 0.9939639568 0.9939639568
 907.72265625  -999.250000 14.805000305 0.0149999997 0.4116199911 2.1210000515 20.624750137 139.00024414 1.1189999580 38.114189148 0.9759799838 0.9759799838
 907.87506104  -999.250000 14.741999626 0.0130000003 0.4086900055 2.1270000935 20.502534866 139.12550354 1.1189975739 39.700744629 0.9659860134 0.9659860134
 908.02740479  -999.250000 14.741999626 0.0170000009 0.4101599753 2.1310000420 21.766651154 139.37519836 1.1159980297 38.079399109 0.9589871764 0.9589871764
 908.17980957  -999.250000 14.741999626 0.0109999999 0.4199199975 2.1129999161 22.175556183 139.50000000 1.1109970808 38.329200745 0.9509919882 0.9509919882
 908.33221436  -999.250000 14.758001328 0.0020000001 0.4375000000 2.1089999676 24.387371063 139.50175476 1.1039971113 38.454814911 0.9459859729 0.9459859729
 908.48461914  -999.250000 14.758001328 -0.003000000 0.3994100094 2.1019999981 22.576217651 140.37500000 1.0969976187 38.862503052 0.9389939904 0.9389939904
 908.63702393  -999.250000 14.758001328 0.0030000000 0.4096699953 2.1089999676 21.680992126 140.37500000 1.0909975767 39.611000061 0.9360039830 0.9360039830
 908.78942871  -999.250000 14.758001328 0.0070000002 0.3999000192 2.1070001125 18.190814972 140.37524414 1.0849988461 39.611499786 0.9380120635 0.9380120635
 908.94183350  -999.250000 14.741999626 0.0089999996 0.4326200187 2.1129999161 19.596908569 140.49975586 1.0819996595 39.860000610 0.9439939857 0.9439939857
 909.09423828  -999.250000 14.781000137 0.0240000002 0.4086900055 2.1289999485 21.048847198 140.37574768 1.0809991360 39.361251831 0.9409879446 0.9409879446
 909.24664307  -999.250000 14.781000137 0.0379999988 0.3955099881 2.1480000019 21.970689774 140.74949646 1.0789988041 39.486751556 0.9349939823 0.9349939823
 909.39904785  -999.250000 14.796999931 0.0570000000 0.3637699783 2.1740000248 22.812810898 140.50050354 1.0759975910 39.860435486 0.9319919944 0.9319919944
 909.55145264  -999.250000 14.796999931 0.0240000002 0.3623000085 2.1349999905 22.720624924 140.75050354 1.0699976683 39.578998566 0.9279879332 0.9279879332
 909.70385742  -999.250000 14.781000137 0.0000000000 0.3530300260 2.1129999161 23.528245926 141.00024414 1.0639991760 39.578498840 0.9219779372 0.9219779372
 909.85626221  -999.250000 14.819998741 -0.004000000 0.3623000085 2.1070001125 22.157815933 141.12574768 1.0629975796 39.328247070 0.9109779596 0.9109779596
 910.00866699  -999.250000 14.772999763 0.0179999992 0.3598600030 2.1410000324 23.068317413 141.49975586 1.0599991083 38.954750061 0.8999999762 0.8999999762
 910.16101074  -999.250000 14.772999763 0.0340000018 0.3588899970 2.1500000954 25.719049454 141.37519836 1.0589996576 39.328048706 0.9000144005 0.9000144005
 910.31341553  -999.250000 14.805000305 0.0390000008 0.3818399906 2.1519999504 25.743837357 141.49975586 1.0579959154 38.736751556 0.9090120196 0.9090120196
 910.46582031  -999.250000 14.805000305 0.0399999991 0.3740200102 2.1519999504 22.666055679 141.37449646 1.0479999781 39.111000061 0.9149920344 0.9149920344
 910.61822510  -999.250000 14.805000305 0.0419999994 0.3793900013 2.1559998989 19.700557709 141.12425232 1.0480003357 39.110435486 0.9110100269 0.9110100269
 910.77062988  -999.250000 14.796999931 0.0340000018 0.3720700145 2.1410000324 18.489505768 140.75000000 1.0489959717 38.829498291 0.9160020351 0.9160020351
 910.92303467  -999.250000 14.796999931 0.0070000002 0.3925800025 2.1050000191 21.235628128 140.75050354 1.0389988422 39.077747345 0.9169899821 0.9169899821
 911.07543945  -999.250000 14.796999931 0.0040000002 0.4213899970 2.0899999142 22.051256180 141.00149536 1.0360003710 38.454063416 0.9119920135 0.9119920135
 911.22784424  -999.250000 14.805000305 0.0089999996 0.4101599753 2.0899999142 24.173534393 141.75000000 1.0369927883 38.485748291 0.9080079794 0.9080079794
 911.38024902  -999.250000 14.898000717 0.0309999995 0.3979499936 2.0940001011 24.936965942 141.75000000 1.0189932585 38.360248566 0.9120320678 0.9120320678
 911.53265381  -999.250000 14.898000717 0.0430000015 0.3925800025 2.0999999046 24.418497086 141.75199890 1.0020031929 37.986999512 0.9280139804 0.9280139804
 911.68505859  -999.250000 14.859000206 0.0260000005 0.4135699868 2.0639998913 22.671092987 142.75050354 1.0099952221 38.485748291 0.9350120425 0.9350120425
 911.83746338  -999.250000 14.734000206 0.0219999999 0.4252899885 2.0680000782 22.219938278 143.00024414 1.0040079355 38.361999512 0.9410099983 0.9410099983
 911.98986816  -999.250000 14.671999931 0.0219999999 0.3886699975 2.0610001087 22.691503525 143.12374878 1.0140297413 38.861999512 0.9460260272 0.9460260272
 912.14221191  -999.250000 14.491999626 0.0390000008 0.3642599881 2.0840001106 24.438024521 142.49879456 1.0510132313 39.361198425 0.9590207934 0.9590207934
 912.29461670  -999.250000 14.609000206 0.0430000015 0.3486299813 2.0720000267 24.460435867 141.74899292 1.0840296745 39.486400604 0.9720496535 0.9720496535
 912.44702148  -999.250000 14.718999863 0.0359999985 0.3764599860 2.0699999332 29.104135513 141.12625122 1.1580368280 39.735435486 1.0031001568 1.0031001568
 912.59942627  -999.250000 14.796999931 0.0500000007 0.4086900055 2.0980000496 34.171455383 141.74749756 1.2500327826 39.454750061 1.0532422066 1.0532422066
 912.75183105  -999.250000 14.796999931 0.0520000011 0.4438499808 2.1189999580 41.881885529 140.50199890 1.3320436478 39.830249786 1.1744204760 1.1744204760
 912.90423584  -999.250000 15.008000374 0.0839999989 0.4599599838 2.1559998989 45.311748505 141.49574280 1.4410376549 40.454063416 1.3844985962 1.3844985962
 913.05664063  -999.250000 15.461000443 0.1019999981 0.4345700145 2.1429998875 44.683929443 139.36898804 1.5350232124 40.486999512 1.6332763433 1.6332763433
 913.20904541  -999.250000 16.108999252 0.1010000035 0.4648400247 2.1189999580 42.653057098 136.37425232 1.5930761099 40.985248566 1.7707777023 1.7707777023
 913.36145020  -999.250000 15.711000443 0.0759999976 0.4462900162 2.0880000591 41.192440033 135.99273682 1.7830572128 40.610248566 1.6597596407 1.6597596407
 913.51385498  -999.250000 14.984000206 0.0579999983 0.4765599966 2.1040000916 43.411506653 132.37300110 1.9260168076 40.236251831 1.5398818254 1.5398818254
 913.66625977  -999.250000 14.586000443 0.0740000010 0.4243199825 2.1459999084 46.158687592 131.38250732 1.9680424929 40.360248566 1.4812642336 1.4812642336
 913.81866455  -999.250000 14.555000305 0.0939999968 0.4057599902 2.1840000153 47.504882813 135.12174988 2.0740246773 39.986499786 1.6133564711 1.6133564711
 913.97106934  -999.250000 15.609000206 0.0860000029 0.3525400162 2.1760001183 49.940315247 133.49899292 2.1050081253 40.235500336 1.7912442684 1.7912442684
 914.12347412  -999.250000 17.000000000 0.0879999995 0.3569300175 2.1879999638 51.101009369 132.99800110 2.1150920391 39.985500336 1.9130100012 1.9130100012
 914.27581787  -999.250000 15.805000305 0.0820000023 0.3613300025 2.1930000782 54.597003937 131.99539185 2.2300336361 39.736351013 1.9179840088 1.9179840088
 914.42822266  -999.250000 15.569999695 0.1059999987 0.3740200102 2.2230000496 56.466396332 129.12280273 2.3140234947 39.952796936 1.9080673456 1.9080673456
 914.58062744  -999.250000 15.241999626 0.0890000015 0.3471699953 2.1949999332 54.837055206 127.74925232 2.3730227947 39.204498291 1.9501622915 1.9501622915
