# LAS format log file from PETREL
# Project units are specified as depth units
#==================================================================
~Version information
VERS.   2.0:
WRAP.   NO:
#==================================================================
~Well
STRT .m      215.21697998 :
STOP .m      2803.2739258 :
STEP .m     0.00000000 :
NULL .        -999.250000 :
COMP.           : COMPANY
WELL.  34/10-12   : WELL
FLD.            : FIELD
LOC.            : LOCATION
SRVC.           : SERVICE COMPANY
DATE.  2018-09-11 14:48:43   : Log Export Date {yyyy-MM-dd HH:mm:ss}
PROV.           : PROVINCE
UWI.   34/10-12   : UNIQUE WELL ID
API.            : API NUMBER
#==================================================================
~Curve
DEPT .m                   : DEPTH
Lithology_geolink ._      : Lithology_geolink
CALI .in                  : CALI
DRHO .g/cm3               : DRHO
NPHI .m3/m3               : NPHI
RHOB .g/cm3               : RHOB
GR .gAPI                  : GR
DTC .us/ft                : DTC
RDEP .ohm.m               : RDEP
SP .mV                    : SP
RSHA .ohm.m               : RSHA
RMED .ohm.m               : RMED
~Parameter
#==================================================================
~Ascii
# ...
 1248.9462891  -999.250000 14.652998924 0.0250000004 0.4427799881 2.0260000229 26.184696198 139.74670410 0.8240000010 47.298976898 0.7579976320 0.7579976320
 1249.0986328  -999.250000 14.515999794 0.0370000005 0.4411600232 2.0399999619 24.813575745 138.37339783 0.8220000267 47.703796387 0.7570112348 0.7570112348
 1249.2510986  -999.250000 14.409000397 0.0450000018 0.4384099841 2.0520000458 25.175115585 137.37260437 0.8230000138 47.578922272 0.7640144229 0.7640144229
 1249.4034424  -999.250000 14.510000229 0.0379999988 0.4251500070 2.0480000973 26.471178055 136.37500000 0.8220000267 47.547798157 0.7700192332 0.7700192332
 1249.5557861  -999.250000 14.477000237 0.0340000018 0.4372700155 2.0550000668 27.825098038 136.37460327 0.8230000138 47.422451019 0.7820096016 0.7820096016
 1249.7082520  -999.250000 14.376000404 0.0340000018 0.4518699944 2.0639998913 26.012369156 136.12719727 0.8259999752 47.079399109 0.7879871726 0.7879871726
 1249.8605957  -999.250000 14.206001282 0.0390000008 0.4571699798 2.0680000782 23.752252579 137.50039673 0.8309999704 47.328346252 0.7799919844 0.7799919844
 1250.0130615  -999.250000 14.215000153 0.0379999988 0.4588499963 2.0739998817 25.160467148 137.75000000 0.8360000253 46.922100067 0.7749903798 0.7749903798
 1250.1654053  -999.250000 14.236000061 0.0370000005 0.4576399922 2.0789999962 27.016050339 137.74899292 0.8410000205 46.548202515 0.7710144520 0.7710144520
 1250.3178711  -999.250000 14.219999313 0.0359999985 0.4526699781 2.0799999237 27.044712067 137.11988831 0.8450000286 46.671573639 0.7800143957 0.7800143957
 1250.4702148  -999.250000 14.366001129 0.0280000009 0.4405799806 2.0750000477 26.092672348 134.99859619 0.8460000157 46.078948975 0.7860304713 0.7860304713
 1250.6226807  -999.250000 14.439000130 0.0270000007 0.4322700202 2.0739998817 25.269338608 134.12469482 0.8470000029 46.046875000 0.8050072193 0.8050072193
 1250.7750244  -999.250000 14.385999680 0.0350000001 0.4302800000 2.0799999237 26.656000137 134.00000000 0.8470000029 45.578598022 0.8079856038 0.8079856038
 1250.9274902  -999.250000 14.373001099 0.0350000001 0.4226399958 2.0710000992 26.659002304 134.00480652 0.8479999900 45.329597473 0.7989760041 0.7989760041
 1251.0798340  -999.250000 14.385000229 0.0309999995 0.4206600189 2.0620000362 27.907402039 135.99919128 0.8489999771 45.578746796 0.7889855504 0.7889855504
 1251.2322998  -999.250000 14.421999931 0.0219999999 0.4252899885 2.0529999733 28.777662277 135.49639893 0.8460000157 45.424503326 0.7799927592 0.7799927592
 1251.3846436  -999.250000 14.547000885 0.0060000001 0.4003900290 2.0429999828 27.389572144 133.99919128 0.8429999948 46.048400879 0.7769967914 0.7769967914
 1251.5371094  -999.250000 14.586000443 0.0130000003 0.3901399970 2.0629999638 26.496736526 133.49819946 0.8389999866 46.299575806 0.7749855518 0.7749855518
 1251.6894531  -999.250000 14.508000374 0.0270000007 0.3984400034 2.0759999752 25.138872147 132.75000000 0.8349999785 46.954952240 0.7689920068 0.7689920068
 1251.8417969  -999.250000 14.569999695 0.0410000011 0.4389599860 2.0859999657 23.807916641 132.75260925 0.8289999962 47.548049927 0.7639999986 0.7639999986
 1251.9942627  -999.250000 14.569999695 0.0309999995 0.4418900013 2.0639998913 20.637811661 134.37680054 0.8209999800 47.579597473 0.7640144229 0.7640144229
 1252.1466064  -999.250000 14.547000885 0.0230000000 0.4321300089 2.0510001183 19.315227509 135.12660217 0.8140000105 47.828197479 0.7699919939 0.7699919939
 1252.2990723  -999.250000 14.522999763 0.0109999999 0.4096699953 2.0390000343 20.707389832 136.12950134 0.8100000024 47.328998566 0.7649783492 0.7649783492
 1252.4514160  -999.250000 14.569999695 0.0130000003 0.4013700187 2.0450000763 22.531677246 138.00120544 0.8090000153 47.328796387 0.7559743524 0.7559743524
 1252.6038818  -999.250000 14.461000443 0.0320000015 0.4335900247 2.0680000782 22.950635910 138.75059509 0.8090000153 47.203323364 0.7399808168 0.7399808168
 1252.7562256  -999.250000 14.522999763 0.0450000018 0.4428699911 2.0859999657 21.970500946 138.99899292 0.8080000281 46.923202515 0.7320095897 0.7320095897
 1252.9086914  -999.250000 14.531000137 0.0379999988 0.4389599860 2.0759999752 22.905963898 138.37170410 0.8059999943 47.046199799 0.7380408049 0.7380408049
 1253.0610352  -999.250000 14.430000305 0.0460000001 0.4008800089 2.0840001106 22.894630432 137.00059509 0.8009999990 46.298149109 0.7550240159 0.7550240159
 1253.2135010  -999.250000 14.218999863 0.0649999976 0.3774400055 2.0859999657 25.158178329 137.37409973 0.8000000119 46.391098022 0.7700048089 0.7700048089
 1253.3658447  -999.250000 14.086000443 0.0790000036 0.4165000021 2.0759999752 26.061620712 137.00180054 0.7969999909 46.016849518 0.7719904184 0.7719904184
 1253.5183105  -999.250000 14.070000648 0.0630000010 0.4179700017 2.0529999733 25.198720932 138.12710571 0.7950000167 45.923599243 0.7659639716 0.7659639716
 1253.6706543  -999.250000 14.070000648 0.0340000018 0.4428699911 2.0209999084 23.421249390 139.00000000 0.7950000167 46.172199249 0.7509807348 0.7509807348
 1253.8229980  -999.250000 14.359000206 0.0340000018 0.4184600115 2.0390000343 22.954477310 138.99919128 0.7969999909 45.673652649 0.7389904261 0.7389904261
 1253.9754639  -999.250000 14.241999626 0.0299999993 0.4560500085 2.0450000763 23.877252579 138.50149536 0.7979999781 46.077796936 0.7330167890 0.7330167890
 1254.1278076  -999.250000 14.304999352 0.0340000018 0.4394499958 2.0490000248 24.810796738 139.12480164 0.7990000248 45.578746796 0.7400288582 0.7400288582
 1254.2802734  -999.250000 14.304999352 0.0289999992 0.4716799855 2.0429999828 23.434507370 139.00120544 0.8009999990 45.423675537 0.7580480576 0.7580480576
 1254.4326172  -999.250000 14.421999931 0.0199999996 0.4658200145 2.0290000439 21.986053467 139.49839783 0.8000000119 45.703395844 0.7780064344 0.7780064344
 1254.5850830  -999.250000 14.468998909 0.0179999992 0.4926800132 2.0409998894 23.264835358 138.49729919 0.8000000119 45.330501556 0.7820096016 0.7820096016
 1254.7374268  -999.250000 14.555000305 0.0260000005 0.4721699953 2.0629999638 22.783905029 137.37339783 0.8029999733 45.954250336 0.7859935760 0.7859935760
 1254.8898926  -999.250000 14.484000206 0.0390000008 0.4750999808 2.0780000687 24.591823578 136.37530518 0.8069999814 46.111900330 0.7820216417 0.7820216417
 1255.0422363  -999.250000 14.445000648 0.0549999997 0.4663099945 2.0799999237 23.691730499 136.50320435 0.8140000105 46.487003326 0.7910016179 0.7910016179
 1255.1947021  -999.250000 14.343999863 0.0529999994 0.4531300068 2.0610001087 26.023893356 138.50300598 0.8249999881 47.112201691 0.7920216322 0.7920216322
 1255.3470459  -999.250000 14.468998909 0.0680000037 0.4472700059 2.0699999332 29.304555893 139.74760437 0.8370000124 47.612602234 0.8010288477 0.8010288477
 1255.4995117  -999.250000 14.461000443 0.0630000010 0.4536100030 2.0639998913 31.660408020 139.00160217 0.8479999900 48.110599518 0.8100288510 0.8100288510
 1255.6518555  -999.250000 14.461000443 0.0460000001 0.4555699825 2.0590000153 33.027896881 139.50160217 0.8560000062 47.987899780 0.8190063834 0.8190063834
 1255.8041992  -999.250000 14.461000443 0.0209999997 0.4516600072 2.0469999313 32.061721802 140.00000000 0.8629999757 48.579601288 0.8210288286 0.8210288286
 1255.9566650  -999.250000 14.461000443 0.0120000001 0.4189499915 2.0639998913 31.524995804 140.00360107 0.8659999967 48.828998566 0.8330128193 0.8330128193
 1256.1090088  -999.250000 14.461000443 0.0060000001 0.4125999808 2.0780000687 29.659193039 141.12258911 0.8719999790 48.828998566 0.8370528817 0.8370528817
 1256.2614746  -999.250000 14.461000443 0.0170000009 0.3750000000 2.0940001011 30.975193024 140.11740112 0.8790000081 48.826194763 0.8590416312 0.8590416312
 1256.4138184  -999.250000 14.397999763 0.0170000009 0.3730500042 2.0780000687 28.240760803 137.74819946 0.8870000243 47.954299927 0.8720384240 0.8720384240
 1256.5662842  -999.250000 14.406000137 0.0199999996 0.3891600072 2.0699999332 31.048851013 137.00039673 0.8920000196 48.078300476 0.8879519701 0.8879519701
