# LAS format log file from PETREL
# Project units are specified as depth units
#==================================================================
~Version information
VERS.   2.0:
WRAP.   NO:
#==================================================================
~Well
STRT .m      215.21697998 :
STOP .m      2803.2739258 :
STEP .m     0.00000000 :
NULL .        -999.250000 :
COMP.           : COMPANY
WELL.  34/10-12   : WELL
FLD.            : FIELD
LOC.            : LOCATION
SRVC.           : SERVICE COMPANY
DATE.  2018-09-11 14:48:43   : Log Export Date {yyyy-MM-dd HH:mm:ss}
PROV.           : PROVINCE
UWI.   34/10-12   : UNIQUE WELL ID
API.            : API NUMBER
#==================================================================
~Curve
DEPT .m                   : DEPTH
Lithology_geolink ._      : Lithology_geolink
CALI .in                  : CALI
DRHO .g/cm3               : DRHO
NPHI .m3/m3               : NPHI
RHOB .g/cm3               : RHOB
GR .gAPI                  : GR
DTC .us/ft                : DTC
RDEP .ohm.m               : RDEP
SP .mV                    : SP
RSHA .ohm.m               : RSHA
RMED .ohm.m               : RMED
~Parameter
#==================================================================
~Ascii
# ...
 557.20257568  -999.250000 12.741999626 0.0260000005 0.4223600030 2.1760001183 64.189880371 142.75000000 2.5760006905 26.259681702 2.3280289173 2.3280289173
 557.35498047  -999.250000 12.750000000 0.0149999997 0.4223600030 2.1640000343 65.750450134 142.75000000 2.5779969692 25.995601654 2.3519952297 2.3519952297
 557.50738525  -999.250000 12.765999794 0.0299999993 0.3930699825 2.1909999847 66.127029419 142.75074768 2.5699830055 26.495168686 2.3479616642 2.3479616642
 557.65979004  -999.250000 12.852000237 0.0340000018 0.3745099902 2.1909999847 67.808082581 143.37545776 2.5489871502 26.634849548 2.3159580231 2.3159580231
 557.81219482  -999.250000 12.671999931 0.0430000015 0.3881800175 2.1909999847 63.718452454 143.75059509 2.5329718590 26.510375977 2.2809245586 2.2809245586
 557.96459961  -999.250000 12.508000374 0.0340000018 0.4047900140 2.1540000439 63.372997284 144.12539673 2.4979717731 26.743774414 2.2339630127 2.2339630127
 558.11700439  -999.250000 12.477000237 0.0410000011 0.4345700145 2.1329998970 62.130508423 144.37500000 2.4629800320 25.979049683 2.2109375000 2.2109375000
 558.26940918  -999.250000 12.492000580 0.0469999984 0.4062500000 2.1349999905 65.562904358 144.37559509 2.4379839897 26.009775162 2.1719214916 2.1719214916
 558.42181396  -999.250000 12.516000748 0.0469999984 0.4003900290 2.1210000515 65.495445251 144.75100708 2.4179999828 25.868974686 2.1229503155 2.1229503155
 558.57421875  -999.250000 12.312999725 0.0759999976 0.3706099987 2.1519999504 62.649341583 145.37680054 2.4180047512 25.229650497 2.0919840336 2.0919840336
 558.72662354  -999.250000 12.312999725 0.0790000036 0.4150400162 2.1129999161 58.498550415 146.50000000 2.4240047932 25.634174347 2.0820655823 2.0820655823
 558.87902832  -999.250000 12.421999931 0.0740000010 0.4208999872 2.1129999161 57.600158691 146.50260925 2.4300000668 25.119400024 2.1231312752 2.1231312752
 559.03143311  -999.250000 13.250000000 0.0529999994 0.4497100115 2.1129999161 61.437599182 148.12500000 2.4300031662 24.745176315 2.2050943375 2.2050943375
 559.18377686  -999.250000 13.210999489 0.0520000011 0.4277299941 2.1740000248 61.187061310 148.12245178 2.4340028763 24.853078842 2.2639975548 2.2639975548
 559.33618164  -999.250000 13.616998672 0.0549999997 0.4150400162 2.2170000076 60.402469635 145.99969482 2.4410071373 24.088432312 2.2619507313 2.2619507313
 559.48858643  -999.250000 13.522999763 0.0379999988 0.3779299855 2.2030000687 57.470691681 145.75120544 2.4590160847 24.448205948 2.2209458351 2.2209458351
 559.64099121  -999.250000 13.593999863 0.0179999992 0.3613300025 2.1740000248 58.876014709 146.74850464 2.4790041447 24.619701385 2.1759929657 2.1759929657
 559.79339600  -999.250000 13.390999794 0.0109999999 0.3813499808 2.1619999409 59.721969604 145.50120544 2.4840016365 24.371370316 2.1700143814 2.1700143814
 559.94580078  -999.250000 13.991998672 0.0070000002 0.3774400055 2.1640000343 62.189048767 146.49620056 2.4859929085 25.510200500 2.1820304394 2.1820304394
 560.09820557  -999.250000 13.288999557 0.0179999992 0.3955099881 2.1949999332 62.847454071 144.12500000 2.4769983292 25.635976791 2.2009806633 2.2009806633
 560.25061035  -999.250000 13.484000206 0.0070000002 0.3828099966 2.1800000668 64.999900818 144.12339783 2.4749982357 26.246175766 2.1889662743 2.1889662743
 560.40301514  -999.250000 13.788999557 0.0070000002 0.3759799898 2.1800000668 64.932044983 143.12500000 2.4730072021 26.978649139 2.1679599285 2.1679599285
 560.55541992  -999.250000 12.984000206 0.0000000000 0.3706099987 2.1600000858 61.216999054 143.12559509 2.4820082188 26.760425568 2.1430335045 2.1430335045
 560.70782471  -999.250000 12.961000443 0.0230000000 0.3681600094 2.1679999828 59.968299866 143.50039673 2.4920096397 27.024997711 2.1640288830 2.1640288830
 560.86022949  -999.250000 13.319999695 0.0599999987 0.3984400034 2.1800000668 59.529895782 143.75059509 2.5040168762 26.400974274 2.1820111275 2.1820111275
 561.01263428  -999.250000 13.578000069 0.0810000002 0.4077099860 2.1779999733 58.842689514 144.12550354 2.5180180073 26.385250092 2.1889858246 2.1889858246
 561.16503906  -999.250000 13.180001259 0.0700000003 0.4111299813 2.1659998894 58.178112030 144.37374878 2.5330047607 26.509311676 2.1820218563 2.1820218563
 561.31738281  -999.250000 13.180001259 0.0439999998 0.4150400162 2.1559998989 53.251399994 143.74879456 2.5370047092 26.166175842 2.1930449009 2.1930449009
 561.46978760  -999.250000 12.999999046 0.0299999993 0.4043000042 2.1659998894 54.125251770 142.99960327 2.5430016518 26.275398254 2.2210240364 2.2210240364
 561.62219238  -999.250000 13.140999794 0.0390000008 0.4023400247 2.1930000782 54.286056519 142.74960327 2.5450048447 25.900373459 2.2359793186 2.2359793186
 561.77459717  -999.250000 13.500000000 0.0309999995 0.3847700059 2.1970000267 57.442203522 142.50421143 2.5510082245 25.510601044 2.2229647636 2.2229647636
 561.92700195  -999.250000 13.234000206 0.0350000001 0.4116199911 2.2030000687 60.062347412 145.12719727 2.5610017776 25.884174347 2.2009727955 2.2009727955
 562.07940674  -999.250000 13.038999557 0.0149999997 0.4169900119 2.1819999218 59.656597137 146.50100708 2.5629935265 25.370250702 2.1839742661 2.1839742661
 562.23181152  -999.250000 13.616998672 0.0160000008 0.4331099987 2.1740000248 60.031848907 147.12500000 2.5550000668 25.526449203 2.1680192947 2.1680192947
 562.38421631  -999.250000 13.703000069 0.0130000003 0.4062500000 2.1679999828 60.563751221 147.12399292 2.5549929142 25.806373596 2.1799905300 2.1799905300
 562.53662109  -999.250000 13.734000206 0.0099999998 0.4067400098 2.1600000858 61.028995514 146.50000000 2.5490000248 25.416601181 2.1740159988 2.1740159988
 562.68902588  -999.250000 13.741999626 0.0140000004 0.3754900098 2.1760001183 59.776741028 146.49879456 2.5490095615 25.790199280 2.1839840412 2.1839840412
 562.84143066  -999.250000 13.500000000 0.0179999992 0.3764599860 2.1840000153 57.131069183 145.74925232 2.5569999218 25.290719986 2.1740300655 2.1740300655
 562.99383545  -999.250000 13.305000305 0.0309999995 0.3632799983 2.2109999657 60.157249451 145.37324524 2.5570023060 25.151248932 2.1890318394 2.1890318394
 563.14624023  -999.250000 13.180001259 0.0289999992 0.3735400140 2.2030000687 60.781749725 144.49899292 2.5589830875 25.274747849 2.2049999237 2.2049999237
 563.29858398  -999.250000 13.555001259 0.0209999997 0.3745099902 2.2109999657 61.150390625 143.99920654 2.5449984074 24.651973724 2.2050383091 2.2050383091
 563.45098877  -999.250000 13.663999557 0.0260000005 0.3813499808 2.2190001011 57.656196594 143.49980164 2.5429983139 25.260049820 2.2290208340 2.2290208340
 563.60339355  -999.250000 13.210999489 0.0359999985 0.3774400055 2.2420001030 57.782451630 143.37440491 2.5409967899 25.291000366 2.2419841290 2.2419841290
 563.75579834  -999.250000 13.015999794 0.0509999990 0.3701200187 2.2520000935 58.689399719 143.00059509 2.5370016098 25.292177200 2.2319824696 2.2319824696
 563.90820313  -999.250000 13.108999252 0.0390000008 0.3652299941 2.2290000916 59.563148499 143.37620544 2.5390000343 26.026048660 2.2209968567 2.2209968567
 564.06060791  -999.250000 13.055000305 0.0260000005 0.3837900162 2.2070000172 59.657451630 144.12640381 2.5389871597 26.057600021 2.2190432549 2.2190432549
 564.21301270  -999.250000 12.741999626 0.0270000007 0.4052700102 2.2070000172 60.563850403 144.99859619 2.5229959488 26.432199478 2.2460401058 2.2460401058
 564.36541748  -999.250000 12.796999931 0.0460000001 0.3833000064 2.2209999561 61.095001221 144.12379456 2.5179934502 26.556999207 2.2709951401 2.2709951401
 564.51782227  -999.250000 12.765999794 0.0649999976 0.3657199740 2.2209999561 61.723358154 143.37339783 2.5099904537 26.558200836 2.2679774761 2.2679774761
 564.67022705  -999.250000 12.492000580 0.0630000010 0.3471699953 2.2030000687 64.439002991 142.37519836 2.5020000935 27.306573868 2.2539741993 2.2539741993
 564.82263184  -999.250000 12.453000069 0.0500000007 0.3535200059 2.1879999638 65.062873840 142.50524902 2.5020000935 27.041250229 2.2379999161 2.2379999161
