# LAS format log file from PETREL
# Project units are specified as depth units
#==================================================================
~Version information
VERS.   2.0:
WRAP.   NO:
#==================================================================
~Well
STRT .m      2380.2319336 :
STOP .m      4321.8081055 :
STEP .m     0.00000000 :
NULL .        -999.250000 :
COMP.           : COMPANY
WELL.  34/3-2 S   : WELL
FLD.            : FIELD
LOC.            : LOCATION
SRVC.           : SERVICE COMPANY
DATE.  2018-09-11 14:48:49   : Log Export Date {yyyy-MM-dd HH:mm:ss}
PROV.           : PROVINCE
UWI.   34/3-2 S   : UNIQUE WELL ID
API.            : API NUMBER
#==================================================================
~Curve
DEPT .m                   : DEPTH
Lithology_geolink ._      : Lithology_geolink
CALI .in                  : CALI
BS .in                    : BS
ROP .m/h                  : ROP
DRHO .g/cm3               : DRHO
THOR .ppm                 : THOR
NPHI .m3/m3               : NPHI
RHOB .g/cm3               : RHOB
PEF .b/e                  : PEF
GR .gAPI                  : GR
URAN .ppm                 : URAN
DTC .us/ft                : DTC
DTS .us/ft                : DTS
RDEP .ohm.m               : RDEP
RMED .ohm.m               : RMED
~Parameter
#==================================================================
~Ascii
# ...
 3164.7873535  -999.250000 12.505599976 12.250000954 169.31169128 0.0472000018  -999.250000 0.3005999923 2.5713000298 9.0500001907 91.899772644  -999.250000 99.595855713 201.68879700 1.5942000151 1.5937999487
 3164.9396973  -999.250000 12.505299568 12.250000954 139.57086182 0.0485999994  -999.250000 0.2973000109 2.5594999790 8.6253995895 89.819084167  -999.250000 100.87730408 201.75650024 1.4089000225 1.4191999435
 3165.0920410  -999.250000 12.491900444 12.250000954 142.75131226 0.0491999984  -999.250000 0.3016999960 2.5109999180 8.4785003662 84.702232361  -999.250000 101.43840790 201.60360718 1.3625999689 1.3767000437
 3165.2443848  -999.250000 12.462699890 12.250000954 147.81497192 0.0401999988  -999.250000 0.2928000093 2.4765000343 8.9827995300 86.289001465  -999.250000 101.38135529 204.35809326 1.4193999767 1.4266999960
 3165.3969727  -999.250000 12.448699951 12.250000954 147.68832397 0.0362999998  -999.250000 0.3034999967 2.4786000252 9.5041999817 91.154777527  -999.250000 101.78682709 202.71020508 1.4700000286 1.4808000326
 3165.5493164  -999.250000 12.456400871 12.250000954 155.47113037 0.0381999984  -999.250000 0.3093999922 2.4802000523 9.6695995331 92.832870483  -999.250000 100.29472351 196.57240295 1.4334000349 1.4443999529
 3165.7016602  -999.250000 12.477299690 12.250000954 138.54986572 0.0350000001  -999.250000 0.3156000078 2.4737999439 9.4802999496 94.747421265  -999.250000 96.935951233 194.18179321 1.4111000299 1.4211000204
 3165.8540039  -999.250000 12.506099701 12.250000954 144.16503906 0.0318999998  -999.250000 0.2967999876 2.4676001072 9.4180002213 96.246063232  -999.250000 92.976119995 191.61941528 1.4522000551 1.4521000385
 3166.0065918  -999.250000 12.487199783 12.250000954 155.21456909 0.0239000004  -999.250000 0.2958000004 2.4783000946 9.2606000900 92.273429871  -999.250000 91.189285278 189.12210083 1.6148999929 1.5996999741
 3166.1589355  -999.250000 12.480899811 12.250000954 144.45768738 0.0035999999  -999.250000 0.2838000059 2.5325999260 10.765000343 84.459152222  -999.250000 92.404441833 191.99241638 1.8116999865 1.7975000143
 3166.3112793  -999.250000 12.475199699 12.250000954 133.18830872 -0.004600000  -999.250000 0.2917999923 2.5492000580 10.741299629 80.887954712  -999.250000 95.365745544 191.77580261 1.8418999910 1.8528000116
 3166.4636230  -999.250000 12.446999550 12.250000954 144.18930054 -0.002700000  -999.250000 0.2842999995 2.5092000961 11.349200249 84.795921326  -999.250000 97.758468628 192.96350098 1.6578999758 1.6725000143
 3166.6162109  -999.250000 12.474199295 12.250000954 140.01968384 0.0326999985  -999.250000 0.2869000137 2.4853000641 9.9384002686 90.914703369  -999.250000 96.614044189 193.54948425 1.6535999775 1.6651999950
 3166.7685547  -999.250000 12.503499985 12.250000954 122.23622131 0.0516000018  -999.250000 0.2829999924 2.4779000282 9.9825000763 90.905792236  -999.250000 95.756973267 194.46290588 1.6653000116 1.6812000275
 3166.9208984  -999.250000 12.518899918 12.250000954 122.43865967 0.0549999997  -999.250000 0.2847999930 2.4969000816 9.5545997620 85.350105286  -999.250000 95.988883972 195.06050110 1.6792999506 1.6905000210
 3167.0732422  -999.250000 12.532600403 12.250000954 115.81594849 0.0425999984  -999.250000 0.2795000076 2.4777998924 9.3085002899 82.612258911  -999.250000 96.415153503 196.79460144 1.6825000048 1.6804000139
 3167.2255859  -999.250000 12.548000336 12.250000954 115.08661652 0.0373999998  -999.250000 0.2734999955 2.4640998840 9.4354000092 83.083709717  -999.250000 96.696434021 197.16769409 1.6796000004 1.6732000113
 3167.3781738  -999.250000 12.528300285 12.250000954 107.32480621 0.0370999984  -999.250000 0.2752999961 2.4773001671 9.5087995529 84.773834229  -999.250000 97.406753540 199.65499878 1.6723999977 1.6737999916
 3167.5305176  -999.250000 12.537899971 12.250000954 103.19914246 0.0344999991  -999.250000 0.2689000070 2.4658000469 9.8718996048 86.059791565  -999.250000 98.107238770 197.46229553 1.6457999945 1.6601999998
 3167.6828613  -999.250000 12.547200203 12.250000954 106.14271545 0.0249000005  -999.250000 0.2648000121 2.4460999966 10.059000015 84.125244141  -999.250000 97.382293701 196.55729675 1.6344000101 1.6456999779
 3167.8352051  -999.250000 12.501799583 12.250000954 110.05643463 0.0220999997  -999.250000 0.2649999857 2.4088997841 10.587599754 82.910453796  -999.250000 97.190452576 197.25428772 1.6346999407 1.6440000534
 3167.9877930  -999.250000 12.552300453 12.250000954 113.55674744 0.0309999995  -999.250000 0.2874999940 2.4316999912 10.806300163 84.384132385  -999.250000 98.225540161 197.02330017 1.6318000555 1.6433999538
 3168.1401367  -999.250000 12.538100243 12.250000954 117.71948242 0.0441000015  -999.250000 0.2957000136 2.4519000053 10.999099731 86.172630310  -999.250000 97.802207947 196.89930725 1.6355999708 1.6461999416
 3168.2924805  -999.250000 12.515500069 12.250000954 129.86056519 0.0511000007  -999.250000 0.2879999876 2.4709000587 10.860099792 87.813163757  -999.250000 97.995552063 197.54499817 1.6325000525 1.6499999762
 3168.4448242  -999.250000 12.567800522 12.250000954 116.02493286 0.0461000018  -999.250000 0.2736000121 2.4447999001 10.819000244 87.726364136  -999.250000 98.900985718 196.89099121 1.6191999912 1.6317000389
 3168.5974121  -999.250000 12.554699898 12.250000954 119.39107513 0.0403000005  -999.250000 0.2700000107 2.4428000450 10.233099937 87.462196350  -999.250000 100.51587677 201.33331299 1.5838999748 1.5918999910
 3168.7497559  -999.250000 12.533499718 12.250000954 136.09841919 0.0263000000  -999.250000 0.2666000128 2.4354999065 9.5936002731 89.706367493  -999.250000 102.03490448 207.54939270 1.5422999859 1.5541000366
 3168.9020996  -999.250000 12.512700081 12.250000954 136.45669556 0.0251000002  -999.250000 0.2773999870 2.4407000542 9.0618000031 91.308830261  -999.250000 101.59956360 214.85780334 1.4994000196 1.5111999512
 3169.0544434  -999.250000 12.526200294 12.250000954 133.39698792 0.0212999992  -999.250000 0.2856000066 2.4409000874 9.0270004272 90.582054138  -999.250000 101.01760101 212.26010132 1.4400999546 1.4579000473
 3169.2067871  -999.250000 12.537500381 12.250000954 138.40943909 0.0353999995  -999.250000 0.3100000024 2.4572000504 9.4506998062 91.242492676  -999.250000 101.89446259 207.11109924 1.3796999454 1.3932000399
 3169.3593750  -999.250000 12.524900436 12.250000954 139.13221741 0.0344999991  -999.250000 0.3192000091 2.4495000839 9.7171001434 95.358352661  -999.250000 102.49401093 205.32899475 1.3266999722 1.3374999762
 3169.5117188  -999.250000 12.529899597 12.250000954 150.33497620 0.0474999994  -999.250000 0.3251999915 2.4547998905 9.9776000977 97.830947876  -999.250000 102.53025055 208.86439514 1.3121000528 1.3192000389
 3169.6640625  -999.250000 12.531800270 12.250000954 134.61221313 0.0370999984  -999.250000 0.3303000033 2.4377999306 9.9495000839 95.928977966  -999.250000 102.68598938 208.45629883 1.3095999956 1.3193999529
 3169.8164063  -999.250000 12.531800270 12.250000954 135.88058472 0.0342000015  -999.250000 0.3242999911 2.4328999519 10.013899803 94.546829224  -999.250000 102.80284119 209.86230469 1.3093999624 1.3174999952
 3169.9689941  -999.250000 12.540800095 12.250000954 163.79200745 0.0291000009  -999.250000 0.3215999901 2.4351999760 9.9126996994 94.245147705  -999.250000 102.39414215 209.14630127 1.2858999968 1.2941000462
 3170.1213379  -999.250000 12.548898697 12.250000954 155.28181458 0.0386000015  -999.250000 0.3206000030 2.4560000896 9.9839000702 92.484512329  -999.250000 102.06374359 208.12249756 1.2864999771 1.2940000296
 3170.2736816  -999.250000 12.535200119 12.250000954 140.56495667 0.0395000018  -999.250000 0.3149000108 2.4628999233 9.8347997665 92.873374939  -999.250000 101.78054810 209.43159485 1.3078999519 1.3202999830
 3170.4260254  -999.250000 12.536198616 12.250000954 156.63977051 0.0441000015  -999.250000 0.3224000037 2.4716999531 9.8805999756 96.909141541  -999.250000 102.18454742 210.63740540 1.3070000410 1.3178999424
 3170.5786133  -999.250000 12.537799835 12.250000954 155.97966003 0.0467000008  -999.250000 0.3129000068 2.4540998936 9.9899997711 98.046905518  -999.250000 102.83455658 211.87210083 1.3293999434 1.3306000233
