# LAS format log file from PETREL
# Project units are specified as depth units
#==================================================================
~Version information
VERS.   2.0:
WRAP.   NO:
#==================================================================
~Well
STRT .m      2380.2319336 :
STOP .m      4321.8081055 :
STEP .m     0.00000000 :
NULL .        -999.250000 :
COMP.           : COMPANY
WELL.  34/3-2 S   : WELL
FLD.            : FIELD
LOC.            : LOCATION
SRVC.           : SERVICE COMPANY
DATE.  2018-09-11 14:48:49   : Log Export Date {yyyy-MM-dd HH:mm:ss}
PROV.           : PROVINCE
UWI.   34/3-2 S   : UNIQUE WELL ID
API.            : API NUMBER
#==================================================================
~Curve
DEPT .m                   : DEPTH
Lithology_geolink ._      : Lithology_geolink
CALI .in                  : CALI
BS .in                    : BS
ROP .m/h                  : ROP
DRHO .g/cm3               : DRHO
THOR .ppm                 : THOR
NPHI .m3/m3               : NPHI
RHOB .g/cm3               : RHOB
PEF .b/e                  : PEF
GR .gAPI                  : GR
URAN .ppm                 : URAN
DTC .us/ft                : DTC
DTS .us/ft                : DTS
RDEP .ohm.m               : RDEP
RMED .ohm.m               : RMED
~Parameter
#==================================================================
~Ascii
# ...
 3675.9367676 13.000000000 12.569499969 12.250000954 92.243171692 0.0212012809  -999.250000 0.3229944110 2.5596246719 8.5022850037 105.15480042  -999.250000 97.398803711 202.38020325 1.2922259569 1.2988181114
 3676.0891113 13.000000000 12.581500053 12.250000954 96.051956177 0.0224979185  -999.250000 0.3235990405 2.5724792480 8.6438732147 107.82990265  -999.250000 96.522399902 202.10150146 1.3104707003 1.3221623898
 3676.2414551 13.000000000 12.574199677 12.250000954 94.594596863 0.0164195206  -999.250000 0.3241980970 2.5756897926 8.6286497116 110.89620209  -999.250000 96.003402710 204.81938171 1.3049179316 1.3189105988
 3676.3940430 13.000000000 12.568598747 12.250000954 86.179504395 0.0101100961  -999.250000 0.3127184212 2.5752007961 8.5860691071 111.07949829  -999.250000 95.918197632 205.57670593 1.2931189537 1.3035247326
 3676.5463867 13.000000000 12.593500137 12.250000954 85.939346313 0.0122964736  -999.250000 0.3197886050 2.5585267544 9.1218395233 110.84470367  -999.250000 95.254699707 205.59129333 1.2922013998 1.2925176620
 3676.6987305 13.000000000 12.593500137 12.250000954 81.706596375 0.0153000001  -999.250000 0.3301833272 2.5355370045 9.6068229675 107.26969910  -999.250000 95.039596558 205.59590149 1.3071758747 1.3078752756
 3676.8510742 13.000000000 12.656100273 12.250000954 86.391746521 0.0197000001  -999.250000 0.3353916407 2.5163307190 10.132857323 106.69309998  -999.250000 96.165901184 205.62199402 1.2959181070 1.3005118370
 3677.0034180 13.000000000 12.702199936 12.250000954 88.363121033 0.0216000006  -999.250000 0.3050972819 2.5291588306 9.9011468887 110.44930267  -999.250000 96.093902588 205.61727905 1.2920125723 1.3047863245
 3677.1560059 13.000000000 12.734999657 12.250000954 91.323997498 0.0242999997  -999.250000 0.3092931211 2.5585527420 9.6352252960 113.42710114  -999.250000 95.808097839 205.88580322 1.2917004824 1.3050994873
 3677.3083496 13.000000000 12.767399788 12.250000954 95.154617310 0.0178999994  -999.250000 0.3093998432 2.5568027496 9.2986402512 112.04319763  -999.250000 95.776496887 207.00308228 1.3392237425 1.3357508183
 3677.4606934 13.000000000 12.692399979 12.250000954 99.711860657 0.0091000004  -999.250000 0.3355579972 2.5395276546 8.9966831207 105.16100311  -999.250000 95.813201904 210.74960327 1.3722470999 1.3767342567
 3677.6130371 13.000000000 12.619199753 12.250000954 97.117607117 0.0044000000  -999.250000 0.3184550405 2.5143806934 9.3499641418 99.448501587  -999.250000 95.807189941 210.35200500 1.3979177475 1.4083985090
 3677.7656250 13.000000000 12.635399818 12.250000954 94.633239746 0.0166999996  -999.250000 0.3071181178 2.5626225471 9.4794940948 101.47689819  -999.250000 95.816802979 211.51350403 1.2748976946 1.2927857637
 3677.9179688 13.000000000 12.618900299 12.250000954 101.49488831 0.0280000009  -999.250000 0.2857342958 2.5719850063 10.095011711 108.28289795  -999.250000 96.919197083 214.07249451 1.1965255737 1.2141259909
 3678.0703125 13.000000000 12.608000755 12.250000954 99.645370483 0.0329999998  -999.250000 0.2919898927 2.5779905319 9.8308258057 112.88960266  -999.250000 99.090400696 213.50929260 1.1705415249 1.1896390915
 3678.2226563 13.000000000 12.629400253 12.250000954 107.64098358 0.0299999993  -999.250000 0.2998747230 2.5366327763 10.284940720 114.78620148  -999.250000 98.752403259 213.58459473 1.1691045761 1.1833201647
 3678.3752441 13.000000000 12.640000343 12.250000954 101.92195129 0.0249000005  -999.250000 0.3185700178 2.5365998745 9.4183931351 115.28050232  -999.250000 97.161003113 213.54690552 1.1707972288 1.1851968765
 3678.5275879 13.000000000 12.670600891 12.250000954 96.725517273 0.0208999999  -999.250000 0.3256886303 2.5322072506 8.9170026779 114.23020172  -999.250000 96.814697266 213.53018188 1.2054444551 1.2043691874
 3678.6799316 13.000000000 12.677800179 12.250000954 94.913009644 0.0184000004  -999.250000 0.3322894275 2.5360937119 8.4423608780 112.29029846  -999.250000 96.723297119 213.80520630 1.2117898464 1.2137849331
 3678.8322754 13.000000000 12.693699837 12.250000954 87.773597717 0.0086000003  -999.250000 0.3241131306 2.5143351555 8.7453126907 111.51190186  -999.250000 95.919097900 214.39860535 1.1643761396 1.1825501919
 3678.9846191 13.000000000 12.653800011 12.250000954 82.436393738 0.0206000004  -999.250000 0.3145307302 2.5372264385 9.3525524139 111.96910095  -999.250000 96.362297058 216.47250366 1.1675894260 1.1865868568
 3679.1372070 13.000000000 12.621700287 12.250000954 75.200897217 0.0237000007  -999.250000 0.3005224466 2.5393967628 9.7429761887 111.98149872  -999.250000 96.325996399 213.66610718 1.2520644665 1.2494990826
 3679.2895508 13.000000000 12.620300293 12.250000954 77.344963074 0.0306000002  -999.250000 0.2925128043 2.5558736324 9.7606725693 111.40070343  -999.250000 96.598899841 211.71189880 1.2470083237 1.2212455273
 3679.4418945 13.000000000 12.618301392 12.250000954 74.869140625 0.0185000002  -999.250000 0.2952955067 2.5448179245 9.4594831467 111.68489838  -999.250000 97.910499573 194.39088440 1.2984174490 1.2837995291
 3679.5942383 13.000000000 12.535200119 12.250000954 75.908393860 0.0093999999  -999.250000 0.2937051356 2.5355298519 9.1202869415 110.86940002  -999.250000 98.418601990 192.51300049 1.1792826653 1.2023618221
 3679.7468262 13.000000000 12.592101097 12.250000954 76.548187256 0.0182000007  -999.250000 0.3047822118 2.5588626862 9.1939802170 99.020103455  -999.250000 98.226799011 192.59370422 1.4210113287 1.4046747684
 3679.8991699 13.000000000 12.702199936 12.250000954 75.051612854 0.0163000003  -999.250000 0.3037017584 2.5401301384 9.3270864487 73.307502747  -999.250000 94.197097778 192.50610352 2.5205357075 2.3800349236
 3680.0515137 13.000000000 12.703399658 12.250000954 74.621749878 0.0142999999  -999.250000 0.3132846355 2.5649602413 9.9197492599 48.608100891  -999.250000 80.210197449 191.65370178 4.0085144043 3.8291764259
 3680.2038574 13.000000000 12.704799652 12.250000954 72.651336670 0.0055999998  -999.250000 0.2620644867 2.5685884953 9.9057474136 37.487800598  -999.250000 71.291702271 142.15809631 4.7941856384 4.6378116608
 3680.3564453 13.000000000 12.619199753 12.250000954 64.058731079 0.0054000001  -999.250000 0.1818285286 2.6188194752 9.5576591492 36.252201080  -999.250000 65.186599731 141.67370605 4.6839809418 4.7302560806
 3680.5087891 13.000000000 12.618301392 12.250000954 57.764350891 0.0153999999  -999.250000 0.1350748390 2.6314797401 9.4956979752 39.341201782  -999.250000 66.119499207 138.14210510 4.2547883987 4.5636672974
 3680.6611328 13.000000000 12.576299667 12.250000954 54.462959290 0.0197000001  -999.250000 0.1136342958 2.6371910572 9.7298240662 48.286800385  -999.250000 68.776603699 139.90260315 3.7403247356 4.1228070259
 3680.8134766 13.000000000 12.618301392 12.250000954 48.109268188 0.0274999999  -999.250000 0.1102054492 2.6389970779 10.017538071 62.496101379  -999.250000 73.175498962 146.41529846 2.3558211327 2.5161778927
 3680.9658203 13.000000000 12.622299194 12.250000954 46.018817902 0.0240000002  -999.250000 0.1214638427 2.6230511665 9.8597078323 75.927001953  -999.250000 78.174301147 166.79550171 1.9411242008 1.9611735344
 3681.1184082 13.000000000 12.630299568 12.250000954 41.813827515 0.0364000015  -999.250000 0.1459607333 2.6041302681 10.321357727 85.700500488  -999.250000 84.628799438 187.27529907 1.9618645906 1.9877544641
 3681.2707520 13.000000000 12.627099991 12.250000954 40.658992767 0.0441000015  -999.250000 0.1859358996 2.5832333565 10.780064583 93.361099243  -999.250000 88.829597473 193.67770386 1.6168538332 1.6151980162
 3681.4230957 13.000000000 12.622599602 12.250000954 39.737041473 0.0430000015  -999.250000 0.2017746866 2.5680243969 10.633536339 97.710403442  -999.250000 90.832397461 198.02549744 1.5888440609 1.5719684362
 3681.5754395 13.000000000 12.582500458 12.250000954 39.257766724 0.0298999995  -999.250000 0.2180478424 2.5776689053 9.8018693924 97.500297546  -999.250000 90.836204529 200.21470642 1.6232892275 1.6014052629
 3681.7280273 13.000000000 12.545499802 12.250000954 40.642131805 0.0281000007  -999.250000 0.2335751653 2.5837903023 9.6218843460 92.768096924  -999.250000 89.555900574 195.77919006 1.8236784935 1.7565511465
