# LAS format log file from PETREL
# Project units are specified as depth units
#==================================================================
~Version information
VERS.   2.0:
WRAP.   NO:
#==================================================================
~Well
STRT .m      2380.2319336 :
STOP .m      4321.8081055 :
STEP .m     0.00000000 :
NULL .        -999.250000 :
COMP.           : COMPANY
WELL.  34/3-2 S   : WELL
FLD.            : FIELD
LOC.            : LOCATION
SRVC.           : SERVICE COMPANY
DATE.  2018-09-11 14:48:49   : Log Export Date {yyyy-MM-dd HH:mm:ss}
PROV.           : PROVINCE
UWI.   34/3-2 S   : UNIQUE WELL ID
API.            : API NUMBER
#==================================================================
~Curve
DEPT .m                   : DEPTH
Lithology_geolink ._      : Lithology_geolink
CALI .in                  : CALI
BS .in                    : BS
ROP .m/h                  : ROP
DRHO .g/cm3               : DRHO
THOR .ppm                 : THOR
NPHI .m3/m3               : NPHI
RHOB .g/cm3               : RHOB
PEF .b/e                  : PEF
GR .gAPI                  : GR
URAN .ppm                 : URAN
DTC .us/ft                : DTC
DTS .us/ft                : DTS
RDEP .ohm.m               : RDEP
RMED .ohm.m               : RMED
~Parameter
#==================================================================
~Ascii
# ...
 3806.6962891 7.0000000000 12.548898697 12.250000954 71.568893433 0.0005000000  -999.250000 0.4113000035 2.5260000229 7.4032001495 115.38058472  -999.250000 95.577056885 202.25590515 1.7921999693 1.8128999472
 3806.8486328 7.0000000000 12.539099693 12.250000954 73.702758789 0.0038999999  -999.250000 0.4146000147 2.5515000820 7.5338001251 115.77676392  -999.250000 95.375984192 197.63581848 1.7997000217 1.8253999949
 3807.0009766 7.0000000000 12.495800972 12.250000954 73.070541382 0.0027999999  -999.250000 0.4047000110 2.5569999218 7.2842998505 113.20255280  -999.250000 95.050048828 204.89418030 1.7567000389 1.7700999975
 3807.1533203 7.0000000000 12.578000069 12.250000954 69.225395203 0.0010000000  -999.250000 0.4068000019 2.5550999641 6.7849001884 114.42616272  -999.250000 93.585426331 208.73538208 1.6779999733 1.6890000105
 3807.3059082 7.0000000000 12.560099602 12.250000954 77.680122375 -0.000100000  -999.250000 0.3959999979 2.5411000252 6.5570001602 117.20731354  -999.250000 93.227714539 207.82090759 1.5388000011 1.5568000078
 3807.4582520 7.0000000000 12.507800102 12.250000954 67.889434814 -0.001600000  -999.250000 0.4036999941 2.5327999592 6.7293000221 116.99568176  -999.250000 93.512184143 202.85159302 1.4874999523 1.5091999769
 3807.6105957 7.0000000000 12.443499565 12.250000954 75.359909058 0.0068000001  -999.250000 0.4018000066 2.5518000126 7.3677000999 118.17948151  -999.250000 92.441139221 207.96479797 1.4816999435 1.4988000393
 3807.7629395 7.0000000000 12.476901054 12.250000954 74.601707458 0.0080000004  -999.250000 0.4074000120 2.5645000935 7.8432002068 122.96835327  -999.250000 92.847351074 210.95010376 1.4651000500 1.4765000343
 3807.9152832 7.0000000000 12.532200813 12.250000954 74.220802307 0.0115000000  -999.250000 0.4124999940 2.5764999390 7.9416999817 124.55348206  -999.250000 94.499725342 212.90820313 1.4713000059 1.4819999933
 3808.0678711 7.0000000000 12.832501411 12.250000954 80.389762878 0.0098999999  -999.250000 0.4286000133 2.5875000954 7.8887000084 120.60437012  -999.250000 95.323394775 212.75900269 1.5427000523 1.5455000401
 3808.2202148 7.0000000000 12.659399986 12.250000954 84.063316345 0.0126999998  -999.250000 0.4124000072 2.6026999950 7.7217998505 116.29505920  -999.250000 93.887245178 209.27200317 1.5618000031 1.5763000250
 3808.3725586 7.0000000000 12.745901108 12.250000954 80.933067322 0.0063999998  -999.250000 0.4020999968 2.5934000015 7.4039998055 115.21604156  -999.250000 92.919273376 204.55220032 1.5671999454 1.5836999416
 3808.5249023 7.0000000000 12.590900421 12.250000954 81.363517761 0.0005000000  -999.250000 0.3961000144 2.5754001141 6.5901999474 117.42784119  -999.250000 92.905769348 202.75700378 1.5647000074 1.5820000172
 3808.6774902 7.0000000000 12.623000145 12.250000954 87.230316162 -0.001600000  -999.250000 0.4075999856 2.5606000423 6.4281001091 121.63516998  -999.250000 93.507125854 205.81210327 1.5810999870 1.6036000252
 3808.8298340 7.0000000000 12.443499565 12.250000954 80.531494141 -0.006500000  -999.250000 0.4074000120 2.5987999439 7.1936001778 122.80944824  -999.250000 93.363555908 208.85600281 1.6196999550 1.6493999958
 3808.9821777 7.0000000000 12.483799934 12.250000954 93.203086853 -0.017000001  -999.250000 0.3941999972 2.6545000076 8.2678003311 122.90148163  -999.250000 93.649047852 209.93400574 1.6220999956 1.6457999945
 3809.1345215 7.0000000000 12.524900436 12.250000954 94.860237122 -0.014300000  -999.250000 0.3770000041 2.6863999367 7.7467999458 123.87912750  -999.250000 93.053237915 209.45829773 1.6215000153 1.6460000277
 3809.2871094 7.0000000000 12.696801186 12.250000954 90.332351685 -0.008300000  -999.250000 0.3700999916 2.6517999172 6.6240000725 120.64758301  -999.250000 90.964569092 208.55380249 1.5913000107 1.6253000498
 3809.4394531 7.0000000000 12.579299927 12.250000954 89.245079041 0.0066000000  -999.250000 0.3776000142 2.6106998920 5.7912001610 118.24753571  -999.250000 92.576538086 207.06059265 1.5565999746 1.5878000259
 3809.5917969 7.0000000000 12.514599800 12.250000954 81.810691833 0.0037000000  -999.250000 0.3747000098 2.5834999084 5.9876999855 119.26545715  -999.250000 93.156593323 208.25070190 1.5995999575 1.6187000275
 3809.7441406 7.0000000000 12.521900177 12.250000954 82.064636230 0.0012000001  -999.250000 0.3790999949 2.5715999603 6.1971998215 119.36726379  -999.250000 91.658195496 206.84429932 1.6339999437 1.6560000181
 3809.8964844 7.0000000000 12.642299652 12.250000954 79.632545471 0.0014000000  -999.250000 0.3777999878 2.5697000027 6.9503998756 121.34529114  -999.250000 91.466491699 206.84339905 1.6268999577 1.6433999538
 3810.0490723 7.0000000000 12.565199852 12.250000954 83.126968384 0.0031000001  -999.250000 0.3808000088 2.5799002647 7.4368000031 124.02044678  -999.250000 91.709671021 207.35360718 1.6165000200 1.6296000481
 3810.2014160 7.0000000000 12.563899994 12.250000954 80.929794312 0.0109999999  -999.250000 0.3824000061 2.5963997841 7.4572000504 125.37712860  -999.250000 91.330085754 206.57839966 1.5921000242 1.6003999710
 3810.3537598 7.0000000000 12.595399857 12.250000954 83.693244934 0.0115000000  -999.250000 0.3707000017 2.6019999981 6.8737001419 126.57303619  -999.250000 92.688659668 198.63999939 1.5138000250 1.5356999636
 3810.5061035 7.0000000000 12.593700409 12.250000954 80.766075134 0.0091000004  -999.250000 0.3772000074 2.5936000347 6.3400001526 122.22472382  -999.250000 92.847053528 194.33819580 1.4153000116 1.4447000027
 3810.6586914 7.0000000000 12.603700638 12.250000954 79.709648132 0.0013000000  -999.250000 0.3853000104 2.6024000645 6.1093001366 117.27396393  -999.250000 92.256118774 191.86010742 1.3523999453 1.3852000237
 3810.8110352 7.0000000000 12.619999886 12.250000954 76.641403198 -0.0000000000  -999.250000 0.4068999887 2.6185998917 5.9474000931 122.44863129  -999.250000 92.357330322 192.70219421 1.3430000544 1.3507000208
 3810.9633789 7.0000000000 12.609899521 12.250000954 77.338256836 0.0004000000  -999.250000 0.4032999873 2.6314001083 6.0331997871 131.25315857  -999.250000 91.632598877 193.95539856 1.4069000483 1.4036999941
 3811.1157227 7.0000000000 12.609700203 12.250000954 77.459976196 0.0035999999  -999.250000 0.3935000002 2.6193997860 6.1391000748 131.65495300  -999.250000 92.945625305 196.23510742 1.4586000443 1.4521000385
 3811.2683105 7.0000000000 12.953200340 12.250000954 76.856628418 0.0041999999  -999.250000 0.3810000122 2.5927000046 6.6662998199 125.75565338  -999.250000 93.266113281 199.20399475 1.4902000427 1.5040999651
 3811.4206543 7.0000000000 12.849199295 12.250000954 76.416343689 0.0035000001  -999.250000 0.3779999912 2.5790998936 6.6684999466 121.09835815  -999.250000 92.648979187 209.07109070 1.4674999714 1.4936000109
 3811.5729980 7.0000000000 12.666299820 12.250000954 73.342521667 0.0035999999  -999.250000 0.3858999908 2.5750000477 6.6236000061 120.01872253  -999.250000 92.698043823 213.54400635 1.4522000551 1.4795999527
 3811.7253418 7.0000000000 12.679900169 12.250000954 76.095146179 0.0094999997  -999.250000 0.3975999951 2.5968999863 6.2498998642 123.71218872  -999.250000 92.726669312 213.96040344 1.4435000420 1.4709999561
 3811.8776855 7.0000000000 12.692799568 12.250000954 71.303153992 0.0108000003  -999.250000 0.4056000113 2.6075997353 5.9175000191 126.81654358  -999.250000 93.952613831 217.28889465 1.5207999945 1.5419000387
 3812.0302734 7.0000000000 12.759200096 12.250000954 74.056106567 0.0098000001  -999.250000 0.4052999914 2.6119999886 5.6553001404 124.07990265  -999.250000 94.206977844 209.87152100 1.5671999454 1.5864000320
 3812.1826172 7.0000000000 12.588298798 12.250000954 65.637466431 0.0029000000  -999.250000 0.3995999992 2.5894999504 5.9892997742 116.99978638  -999.250000 94.105232239 210.73010254 1.5405999422 1.5607999563
 3812.3349609 7.0000000000 12.692399979 12.250000954 71.618766785 0.0051000002  -999.250000 0.3896999955 2.5771000385 6.7104997635 110.44828033  -999.250000 93.623970032 210.47579956 1.4951000214 1.5197000504
 3812.4873047 7.0000000000 12.648499489 12.250000954 68.372375488 0.0062000002  -999.250000 0.3916000128 2.5764000416 6.9545001984 109.81198120  -999.250000 92.605163574 207.11959839 1.4982999563 1.5211000443
