# LAS format log file from PETREL
# Project units are specified as depth units
#==================================================================
~Version information
VERS.   2.0:
WRAP.   NO:
#==================================================================
~Well
STRT .m      2380.2319336 :
STOP .m      4321.8081055 :
STEP .m     0.00000000 :
NULL .        -999.250000 :
COMP.           : COMPANY
WELL.  34/3-2 S   : WELL
FLD.            : FIELD
LOC.            : LOCATION
SRVC.           : SERVICE COMPANY
DATE.  2018-09-11 14:48:49   : Log Export Date {yyyy-MM-dd HH:mm:ss}
PROV.           : PROVINCE
UWI.   34/3-2 S   : UNIQUE WELL ID
API.            : API NUMBER
#==================================================================
~Curve
DEPT .m                   : DEPTH
Lithology_geolink ._      : Lithology_geolink
CALI .in                  : CALI
BS .in                    : BS
ROP .m/h                  : ROP
DRHO .g/cm3               : DRHO
THOR .ppm                 : THOR
NPHI .m3/m3               : NPHI
RHOB .g/cm3               : RHOB
PEF .b/e                  : PEF
GR .gAPI                  : GR
URAN .ppm                 : URAN
DTC .us/ft                : DTC
DTS .us/ft                : DTS
RDEP .ohm.m               : RDEP
RMED .ohm.m               : RMED
~Parameter
#==================================================================
~Ascii
# ...
 3295.5463867  -999.250000 12.604599953 12.250000954 85.958656311 -0.012700000  -999.250000 0.2799000144 2.4690999985 4.9138998985 80.409469604  -999.250000 94.567199707 188.32229614 1.6016000509 1.6082999706
 3295.6989746  -999.250000 12.614000320 12.250000954 88.328742981 -0.012700000  -999.250000 0.2748000026 2.4601998329 4.8576002121 78.728034973  -999.250000 93.366699219 189.20660400 1.6663999557 1.6693999767
 3295.8513184  -999.250000 12.599499702 12.250000954 93.944557190 -0.011500000  -999.250000 0.2714999914 2.4586999416 4.9425001144 85.292404175  -999.250000 93.026496887 185.24809265 1.6663999557 1.6693999767
 3296.0036621  -999.250000 12.579799652 12.250000954 97.025596619 -0.004900000  -999.250000 0.2702000141 2.4756999016 5.6406002045 92.770179749  -999.250000 91.220901489 181.76950073 1.7601000071 1.7752000093
 3296.1560059  -999.250000 12.626000404 12.250000954 100.14402771 -0.000200000  -999.250000 0.2603999972 2.4874000549 6.3194999695 94.124664307  -999.250000 90.376892090 179.58790588 1.8406000137 1.8518999815
 3296.3083496  -999.250000 12.608000755 12.250000954 106.02231598 0.0109999999  -999.250000 0.2526000142 2.4942998886 7.1545000076 92.539855957  -999.250000 90.475296021 179.89779663 1.8905999660 1.9048999548
 3296.4609375  -999.250000 12.575401306 12.250000954 113.07611084 0.0113000004  -999.250000 0.2480999976 2.4879000187 7.1290001869 88.943344116  -999.250000 90.954490662 180.73519897 1.8905999660 1.9048999548
 3296.6132813  -999.250000 12.551500320 12.250000954 129.21226501 0.0098000001  -999.250000 0.2527999878 2.4756999016 7.3604001999 83.005508423  -999.250000 91.707099915 181.82870483 1.8901000023 1.9021999836
 3296.7656250  -999.250000 12.518099785 12.250000954 139.38713074 0.0004000000  -999.250000 0.2558000088 2.4549002647 7.5253000259 82.151268005  -999.250000 91.784698486 181.51660156 1.8659000397 1.8731000423
 3296.9179688  -999.250000 12.542300224 12.250000954 132.47473145 0.0008000000  -999.250000 0.2536000013 2.4514999390 7.9878997803 87.930221558  -999.250000 91.962303162 182.98300171 1.8422000408 1.8543000221
 3297.0705566  -999.250000 12.558799744 12.250000954 123.41272736 0.0033000000  -999.250000 0.2612000108 2.4549002647 8.2657003403 91.493736267  -999.250000 92.589004517 182.76429749 1.7994999886 1.8202999830
 3297.2229004  -999.250000 12.590000153 12.250000954 118.71849823 0.0143999998  -999.250000 0.2619999945 2.4811999798 8.3781995773 90.975494385  -999.250000 92.776802063 182.16549683 1.8265999556 1.8321000338
 3297.3752441  -999.250000 12.578901291 12.250000954 109.15190887 0.0120000001  -999.250000 0.2554000020 2.4773001671 8.2969999313 90.405914307  -999.250000 91.837402344 181.49967957 1.8322999477 1.8421000242
 3297.5275879  -999.250000 12.578901291 12.250000954 111.13780212 0.0148000000  -999.250000 0.2363000065 2.4830000401 8.1476001740 89.045867920  -999.250000 91.435699463 181.27670288 1.7719000578 1.7756999731
 3297.6801758  -999.250000 12.679100037 12.250000954 104.49179840 0.0159000009  -999.250000 0.2353000045 2.4865000248 8.1126003265 87.153991699  -999.250000 91.272697449 183.77729797 1.7014000416 1.7057000399
 3297.8325195  -999.250000 12.603700638 12.250000954 106.70275116 0.0121999998  -999.250000 0.2463999987 2.4914999008 7.8415999413 85.745346069  -999.250000 93.457801819 189.31880188 1.6042000055 1.6164000034
 3297.9848633  -999.250000 12.426400185 12.250000954 107.19783783 0.0131000001  -999.250000 0.2730999887 2.4879000187 8.2416000366 82.905601501  -999.250000 93.342788696 190.74729919 1.5089000463 1.5296000242
 3298.1372070  -999.250000 12.453000069 12.250000954 104.92519379 0.0097000012  -999.250000 0.2816999853 2.4844000340 8.2150001526 81.358245850  -999.250000 93.770599365 191.40429688 1.4213999510 1.4414999485
 3298.2895508  -999.250000 12.499500275 12.250000954 115.05150604 0.0124000004  -999.250000 0.2919999957 2.4879000187 8.1191997528 85.758216858  -999.250000 95.932205200 190.70629883 1.4608999491 1.4572000504
 3298.4421387  -999.250000 12.488900185 12.250000954 95.200134277 0.0066000000  -999.250000 0.2768000066 2.4979000092 7.1269998550 90.936668396  -999.250000 96.048400879 189.52621460 1.6205999851 1.6109999418
 3298.5944824  -999.250000 12.498900414 12.250000954 92.466865540 0.0016000000  -999.250000 0.2675999999 2.4874000549 6.3783998489 90.085693359  -999.250000 94.643798828 189.57931519 1.6742000580 1.6662000418
 3298.7468262  -999.250000 12.500300407 12.250000954 95.481956482 -0.003200000  -999.250000 0.2576999962 2.4853999615 5.8442997932 89.400955200  -999.250000 93.585098267 187.73789978 1.6962000132 1.6949000359
 3298.8991699  -999.250000 12.512599945 12.250000954 110.61318970 -0.000800000  -999.250000 0.2529999912 2.4853999615 5.7417998314 93.179519653  -999.250000 92.967498779 185.53950500 1.7238999605 1.7329000235
 3299.0517578  -999.250000 12.537099838 12.250000954 111.32644653 -0.002800000  -999.250000 0.2583999932 2.4865000248 5.8860001564 95.496452332  -999.250000 91.972198486 184.62892151 1.7364000082 1.7491999865
 3299.2041016  -999.250000 12.562600136 12.250000954 122.98589325 -0.000300000  -999.250000 0.2597000003 2.4879000187 6.1887998581 94.790916443  -999.250000 91.929603577 185.14160156 1.7403000593 1.7628999949
 3299.3564453  -999.250000 12.571999550 12.250000954 127.47016144 0.0038999999  -999.250000 0.2630000114 2.4943997860 6.5893001556 92.617820740  -999.250000 92.092201233 184.33369446 1.7387000322 1.7582000494
 3299.5087891  -999.250000 12.574199677 12.250000954 128.09809875 0.0093000000  -999.250000 0.2561999857 2.5162000656 6.5732998848 91.390014648  -999.250000 91.437896729 183.00000000 1.7717000246 1.7890000343
 3299.6613770  -999.250000 12.591699600 12.250000954 132.54232788 0.0157999992  -999.250000 0.2563000023 2.5206999779 6.7407999039 91.955902100  -999.250000 90.648399353 181.14039612 1.7694000006 1.7792999744
 3299.8137207  -999.250000 12.586199760 12.250000954 68.806434631 0.0115000000  -999.250000 0.2587000132 2.5160999298 6.4194002151 89.924713135  -999.250000 92.221603394 181.81019592 1.7666000128 1.7770999670
 3299.9660645  -999.250000 12.578000069 12.250000954 79.709320068 0.0142999999  -999.250000 0.2621999979 2.5113000870 6.4895000458 85.946083069  -999.250000 92.232200623 182.00030518 1.7776999474 1.7826999426
 3300.1184082  -999.250000 12.551199913 12.250000954 76.333663940 0.0082000000  -999.250000 0.2558999956 2.4981999397 6.4285998344 85.002838135  -999.250000 91.834999084 182.41409302 1.7566000223 1.7660000324
 3300.2707520  -999.250000 12.556199074 12.250000954 73.283142090 0.0088000000  -999.250000 0.2542000115 2.4976000786 6.4124999046 86.591018677  -999.250000 91.833396912 182.60420227 1.6523000002 1.6680999994
 3300.4233398  -999.250000 12.555800438 12.250000954 71.901252747 0.0115999999  -999.250000 0.2506000102 2.5002000332 6.4232001305 89.733489990  -999.250000 91.922996521 182.15069580 1.6310000420 1.6490000486
 3300.5756836  -999.250000 12.540800095 12.250000954 67.234909058 0.0089999996  -999.250000 0.2542000115 2.5113000870 6.0725002289 93.845832825  -999.250000 92.880493164 183.03541565 1.5915000439 1.6024999619
 3300.7280273  -999.250000 12.507800102 12.250000954 65.096122742 0.0093999999  -999.250000 0.2549000084 2.5153000355 6.2961001396 95.610206604  -999.250000 93.421997070 187.58929443 1.5492999554 1.5571999550
 3300.8803711  -999.250000 12.517600060 12.250000954 62.310691833 0.0046000001  -999.250000 0.2637000084 2.5088999271 6.1352000237 95.803253174  -999.250000 93.317596436 189.75529480 1.5528000593 1.5627000332
 3301.0329590  -999.250000 12.520199776 12.250000954 61.177165985 0.0031000001  -999.250000 0.2721000016 2.5023000240 6.0524997711 96.957931519  -999.250000 94.597694397 191.97720337 1.4939999580 1.5002000332
 3301.1853027  -999.250000 12.615699768 12.250000954 57.909450531 -0.007000000  -999.250000 0.2827000022 2.4828999043 5.2295999527 97.337104797  -999.250000 95.498298645 190.77859497 1.4414999485 1.4549000263
 3301.3376465  -999.250000 12.587500572 12.250000954 93.722442627 -0.014100000  -999.250000 0.2872000039 2.4707999229 4.6124000549 95.720855713  -999.250000 95.742897034 194.43449402 1.4652999640 1.4754999876
