# LAS format log file from PETREL
# Project units are specified as depth units
#==================================================================
~Version information
VERS.   2.0:
WRAP.   NO:
#==================================================================
~Well
STRT .m      2380.2319336 :
STOP .m      4321.8081055 :
STEP .m     0.00000000 :
NULL .        -999.250000 :
COMP.           : COMPANY
WELL.  34/3-2 S   : WELL
FLD.            : FIELD
LOC.            : LOCATION
SRVC.           : SERVICE COMPANY
DATE.  2018-09-11 14:48:49   : Log Export Date {yyyy-MM-dd HH:mm:ss}
PROV.           : PROVINCE
UWI.   34/3-2 S   : UNIQUE WELL ID
API.            : API NUMBER
#==================================================================
~Curve
DEPT .m                   : DEPTH
Lithology_geolink ._      : Lithology_geolink
CALI .in                  : CALI
BS .in                    : BS
ROP .m/h                  : ROP
DRHO .g/cm3               : DRHO
THOR .ppm                 : THOR
NPHI .m3/m3               : NPHI
RHOB .g/cm3               : RHOB
PEF .b/e                  : PEF
GR .gAPI                  : GR
URAN .ppm                 : URAN
DTC .us/ft                : DTC
DTS .us/ft                : DTS
RDEP .ohm.m               : RDEP
RMED .ohm.m               : RMED
~Parameter
#==================================================================
~Ascii
# ...
 2653.6374512  -999.250000 12.310799599 12.250000954 175.21028137 0.0120999999  -999.250000 0.2981625795 2.3859086037 5.2812256813 85.329803467  -999.250000 109.27500153  -999.250000 1.3953000307 1.3973000050
 2653.7900391  -999.250000 12.390000343 12.250000954 170.84690857 0.0020000001  -999.250000 0.3031919897 2.3438673019 5.5885095596 83.921203613  -999.250000 107.65670013  -999.250000 1.3645000458 1.3609999418
 2653.9423828  -999.250000 12.467499733 12.250000954 179.47564697 0.0051000002  -999.250000 0.2960115373 2.3495907784 5.8897175789 82.166702271  -999.250000 109.44750214  -999.250000 1.3423000574 1.3464000225
 2654.0947266  -999.250000 12.451399803 12.250000954 188.03878784 0.0137999998  -999.250000 0.3025894165 2.3677709103 6.2741832733 82.339698792  -999.250000 110.64830017  -999.250000 1.2645000219 1.2779999971
 2654.2470703  -999.250000 12.429800034 12.250000954 190.13079834 0.0161000006  -999.250000 0.3173526525 2.3876364231 6.3440775871 83.328102112  -999.250000 111.32800293  -999.250000 1.2144000530 1.2305999994
 2654.3996582  -999.250000 12.377099991 12.250000954 194.54246521 0.0108000003  -999.250000 0.3141052723 2.3707270622 6.0965976715 84.786102295  -999.250000 112.44419861  -999.250000 1.2144000530 1.2305999994
 2654.5520020  -999.250000 12.307299614 12.250000954 195.72645569 0.0046000001  -999.250000 0.3284769356 2.3451409340 6.1633920670 87.924499512  -999.250000 114.01719666  -999.250000 1.2017999887 1.2108999491
 2654.7043457  -999.250000 12.365300179 12.250000954 214.51020813 0.0083999997  -999.250000 0.3347899020 2.3375000954 6.5005002022 90.704597473  -999.250000 113.97519684  -999.250000 1.1395000219 1.1491999626
 2654.8566895  -999.250000 12.395600319 12.250000954 217.36987305 0.0105999997  -999.250000 0.3316102624 2.3378999233 6.8715000153 91.903099060  -999.250000 114.80230713  -999.250000 1.1006000042 1.1037000418
 2655.0092773  -999.250000 12.470999718 12.250000954 216.54760742 0.0085000005  -999.250000 0.3160250187 2.3510999680 6.7132000923 92.088500977  -999.250000 116.22840118  -999.250000 1.0844000578 1.0875999928
 2655.1616211  -999.250000 12.497500420 12.250000954 221.98962402 0.0068999999  -999.250000 0.3192947209 2.3696000576 6.2160000801 91.532501221  -999.250000 116.16600037  -999.250000 1.0677000284 1.0793000460
 2655.3139648  -999.250000 12.540900230 12.250000954 222.28955078 0.0066999998  -999.250000 0.3310810626 2.3886001110 5.6904001236 90.222702026  -999.250000 116.43450165  -999.250000 1.0555000305 1.0608999729
 2655.4663086  -999.250000 12.613200188 12.250000954 219.06163025 0.0085000005  -999.250000 0.3504689038 2.4031999111 5.0952000618 88.913002014  -999.250000 116.79160309  -999.250000 1.0561000109 1.0537999868
 2655.6186523  -999.250000 12.550700188 12.250000954 221.96672058 0.0043000001  -999.250000 0.3533907235 2.3919000626 4.6118001938 88.628799438  -999.250000 116.81400299  -999.250000 1.0530999899 1.0571000576
 2655.7712402  -999.250000 12.518899918 12.250000954 217.79345703 0.0008000000  -999.250000 0.3362275660 2.3856999874 4.3031001091 89.333099365  -999.250000 117.09799957  -999.250000 1.0480999947 1.0536999702
 2655.9235840  -999.250000 12.506099701 12.250000954 219.41143799 -0.004200000  -999.250000 0.3085443974 2.3691000938 4.1876997948 90.778701782  -999.250000 116.76509094 227.79310608 1.0255999565 1.0339000225
 2656.0759277  -999.250000 12.524900436 12.250000954 215.44567871 -0.007900000  -999.250000 0.3048059344 2.3612000942 4.2059998512 91.730102539  -999.250000 116.17600250 234.12048340 1.0454000235 1.0486999750
 2656.2282715  -999.250000 12.481900215 12.250000954 208.84596252 -0.010300000  -999.250000 0.3225430548 2.3473000526 4.2323999405 90.247398376  -999.250000 114.85449982 232.68719482 1.0536999702 1.0540000200
 2656.3808594  -999.250000 12.417798996 12.250000954 201.12161255 -0.008800000  -999.250000 0.3514536917 2.3515000343 4.2184000015 90.037399292  -999.250000 114.20159912 232.46659851 1.0656000376 1.0640000105
 2656.5332031  -999.250000 12.573599815 12.250000954 201.31430054 0.0001000000  -999.250000 0.3517995179 2.3747999668 4.2235999107 92.866897583  -999.250000 114.29689789 236.92129517 1.0857000351 1.0878000259
 2656.6855469  -999.250000 12.660300255 12.250000954 200.77351379 0.0012000001  -999.250000 0.3517999947 2.3815999031 4.5013999939 94.386703491  -999.250000 114.19630432 239.59800720 1.0842000246 1.0911999941
 2656.8378906  -999.250000 12.664600372 12.250000954 195.38572693 0.0063999998  -999.250000 0.3455201387 2.3898000717 5.0940999985 94.201301575  -999.250000 114.11509705 239.61230469 1.0978000164 1.1033999920
 2656.9904785  -999.250000 12.616200447 12.250000954 207.31382751 0.0044999998  -999.250000 0.3595774174 2.3698999882 5.7277002335 93.138702393  -999.250000 114.00530243 240.03720093 1.1583000422 1.1538000107
 2657.1428223  -999.250000 12.516400337 12.250000954 197.96189880 0.0071000000  -999.250000 0.3487174511 2.3589000702 6.2954998016 90.976402283  -999.250000 113.73889923 236.62730408 1.1999000311 1.2016999722
 2657.2951660  -999.250000 12.489100456 12.250000954 196.18621826 0.0114000002  -999.250000 0.3386161923 2.3587000370 6.6614999771 89.901496887  -999.250000 113.56770325 232.26579285 1.2372000217 1.2358000278
 2657.4475098  -999.250000 12.447799683 12.250000954 198.34364319 0.0186999999  -999.250000 0.3160362244 2.3714001179 6.7761001587 89.580200195  -999.250000 113.11609650 231.80090332 1.2498999834 1.2568000555
 2657.5998535  -999.250000 12.459699631 12.250000954 195.98036194 0.0166999996  -999.250000 0.3095208108 2.3684999943 6.6893000603 87.183197021  -999.250000 112.87349701 230.73480225 1.2756999731 1.2790000439
 2657.7524414  -999.250000 12.478899956 12.250000954 196.01664734 0.0118000004  -999.250000 0.3093003333 2.3459000587 6.4759001732 85.020896912  -999.250000 111.72299957 232.46589661 1.2921999693 1.3008999825
 2657.9047852  -999.250000 12.490699768 12.250000954 200.17509460 0.0115000000  -999.250000 0.3203822076 2.3266999722 6.5805001259 86.095901489  -999.250000 111.04979706 231.52748108 1.3093999624 1.3155000210
 2658.0571289  -999.250000 12.515500069 12.250000954 202.52316284 0.0141000003  -999.250000 0.3248927891 2.3348000050 6.4401998520 89.011901855  -999.250000 111.26348877 231.53320313 1.3177000284 1.3192000389
 2658.2094727  -999.250000 12.547599792 12.250000954 200.83940125 0.0104000000  -999.250000 0.3152310550 2.3397998810 6.1778001785 92.891601563  -999.250000 111.74230194 229.65240479 1.2951999903 1.3063999414
 2658.3620605  -999.250000 12.591699600 12.250000954 180.84213257 -0.000100000  -999.250000 0.3121049702 2.3450000286 5.5949001312 96.672500610  -999.250000 110.95570374 235.76060486 1.2791999578 1.2892999649
 2658.5144043  -999.250000 12.632900238 12.250000954 179.07005310 -0.007300000  -999.250000 0.3158939183 2.3508000374 4.9814000130 97.562103271  -999.250000 111.22409821 236.00309753 1.2784999609 1.2861000299
 2658.6667480  -999.250000 12.711400032 12.250000954 169.86581421 -0.012900000  -999.250000 0.3253000081 2.3589000702 4.4860000610 96.375999451  -999.250000 112.11979675 235.41229248 1.3080999851 1.3180999756
 2658.8190918  -999.250000 12.788801193 12.250000954 162.90878296 -0.015900001  -999.250000 0.3330000043 2.3640000820 4.2006998062 95.140403748  -999.250000 111.81439972 235.30430603 1.3394999504 1.3439999819
 2658.9716797  -999.250000 12.850800514 12.250000954 152.42329407 -0.013100000  -999.250000 0.3307999969 2.3605000973 4.1241998672 93.113998413  -999.250000 111.57860565 235.91729736 1.3394999504 1.3439999819
 2659.1240234  -999.250000 12.929300308 12.250000954 135.92868042 -0.004500000  -999.250000 0.3357999921 2.3743000031 4.3303999901 91.631301880  -999.250000 111.09970093 232.78120422 1.3658000231 1.3658000231
 2659.2763672  -999.250000 12.848500252 12.250000954 129.67469788 0.0046000001  -999.250000 0.3336000144 2.3817999363 4.6020002365 92.026702881  -999.250000 109.76371002 230.19749451 1.4026000500 1.4099999666
 2659.4287109  -999.250000 12.727100372 12.250000954 120.31355286 0.0049000001  -999.250000 0.3407999873 2.3743999004 5.1974000931 92.199699402  -999.250000 109.55989838 225.19509888 1.4190000296 1.4255000353
