# LAS format log file from PETREL
# Project units are specified as depth units
#==================================================================
~Version information
VERS.   2.0:
WRAP.   NO:
#==================================================================
~Well
STRT .m      2380.2319336 :
STOP .m      4321.8081055 :
STEP .m     0.00000000 :
NULL .        -999.250000 :
COMP.           : COMPANY
WELL.  34/3-2 S   : WELL
FLD.            : FIELD
LOC.            : LOCATION
SRVC.           : SERVICE COMPANY
DATE.  2018-09-11 14:48:49   : Log Export Date {yyyy-MM-dd HH:mm:ss}
PROV.           : PROVINCE
UWI.   34/3-2 S   : UNIQUE WELL ID
API.            : API NUMBER
#==================================================================
~Curve
DEPT .m                   : DEPTH
Lithology_geolink ._      : Lithology_geolink
CALI .in                  : CALI
BS .in                    : BS
ROP .m/h                  : ROP
DRHO .g/cm3               : DRHO
THOR .ppm                 : THOR
NPHI .m3/m3               : NPHI
RHOB .g/cm3               : RHOB
PEF .b/e                  : PEF
GR .gAPI                  : GR
URAN .ppm                 : URAN
DTC .us/ft                : DTC
DTS .us/ft                : DTS
RDEP .ohm.m               : RDEP
RMED .ohm.m               : RMED
~Parameter
#==================================================================
~Ascii
# ...
 3551.1210938  -999.250000 12.569499969 12.250000954 118.34694672 -0.009700001  -999.250000 0.3271689415 2.5264999866 5.0665001869 104.98390198  -999.250000 98.340202332 207.46139526 1.2831581831 1.2860224247
 3551.2736816  -999.250000 12.563899994 12.250000954 117.37825012 -0.004700000  -999.250000 0.3322918415 2.5206999779 5.9523000717 104.67089844  -999.250000 98.620002747 210.33160400 1.2568418980 1.2513552904
 3551.4260254  -999.250000 12.534299850 12.250000954 123.81872559 0.0035000001  -999.250000 0.3393886089 2.5299999714 6.9791998863 107.76809692  -999.250000 97.302307129 215.96029663 1.2537050247 1.2490036488
 3551.5783691  -999.250000 12.587500572 12.250000954 122.11038208 0.0031999999  -999.250000 0.3348073661 2.5344998837 7.6698999405 115.62640381  -999.250000 96.437599182 214.99099731 1.2722702026 1.2664719820
 3551.7307129  -999.250000 12.604599953 12.250000954 132.04573059 0.0055000000  -999.250000 0.3310060799 2.5568997860 7.1020002365 118.09760284  -999.250000 95.418998718 209.18450928 1.2709022760 1.2759847641
 3551.8830566  -999.250000 12.604599953 12.250000954 130.49256897 0.0037000000  -999.250000 0.3219291270 2.5618999004 6.7483000755 111.67259979  -999.250000 96.057197571 204.66128540 1.2536553144 1.2638390064
 3552.0356445  -999.250000 12.578000069 12.250000954 134.02352905 0.0074000000  -999.250000 0.3229982555 2.5710999966 6.7073998451 108.49710083  -999.250000 96.896202087 208.61122131 1.2240474224 1.2320508957
 3552.1879883  -999.250000 12.575300217 12.250000954 126.73021698 0.0082999999  -999.250000 0.3223011196 2.5671000481 7.1703000069 108.43530273  -999.250000 98.516296387 212.15570068 1.2300902605 1.2385894060
 3552.3403320  -999.250000 12.569499969 12.250000954 123.68727875 0.0108000003  -999.250000 0.3434660137 2.5701999664 7.7192001343 107.18740082  -999.250000 100.63771057 219.83859253 1.1811785698 1.1962679625
 3552.4926758  -999.250000 12.547200203 12.250000954 114.09639740 0.0030000000  -999.250000 0.3465900719 2.5771999359 8.1428003311 104.95099640  -999.250000 100.51370239 224.55459595 1.1421251297 1.1524404287
 3552.6452637  -999.250000 12.555800438 12.250000954 123.21366882 0.0029000000  -999.250000 0.3516918421 2.5843000412 7.8130002022 104.55059814  -999.250000 99.799102783 226.22729492 1.1262252331 1.1376235485
 3552.7976074  -999.250000 12.571999550 12.250000954 125.99260712 -0.006000000  -999.250000 0.3453102410 2.5731000900 7.3393998146 107.78289795  -999.250000 99.761497498 228.29069519 1.1284962893 1.1353037357
 3552.9499512  -999.250000 12.566900253 12.250000954 124.04348755 0.0010000000  -999.250000 0.3492935896 2.5569999218 6.7101001740 109.96250153  -999.250000 99.153297424 215.65390015 1.1243066788 1.1335028410
 3553.1022949  -999.250000 12.560899734 12.250000954 124.48349762 0.0027000001  -999.250000 0.3476054668 2.5478000641 6.5954999924 111.81259918  -999.250000 98.915710449 218.33430481 1.1324738264 1.1349952221
 3553.2548828  -999.250000 12.581899643 12.250000954 112.25913239 0.0057999999  -999.250000 0.3369171321 2.5527000427 6.5998001099 113.70719910  -999.250000 98.101989746 216.75289917 1.1375917196 1.1441851854
 3553.4072266  -999.250000 12.565600395 12.250000954 114.97394562 0.0002000000  -999.250000 0.3281140924 2.5525000095 6.2617001534 112.76399994  -999.250000 97.898101807 217.36630249 1.1226240396 1.1307215691
 3553.5595703  -999.250000 12.564300537 12.250000954 116.14248657 -0.007800000  -999.250000 0.3385831714 2.5539000034 5.6209001541 111.74669647  -999.250000 97.720298767 214.56939697 1.1058269739 1.1177208424
 3553.7119141  -999.250000 12.565401077 12.250000954 120.80191040 -0.009700001  -999.250000 0.3444905579 2.5543000698 5.1623997688 112.03089905  -999.250000 98.195007324 212.86790466 1.1093943119 1.1198964119
 3553.8642578  -999.250000 12.579000473 12.250000954 135.82809448 -0.003300000  -999.250000 0.3466929793 2.5689001083 5.5602998734 108.83070374  -999.250000 97.909896851 215.06309509 1.1535582542 1.1578780413
 3554.0168457  -999.250000 12.565999985 12.250000954 123.61744690 -0.000200000  -999.250000 0.3589802980 2.5625000000 6.0876002312 107.52100372  -999.250000 98.985198975 213.01879883 1.1484084129 1.1546055079
 3554.1691895  -999.250000 12.661100388 12.250000954 122.53910065 0.0008000000  -999.250000 0.3556054533 2.5513000488 6.5998001099 104.30840302  -999.250000 98.557800293 208.71968079 1.1573855877 1.1614888906
 3554.3215332  -999.250000 12.602899551 12.250000954 124.03302765 0.0017000000  -999.250000 0.3370298147 2.5717000961 6.1065998077 103.66590118  -999.250000 97.441001892 205.58851624 1.1491132975 1.1574065685
 3554.4738770  -999.250000 12.611900330 12.250000954 122.63017273 0.0011000000  -999.250000 0.3253374398 2.5903000832 5.9818000793 106.49130249  -999.250000 97.114593506 205.28979492 1.1505951881 1.1571009159
 3554.6264648  -999.250000 12.612298965 12.250000954 148.20500183 -0.001000000  -999.250000 0.3178119957 2.6126000881 6.0728001595 106.47480011  -999.250000 96.259292603 204.97959900 1.1923329830 1.1883498430
 3554.7788086  -999.250000 12.593099594 12.250000954 111.46421814 -0.008700000  -999.250000 0.3309788406 2.6047000885 7.1991000175 104.19309998  -999.250000 95.945297241 212.54521179 1.2068767548 1.2064710855
 3554.9311523  -999.250000 12.564300537 12.250000954 109.87449646 -0.011300000  -999.250000 0.3419823647 2.5824000835 7.7353000641 103.91919708  -999.250000 97.135200500 217.33740234 1.1841366291 1.1864322424
 3555.0834961  -999.250000 12.538599968 12.250000954 108.70191193 -0.011300000  -999.250000 0.3621353507 2.5648999214 7.2722997665 104.41970062  -999.250000 97.482299805 217.00689697 1.1472183466 1.1564959288
 3555.2360840  -999.250000 12.594699860 12.250000954 112.95576477 -0.005500000  -999.250000 0.3649955094 2.5532000065 6.1195001602 104.28170013  -999.250000 97.536300659 211.83489990 1.1042687893 1.1245511770
 3555.3884277  -999.250000 12.538800240 12.250000954 106.97025299 0.0016000000  -999.250000 0.3616054654 2.6117000580 5.4888000488 105.31340027  -999.250000 95.728996277 213.91360474 1.1029020548 1.1247994900
 3555.5407715  -999.250000 12.571200371 12.250000954 110.09929657 -0.016600000  -999.250000 0.3479219675 2.6512999535 5.7483000755 106.46659851  -999.250000 93.640197754 203.72180176 1.1269613504 1.1375794411
 3555.6931152  -999.250000 12.582300186 12.250000954 112.69858551 -0.017800000  -999.250000 0.3385150433 2.6659998894 5.6800999641 104.09429932  -999.250000 93.499397278 210.66600037 1.3032171726 1.2895561457
 3555.8457031  -999.250000 12.615699768 12.250000954 99.703247070 -0.020000000  -999.250000 0.3266190290 2.6043999195 5.9829001427 99.971496582  -999.250000 95.953903198 218.16780090 1.3515230417 1.3677750826
 3555.9980469  -999.250000 12.596899986 12.250000954 105.69507599 0.0024000001  -999.250000 0.3362844288 2.5692000389 6.0872998238 99.020103455  -999.250000 96.638198853 220.39469910 1.1001036167 1.1230928898
 3556.1503906  -999.250000 12.617400169 12.250000954 102.06359100 0.0096000005  -999.250000 0.3476817310 2.5627000332 6.7741999626 100.95999908  -999.250000 96.053802490 219.11839294 1.0823278427 1.0998367071
 3556.3027344  -999.250000 12.553199768 12.250000954 127.75535583 0.0093999999  -999.250000 0.3302280307 2.5680000782 7.2511000633 101.66429901  -999.250000 96.415000916 216.99569702 1.2871711254 1.2947870493
 3556.4550781  -999.250000 12.536700249 12.250000954 118.67169189 0.0140000004  -999.250000 0.3017911911 2.5699000359 7.7227997780 99.909797668  -999.250000 96.999496460 216.69767761 1.2124409676 1.2196422815
 3556.6076660  -999.250000 12.564800262 12.250000954 111.59398651 0.0146000003  -999.250000 0.3033972979 2.5546000004 8.2805004120 101.87429810  -999.250000 98.804595947 210.58219910 1.0770169497 1.0866131783
 3556.7600098  -999.250000 12.613200188 12.250000954 107.69522095 0.0251000002  -999.250000 0.3242664933 2.5680000782 8.4313001633 110.01689911  -999.250000 98.463699341 212.69560242 1.0875827074 1.1062680483
 3556.9123535  -999.250000 12.577599525 12.250000954 104.22603607 0.0348999985  -999.250000 0.3552503288 2.6120998859 8.2163000107 114.92220306  -999.250000 96.130897522 210.61570740 1.1364216805 1.1614115238
