# LAS format log file from PETREL
# Project units are specified as depth units
#==================================================================
~Version information
VERS.   2.0:
WRAP.   NO:
#==================================================================
~Well
STRT .m      2380.2319336 :
STOP .m      4321.8081055 :
STEP .m     0.00000000 :
NULL .        -999.250000 :
COMP.           : COMPANY
WELL.  34/3-2 S   : WELL
FLD.            : FIELD
LOC.            : LOCATION
SRVC.           : SERVICE COMPANY
DATE.  2018-09-11 14:48:49   : Log Export Date {yyyy-MM-dd HH:mm:ss}
PROV.           : PROVINCE
UWI.   34/3-2 S   : UNIQUE WELL ID
API.            : API NUMBER
#==================================================================
~Curve
DEPT .m                   : DEPTH
Lithology_geolink ._      : Lithology_geolink
CALI .in                  : CALI
BS .in                    : BS
ROP .m/h                  : ROP
DRHO .g/cm3               : DRHO
THOR .ppm                 : THOR
NPHI .m3/m3               : NPHI
RHOB .g/cm3               : RHOB
PEF .b/e                  : PEF
GR .gAPI                  : GR
URAN .ppm                 : URAN
DTC .us/ft                : DTC
DTS .us/ft                : DTS
RDEP .ohm.m               : RDEP
RMED .ohm.m               : RMED
~Parameter
#==================================================================
~Ascii
# ...
 4062.2709961 1.0000000000 8.3528995514 8.5000000000 86.264106750 -0.011900000 5.7115998268 0.2413000017 2.3208999634 6.4176001549 31.881450653 1.1220999956 72.716911316 143.60150146 2.7528998852 3.1264998913
 4062.4233398 1.0000000000 8.3466997147 8.5000000000 84.613517761 -0.011200000 5.3172998428 0.2435999960 2.3238000870 6.0075001717 31.086421967 0.9279000163 74.593116760 146.08790588 2.4551999569 2.7348999977
 4062.5756836 1.0000000000 8.3606004715 8.5000000000 89.498359680 -0.008500000 5.2901000977 0.2520000041 2.3399999142 5.6412000656 30.788761139 0.9725999832 76.479789734 147.03570557 2.3984000683 2.6712999344
 4062.7280273 1.0000000000 8.3374996185 8.5000000000 90.531173706 -0.003600000 5.3506999016 0.2569999993 2.3468000889 5.6717000008 31.386800766 0.9108999968 81.341857910 150.59359741 2.3812000751 2.6484999657
 4062.8806152 1.0000000000 8.3683004379 8.5000000000 95.461944580 -0.000400000 4.6286001205 0.2517000139 2.3396000862 5.5367999077 30.578010559 0.9315000176 87.423927307 154.32260132 2.3150000572 2.5604999065
 4063.0329590 1.0000000000 8.3374996185 8.5000000000 96.035102844 0.0031000001 4.4987001419 0.2649999857 2.3194000721 5.7755999565 30.772724152 0.8579999804 88.863265991 155.04559326 2.2351000309 2.4553999901
 4063.1853027 1.0000000000 8.3760004044 8.5000000000 97.694877625 0.0023000001 4.2402000427 0.2757000029 2.2860999107 5.6174001694 33.597534180 0.9041000009 86.469108582 149.55279541 2.1779999733 2.3701000214
 4063.3376465 2.0000000000 8.3451995850 8.5000000000 95.758857727 0.0026000000 4.5068001747 0.2608999908 2.2692999840 5.4725999832 37.607353210 0.9488999844 85.601684570 146.66479492 2.1907000542 2.3945000172
 4063.4899902 1.0000000000 8.3606004715 8.5000000000 99.439636230 0.0020999999 4.8038997650 0.2585999966 2.2671000957 5.2209000587 37.821132660 0.7950999737 85.343704224 145.07490540 2.2535998821 2.4361999035
 4063.6425781 1.0000000000 8.3374996185 8.5000000000 98.935035706 0.0052000000 4.6050000191 0.2443999946 2.2855999470 5.4307999611 32.728649139 0.7893999815 85.773437500 144.27310181 2.2888000011 2.4293999672
 4063.7949219 1.0000000000 8.3606004715 8.5000000000 100.91371155 0.0073000002 4.6756000519 0.2063000053 2.2994000912 5.8364000320 31.525878906 0.6776999831 84.036056519 143.39889526 2.2586998940 2.5078999996
 4063.9472656 1.0000000000 8.3466997147 8.5000000000 102.09744263 0.0051000002 4.0092000961 0.1499000043 2.3183999062 6.0265998840 28.893190384 0.5582000017 81.067962646 138.79949951 2.5971000195 2.9356999397
 4064.0996094 1.0000000000 8.3914003372 8.5000000000 96.849082947 0.0005000000 3.5940001011 0.1156999990 2.3582999706 6.1922001839 27.014348984 0.7383000255 74.622779846 133.87600708 3.1958000660 3.9902000427
 4064.2521973 1.0000000000 8.3683004379 8.5000000000 96.322830200 0.0052000000 3.4198999405 0.0899000019 2.4379000664 5.8463997841 24.615896225 0.6504999995 74.704902649 122.22350311 4.4131999016 6.1043000221
 4064.4045410 1.0000000000 8.4069004059 8.5000000000 96.899940491 0.0066999998 3.5122001171 0.0907000005 2.5072000027 5.7119002342 24.839033127 0.7117000222 64.728462219 115.54920197 4.8003001213 6.8008999825
 4064.5568848 1.0000000000 8.3837003708 8.5000000000 98.475395203 0.0038999999 3.5692999363 0.0895999968 2.5450997353 5.7153000832 28.786296844 0.7932000160 59.285549164 111.40039825 4.9774999619 7.4092998505
 4064.7092285 16.000000000 8.3991003036 8.5000000000 97.427497864 0.0038999999 3.8897001743 0.0854000002 2.5659999847 5.6465997696 29.781566620 0.7821000218 58.319744110 108.86100006 5.2160000801 7.4821000099
 4064.8618164 16.000000000 8.3837003708 8.5000000000 99.021003723 0.0063999998 3.7974998951 0.0687000006 2.5966999531 5.7711000443 30.183830261 0.7466999888 58.541339874 106.48059845 5.5827999115 8.4884004593
 4065.0141602 1.0000000000 8.3837003708 8.5000000000 101.42192078 0.0044999998 3.6433000565 0.0533999987 2.6214001179 5.6392002106 25.769233704 0.6833999753 61.142127991 104.64800262 6.2817001343 10.668999672
 4065.1665039 1.0000000000 8.3374996185 8.5000000000 101.91666412 0.0070000002 3.9391999245 0.0454999991 2.6424999237 5.7490000725 25.168825150 0.7569000125 62.839557648 103.48390198 6.5911002159 12.307499886
 4065.3188477 1.0000000000 8.3606004715 8.5000000000 102.19979858 0.0063999998 4.0911998749 0.0443999991 2.6463999748 6.4668998718 26.123178482 0.9771999717 63.691993713 103.72369385 6.1756000519 10.818799973
 4065.4711914 1.0000000000 8.3297004700 8.5000000000 104.44455719 0.0081000002 4.5953998566 0.0653999969 2.6291999817 7.6746001244 28.729127884 1.1468000412 68.116760254 112.32029724 5.3242998123 8.4646997452
 4065.6237793 1.0000000000 8.3591003418 8.5000000000 107.34874725 0.0087000001 4.5283999443 0.1077999994 2.5771999359 7.8498001099 30.252298355 1.1610000134 70.908241272 115.09490204 4.3752999306 6.2800998688
 4065.7761230 1.0000000000 8.3451995850 8.5000000000 106.69028473 0.0031000001 4.2086000443 0.1571000069 2.5065999031 7.1609001160 33.490409851 0.9743000865 74.567810059 121.13079834 3.6352999210 4.7666997910
 4065.9284668 1.0000000000 8.3451995850 8.5000000000 106.69586945 -0.000800000 4.3435001373 0.1729999930 2.4412000179 5.7210001945 32.687301636 1.0612000227 76.069473267 125.56150055 3.2244999409 4.0899000168
 4066.0808105 1.0000000000 8.3606004715 8.5000000000 99.536750793 -0.003100000 4.8565998077 0.1930000037 2.3796999454 5.3699998856 32.870326996 0.7979000211 77.112472534 127.08959961 2.9942998886 3.7081000805
 4066.2333984 1.0000000000 8.3528995514 8.5000000000 101.48720551 -0.000900000 5.4050002098 0.2079000026 2.3540000916 5.4404001236 29.647230148 0.6031000018 79.339683533 130.83259583 2.8578000069 3.4561998844
 4066.3857422 1.0000000000 8.3606004715 8.5000000000 103.52493286 -0.003100000 4.7337999344 0.2099000067 2.3296000957 5.7933998108 29.655290604 0.7578999996 80.746681213 133.48370361 2.7562000751 3.3412001133
 4066.5380859 1.0000000000 8.3451995850 8.5000000000 97.906173706 0.0002000000 4.8586001396 0.2085999995 2.3192000389 6.3509998322 28.903459549 0.6772000194 86.463180542 135.90089417 2.5899999142 3.0880000591
 4066.6904297 1.0000000000 8.3683004379 8.5000000000 100.99081421 -0.002100000 4.8604998589 0.2175000012 2.2871999741 6.4541997910 29.629190445 0.7178999782 85.390884399 137.99729919 2.4491000175 2.8868000507
 4066.8430176 1.0000000000 8.3528995514 8.5000000000 98.107284546 -0.003100000 4.5461001396 0.2275999933 2.2725999355 6.3102998734 31.621309280 0.8594999909 84.256797791 139.42689514 2.4289000034 2.7985999584
 4066.9953613 1.0000000000 8.3652000427 8.5000000000 97.262466431 -0.002200000 5.2456002235 0.2397000045 2.2823998928 5.7996997833 32.900798798 0.9814000130 83.786010742 142.20649719 2.4893999100 2.8554999828
 4067.1477051 1.0000000000 8.3606004715 8.5000000000 100.85433197 0.0024999999 5.5267000198 0.2408999950 2.2981998920 5.0903000832 32.896625519 0.9842000008 82.416946411 144.61360168 2.5773999691 2.9540998936
 4067.3000488 1.0000000000 8.3760004044 8.5000000000 100.19324493 0.0022000000 6.8654999733 0.2425999939 2.3036000729 4.8555998802 30.299139023 0.6305000186 80.323425293 146.11140442 2.6631000042 3.0027000904
 4067.4523926 1.0000000000 8.3219995499 8.5000000000 96.098098755 0.0031999999 6.7006998062 0.2266999930 2.3111000061 4.7835001945 31.697164536 0.5134999752 79.404945374 146.36099243 2.6617000103 2.9774999619
 4067.6049805 1.0000000000 8.3606004715 8.5000000000 100.70406342 0.0038999999 6.8186998367 0.2146999985 2.3364000320 5.3907999992 33.804294586 0.3501000106 79.871757507 145.52070618 2.5936000347 2.9205000401
 4067.7573242 2.0000000000 8.3451995850 8.5000000000 103.81168365 0.0060000001 6.6224999428 0.2250999957 2.3589000702 6.7044000626 38.906898499 0.6467999816 79.156997681 145.37820435 2.7060999870 3.1108000278
 4067.9096680 2.0000000000 8.3683004379 8.5000000000 101.22506714 0.0013000000 6.9099998474 0.2338999957 2.3589999676 7.3607001305 37.097141266 0.5383999944 78.474067688 145.79960632 2.7585000992 3.2627999783
 4068.0620117 2.0000000000 8.3528995514 8.5000000000 100.55773926 0.0010000000 6.8909997940 0.2378000021 2.3420999050 6.8921999931 35.747196198 0.5246000290 79.195068359 144.85589600 2.7406001091 3.3480000496
