# LAS format log file from PETREL
# Project units are specified as depth units
#==================================================================
~Version information
VERS.   2.0:
WRAP.   NO:
#==================================================================
~Well
STRT .m      2380.2319336 :
STOP .m      4321.8081055 :
STEP .m     0.00000000 :
NULL .        -999.250000 :
COMP.           : COMPANY
WELL.  34/3-2 S   : WELL
FLD.            : FIELD
LOC.            : LOCATION
SRVC.           : SERVICE COMPANY
DATE.  2018-09-11 14:48:49   : Log Export Date {yyyy-MM-dd HH:mm:ss}
PROV.           : PROVINCE
UWI.   34/3-2 S   : UNIQUE WELL ID
API.            : API NUMBER
#==================================================================
~Curve
DEPT .m                   : DEPTH
Lithology_geolink ._      : Lithology_geolink
CALI .in                  : CALI
BS .in                    : BS
ROP .m/h                  : ROP
DRHO .g/cm3               : DRHO
THOR .ppm                 : THOR
NPHI .m3/m3               : NPHI
RHOB .g/cm3               : RHOB
PEF .b/e                  : PEF
GR .gAPI                  : GR
URAN .ppm                 : URAN
DTC .us/ft                : DTC
DTS .us/ft                : DTS
RDEP .ohm.m               : RDEP
RMED .ohm.m               : RMED
~Parameter
#==================================================================
~Ascii
# ...
 2528.8220215  -999.250000 12.388199806 12.250000954 70.115814209 0.0242999997  -999.250000 0.3585999906 2.3680999279 6.6574001312 103.41880035  -999.250000 112.05329895  -999.250000 1.0626000166 1.1023000479
 2528.9743652  -999.250000 12.388699532 12.250000954 73.612205505 0.0068999999  -999.250000 0.3546999991 2.3452999592 6.6332001686 100.60169983  -999.250000 109.17420197  -999.250000 1.1325000525 1.1366000175
 2529.1267090  -999.250000 12.404999733 12.250000954 71.267059326 0.0022000000  -999.250000 0.3488999903 2.3273999691 7.0195999146 97.043197632  -999.250000 109.98310089  -999.250000 1.1615999937 1.1583000422
 2529.2792969  -999.250000 12.470299721 12.250000954 74.241470337 0.0017000000  -999.250000 0.3361000121 2.3320000172 7.0419998169 94.695602417  -999.250000 110.03770447  -999.250000 1.1650999784 1.1755000353
 2529.4316406  -999.250000 12.558300018 12.250000954 74.871719360 0.0048000002  -999.250000 0.3267999887 2.3524000645 6.9509000778 92.949302673  -999.250000 110.16049957  -999.250000 1.1488000154 1.1626000404
 2529.5839844  -999.250000 12.534799576 12.250000954 88.218505859 0.0105999997  -999.250000 0.3280000091 2.3645000458 6.8983001709 94.662597656  -999.250000 110.38020325  -999.250000 1.1404999495 1.1496000290
 2529.7363281  -999.250000 12.512900352 12.250000954 140.99508667 0.0170000009  -999.250000 0.3420999944 2.3715000153 6.9896001816 97.916297913  -999.250000 110.37210846  -999.250000 1.1316000223 1.1453000307
 2529.8889160  -999.250000 12.510899544 12.250000954 154.62303162 0.0187999997  -999.250000 0.3670000136 2.3729999065 7.1192002296 97.648597717  -999.250000 109.34479523  -999.250000 1.1217999458 1.1351000071
 2530.0412598  -999.250000 12.509498596 12.250000954 156.95767212 0.0143999998  -999.250000 0.3892000020 2.3626000881 7.2119998932 97.141998291  -999.250000 107.84089661  -999.250000 1.1230000257 1.1311999559
 2530.1936035  -999.250000 12.513799667 12.250000954 159.82119751 0.0149999997  -999.250000 0.3867000043 2.3519001007 7.3737998009 98.538299561  -999.250000 108.90589905  -999.250000 1.1230000257 1.1311999559
 2530.3459473  -999.250000 12.510399818 12.250000954 149.90814209 0.0115000000  -999.250000 0.3727999926 2.3450999260 7.0988998413 101.46659851  -999.250000 111.40380096  -999.250000 1.1017999649 1.1121000051
 2530.4985352  -999.250000 12.503499985 12.250000954 146.41307068 0.0055999998  -999.250000 0.3695000112 2.3440001011 6.5040001869 103.98719788  -999.250000 112.03079987  -999.250000 1.0733000040 1.0849000216
 2530.6508789  -999.250000 12.555800438 12.250000954 157.77592468 0.0020000001  -999.250000 0.3774000108 2.3517000675 5.8870000839 101.31829834  -999.250000 109.55460358  -999.250000 1.0831999779 1.0930999517
 2530.8032227  -999.250000 12.508199692 12.250000954 160.63352966 -0.001100000  -999.250000 0.3799999952 2.3533999920 5.4254999161 96.524200439  -999.250000 109.61070251  -999.250000 1.1082999706 1.1160000563
 2530.9555664  -999.250000 12.510399818 12.250000954 149.78280640 0.0018000000  -999.250000 0.3515000045 2.3629999161 5.1781997681 93.880096436  -999.250000 111.14569855  -999.250000 1.1230000257 1.1301000118
 2531.1079102  -999.250000 12.510700226 12.250000954 145.87237549 -0.003600000  -999.250000 0.3440000117 2.3619000912 4.7997999191 92.323196411  -999.250000 115.31670380  -999.250000 1.1606999636 1.1613999605
 2531.2604980  -999.250000 12.495800972 12.250000954 151.02099609 -0.000900000  -999.250000 0.3440000117 2.3726999760 4.7501997948 94.250701904  -999.250000 117.62820435  -999.250000 1.1880999804 1.2022000551
 2531.4128418  -999.250000 12.522801399 12.250000954 155.82875061 0.0017000000  -999.250000 0.3512000144 2.3810999393 4.9211997986 98.402297974  -999.250000 116.58689880  -999.250000 1.2108999491 1.2254999876
 2531.5651855  -999.250000 12.558300018 12.250000954 161.73721313 0.0044000000  -999.250000 0.3481999934 2.3703000546 5.2940998077 99.687301636  -999.250000 113.14050293  -999.250000 1.2226999998 1.2382999659
 2531.7175293  -999.250000 12.515500069 12.250000954 149.29559326 0.0044999998  -999.250000 0.3468999863 2.3566000462 5.6784000397 99.217796326  -999.250000 112.23230743  -999.250000 1.2310999632 1.2450000048
 2531.8701172  -999.250000 12.547400475 12.250000954 152.70307922 0.0063000000  -999.250000 0.3506000042 2.3577001095 5.8702001572 98.155197144  -999.250000 112.79789734  -999.250000 1.2221000195 1.2368999720
 2532.0224609  -999.250000 12.574199677 12.250000954 153.98458862 0.0135000004  -999.250000 0.3463000059 2.3754999638 6.0373997688 95.597503662  -999.250000 114.12149811  -999.250000 1.1862000227 1.2007999420
 2532.1748047  -999.250000 12.588298798 12.250000954 146.13287354 0.0159000009  -999.250000 0.3407999873 2.3800001144 6.0724000931 92.298500061  -999.250000 115.96719360  -999.250000 1.1432000399 1.1627999544
 2532.3271484  -999.250000 12.540499687 12.250000954 139.46456909 0.0127999997  -999.250000 0.3409000039 2.3657000065 6.1616001129 89.740798950  -999.250000 117.00879669  -999.250000 1.1177999973 1.1302000284
 2532.4797363  -999.250000 12.516400337 12.250000954 138.63812256 0.0093999999  -999.250000 0.3323000073 2.3515000343 6.5322999954 90.049797058  -999.250000 117.03759766  -999.250000 1.1053999662 1.1181000471
 2532.6320801  -999.250000 12.500101089 12.250000954 143.10400391 0.0175000001  -999.250000 0.3400000036 2.3680000305 6.7733998299 92.261497498  -999.250000 117.18489838  -999.250000 1.0736000538 1.0836000443
 2532.7844238  -999.250000 12.501099586 12.250000954 140.02001953 0.0174000002  -999.250000 0.3540000021 2.3715999126 6.9832000732 92.520896912  -999.250000 117.42590332  -999.250000 1.0664999485 1.0779000521
 2532.9367676  -999.250000 12.502699852 12.250000954 134.61613464 0.0126999998  -999.250000 0.3835000098 2.3608000278 6.9190998077 90.630500793  -999.250000 117.19509888  -999.250000 1.0635000467 1.0713000298
 2533.0891113  -999.250000 12.489700317 12.250000954 132.75131226 0.0022000000  -999.250000 0.3871000111 2.3408000469 6.5008001328 90.889999390  -999.250000 115.46050262  -999.250000 1.1025999784 1.1066000462
 2533.2416992  -999.250000 12.464099884 12.250000954 138.98129272 0.0034000000  -999.250000 0.3799000084 2.3501999378 5.9566001892 93.138702393  -999.250000 114.68689728  -999.250000 1.1572999954 1.1603000164
 2533.3940430  -999.250000 12.687700272 12.250000954 140.21981812 0.0099999998  -999.250000 0.3745000064 2.3761999607 5.6455998421 94.868598938  -999.250000 114.69538879  -999.250000 1.1572999954 1.1603000164
 2533.5463867  -999.250000 12.602399826 12.250000954 140.02690125 0.0153000001  -999.250000 0.3808999956 2.3886001110 5.7136998177 96.919601440  -999.250000 115.40319824  -999.250000 1.1734999418 1.1826000214
 2533.6987305  -999.250000 12.414400101 12.250000954 136.22735596 0.0186000001  -999.250000 0.3792999983 2.3889999390 6.0054001808 97.487998962  -999.250000 116.74900055  -999.250000 1.1067999601 1.1282999516
 2533.8513184  -999.250000 12.450999260 12.250000954 139.60040283 0.0152000003  -999.250000 0.3801000118 2.3896000385 6.3056998253 96.894897461  -999.250000 116.49929810  -999.250000 1.0932999849 1.1040999889
 2534.0036621  -999.250000 12.493101120 12.250000954 152.32807922 0.0143999998  -999.250000 0.3725999892 2.3949999809 6.7188000679 99.291900635  -999.250000 116.91851044  -999.250000 1.0932999849 1.1040999889
 2534.1560059  -999.250000 12.529198647 12.250000954 151.00131226 0.0119000003  -999.250000 0.3731000125 2.3986999989 7.0486001968 103.19640350  -999.250000 117.02539825  -999.250000 1.1506999731 1.1664999723
 2534.3083496  -999.250000 12.489000320 12.250000954 149.93241882 0.0103000002  -999.250000 0.3698999882 2.3652999401 7.3302998543 104.02429962  -999.250000 117.02239990  -999.250000 1.0512000322 1.0727000237
 2534.4609375  -999.250000 12.458999634 12.250000954 145.63385010 0.0230000000  -999.250000 0.3664000034 2.3787999153 7.3572998047 99.143699646  -999.250000 115.58719635  -999.250000 1.0902999640 1.1011999846
 2534.6132813  -999.250000 12.559201241 12.250000954 148.73327637 0.0207000002  -999.250000 0.3583999872 2.3645999432 7.2871999741 91.223602295  -999.250000 113.96800232  -999.250000 1.1729999781 1.1821999550
