# LAS format log file from PETREL
# Project units are specified as depth units
#==================================================================
~Version information
VERS.   2.0:
WRAP.   NO:
#==================================================================
~Well
STRT .m      2380.2319336 :
STOP .m      4321.8081055 :
STEP .m     0.00000000 :
NULL .        -999.250000 :
COMP.           : COMPANY
WELL.  34/3-2 S   : WELL
FLD.            : FIELD
LOC.            : LOCATION
SRVC.           : SERVICE COMPANY
DATE.  2018-09-11 14:48:49   : Log Export Date {yyyy-MM-dd HH:mm:ss}
PROV.           : PROVINCE
UWI.   34/3-2 S   : UNIQUE WELL ID
API.            : API NUMBER
#==================================================================
~Curve
DEPT .m                   : DEPTH
Lithology_geolink ._      : Lithology_geolink
CALI .in                  : CALI
BS .in                    : BS
ROP .m/h                  : ROP
DRHO .g/cm3               : DRHO
THOR .ppm                 : THOR
NPHI .m3/m3               : NPHI
RHOB .g/cm3               : RHOB
PEF .b/e                  : PEF
GR .gAPI                  : GR
URAN .ppm                 : URAN
DTC .us/ft                : DTC
DTS .us/ft                : DTS
RDEP .ohm.m               : RDEP
RMED .ohm.m               : RMED
~Parameter
#==================================================================
~Ascii
# ...
 2909.2124023  -999.250000 12.532600403 12.250000954 132.34632874 0.0375860780  -999.250000 0.3403566480 2.4349842072 8.1836853027 99.897399902  -999.250000 112.06620026  -999.250000 1.0759996176 1.0799065828
 2909.3647461  -999.250000 12.531399727 12.250000954 130.89279175 0.0299123395  -999.250000 0.3343097866 2.4329032898 8.0569028854 96.672500610  -999.250000 110.94400024  -999.250000 1.0744025707 1.0687179565
 2909.5170898  -999.250000 12.530900002 12.250000954 128.79307556 0.0271044876  -999.250000 0.3326027095 2.4328999519 7.8720960617 96.338897705  -999.250000 110.84030151  -999.250000 1.0610214472 1.0670027733
 2909.6694336  -999.250000 12.548100471 12.250000954 127.98097229 0.0209099352  -999.250000 0.3123325408 2.4268097878 7.8087010384 97.463302612  -999.250000 111.40689850  -999.250000 1.0488195419 1.0599113703
 2909.8217773  -999.250000 12.552398682 12.250000954 135.49751282 0.0162150413  -999.250000 0.3339305520 2.4095551968 7.7604546547 94.868598938  -999.250000 111.21710968  -999.250000 1.0565750599 1.0634884834
 2909.9743652  -999.250000 12.559201241 12.250000954 144.48922729 0.0151017634  -999.250000 0.3440838158 2.4147915840 7.7510147095 90.272201538  -999.250000 111.50240326  -999.250000 1.0549027920 1.0600055456
 2910.1267090  -999.250000 12.564200401 12.250000954 166.05268860 0.0148004806  -999.250000 0.3537844419 2.4103071690 7.7431130409 87.751602173  -999.250000 112.07089996  -999.250000 1.0433186293 1.0460224152
 2910.2790527  -999.250000 12.569499969 12.250000954 150.46995544 0.0118048079  -999.250000 0.3342314065 2.4054079056 7.7783432007 89.901496887  -999.250000 112.35350037  -999.250000 1.0386074781 1.0425056219
 2910.4313965  -999.250000 12.562100410 12.250000954 140.08934021 0.0077131200  -999.250000 0.3212416172 2.3969271183 7.6022653580 94.003601074  -999.250000 112.28430176  -999.250000 1.0183650255 1.0262522697
 2910.5839844  -999.250000 12.559201241 12.250000954 120.33020782 0.0129915066  -999.250000 0.3328812420 2.4179661274 7.5560736656 95.881698608  -999.250000 112.06809235  -999.250000 1.0119102001 1.0178134441
 2910.7363281  -999.250000 12.574999809 12.250000954 112.29402161 0.0143977562  -999.250000 0.3454797864 2.4250886440 7.5424218178 95.486297607  -999.250000 112.67470551  -999.250000 1.0246795416 1.0306793451
 2910.8886719  -999.250000 12.584899902 12.250000954 106.85811615 0.0250828527  -999.250000 0.3295256197 2.4428713322 7.9457526207 94.436096191  -999.250000 112.55099487  -999.250000 1.0593444109 1.0638468266
 2911.0410156  -999.250000 12.595199585 12.250000954 106.47592926 0.0270936005  -999.250000 0.3489376009 2.4332308769 8.1405763626 93.608299255  -999.250000 111.16880798  -999.250000 1.0792363882 1.0831382275
 2911.1936035  -999.250000 12.586600304 12.250000954 103.08025360 0.0345879830  -999.250000 0.3632770777 2.4440824986 8.2768821716 91.618896484  -999.250000 110.69879913  -999.250000 1.0876865387 1.0891903639
 2911.3459473  -999.250000 12.578901291 12.250000954 104.18686676 0.0323036835  -999.250000 0.3907559216 2.4449985027 8.0678358078 87.331497192  -999.250000 110.01640320  -999.250000 1.0918933153 1.0971871614
 2911.4982910  -999.250000 12.575200081 12.250000954 105.81366730 0.0309022442  -999.250000 0.3711315691 2.4491932392 7.8457555771 83.204597473  -999.250000 109.28420258  -999.250000 1.0572555065 1.0651514530
 2911.6506348  -999.250000 12.573699951 12.250000954 101.63368225 0.0285038464  -999.250000 0.3358565569 2.4346234798 7.6382322311 84.514297485  -999.250000 110.83039856  -999.250000 1.0346362591 1.0458308458
 2911.8029785  -999.250000 12.566100121 12.250000954 105.52259827 0.0322878398  -999.250000 0.3298192024 2.4344007969 7.4170088768 89.703796387  -999.250000 110.75759888  -999.250000 1.0221400261 1.0315457582
 2911.9555664  -999.250000 12.563499451 12.250000954 111.28506470 0.0320004821  -999.250000 0.3407823443 2.4319038391 7.4629249573 93.089302063  -999.250000 110.96399689  -999.250000 1.0542483330 1.0565598011
 2912.1079102  -999.250000 12.559201241 12.250000954 119.35189819 0.0283059292  -999.250000 0.3740466237 2.4442801476 7.4496216774 95.955902100  -999.250000 111.82729340  -999.250000 1.0874468088 1.0916436911
 2912.2602539  -999.250000 12.558100700 12.250000954 125.24908447 0.0195141025  -999.250000 0.3947668374 2.4366123676 7.4147558212 98.476501465  -999.250000 111.29759979  -999.250000 1.0984823704 1.1077742577
 2912.4125977  -999.250000 12.556900024 12.250000954 126.28181458 0.0166092794  -999.250000 0.3876230419 2.4407866001 7.3280777931 97.191497803  -999.250000 110.96080017  -999.250000 1.0911237001 1.0985298157
 2912.5651855  -999.250000 12.555800438 12.250000954 129.83387756 0.0130057698  -999.250000 0.3785145879 2.4374055862 7.1809353828 94.028297424  -999.250000 110.62580109  -999.250000 1.0839115381 1.0903130770
 2912.7175293  -999.250000 12.541199684 12.250000954 137.10481262 0.0140982373  -999.250000 0.3561359048 2.4337060452 7.1533436775 92.965698242  -999.250000 110.59690094  -999.250000 1.0936843157 1.1023805141
 2912.8698730  -999.250000 12.543600082 12.250000954 130.39956665 0.0165959932  -999.250000 0.3564993441 2.4329011440 7.0227098465 93.138702393  -999.250000 110.85520172  -999.250000 1.1126695871 1.1192729473
 2913.0222168  -999.250000 12.548898697 12.250000954 127.83693695 0.0188926402  -999.250000 0.3352681696 2.4299094677 7.0263876915 94.127197266  -999.250000 110.11660004  -999.250000 1.1113045216 1.1177051067
 2913.1748047  -999.250000 12.542900085 12.250000954 131.67689514 0.0161044877  -999.250000 0.3238182664 2.4318966866 6.7651195526 97.809196472  -999.250000 109.71910095  -999.250000 1.0974222422 1.0975323915
 2913.3271484  -999.250000 12.530099869 12.250000954 137.04487610 0.0150017627  -999.250000 0.3250979185 2.4162251949 6.7957501411 99.687301636  -999.250000 109.70581055  -999.250000 1.0772324800 1.0810264349
 2913.4794922  -999.250000 12.545400620 12.250000954 134.44741821 0.0182947125  -999.250000 0.3557507992 2.4321742058 6.4693241119 94.164299011  -999.250000 110.07640076  -999.250000 1.0471482277 1.0583363771
 2913.6318359  -999.250000 12.574999809 12.250000954 137.19145203 0.0280842949  -999.250000 0.3688790202 2.4536654949 6.5169229507 88.641197205  -999.250000 111.34880066  -999.250000 1.0201432705 1.0244543552
 2913.7841797  -999.250000 12.595199585 12.250000954 137.47972107 0.0281000007  -999.250000 0.3488643169 2.4816102982 6.0346484184 93.175796509  -999.250000 113.52660370  -999.250000 1.0197013617 1.0207117796
 2913.9367676  -999.250000 12.542099953 12.250000954 141.73432922 0.0217102561  -999.250000 0.3249382973 2.4726145267 6.1621923447 100.60169983  -999.250000 114.19370270  -999.250000 1.0443603992 1.0430641174
 2914.0891113  -999.250000 12.524000168 12.250000954 136.37802124 0.0000347756  -999.250000 0.3373799622 2.4277720451 6.1978430748 100.24340057  -999.250000 113.15740204  -999.250000 1.0832376480 1.0755479336
 2914.2414551  -999.250000 12.479499817 12.250000954 132.79084778 0.0002995192  -999.250000 0.3371004760 2.4142217636 6.6959009171 95.016799927  -999.250000 111.58219147  -999.250000 1.0883917809 1.0857837200
 2914.3937988  -999.250000 12.501000404 12.250000954 134.14326477 -0.003188800  -999.250000 0.3430808187 2.3865885735 6.6227374077 91.841400146  -999.250000 110.51370239 224.34930420 1.0910913944 1.0915813446
 2914.5463867  -999.250000 12.534199715 12.250000954 138.18022156 0.0118758017  -999.250000 0.3516862392 2.4200458527 6.3978605270 91.334800720  -999.250000 110.35690308 221.47259521 1.0991870165 1.1077740192
 2914.6987305  -999.250000 12.552300453 12.250000954 138.13427734 0.0105022434  -999.250000 0.3556935787 2.4159066677 6.1202449799 90.173301697  -999.250000 110.49069977 220.78059387 1.1092838049 1.1205794811
 2914.8510742  -999.250000 12.570300102 12.250000954 135.00143433 0.0195854176  -999.250000 0.3611911833 2.4532401562 6.1643285751 88.443496704  -999.250000 109.93830109 225.32171631 1.1491360664 1.1552444696
 2915.0034180  -999.250000 12.550600052 12.250000954 140.20768738 0.0242849588  -999.250000 0.3291030228 2.4678533077 6.2592954636 86.878402710  -999.250000 109.98549652 229.48950195 1.1460102797 1.1483224630
