# LAS format log file from PETREL
# Project units are specified as depth units
#==================================================================
~Version information
VERS.   2.0:
WRAP.   NO:
#==================================================================
~Well
STRT .m      2380.2319336 :
STOP .m      4321.8081055 :
STEP .m     0.00000000 :
NULL .        -999.250000 :
COMP.           : COMPANY
WELL.  34/3-2 S   : WELL
FLD.            : FIELD
LOC.            : LOCATION
SRVC.           : SERVICE COMPANY
DATE.  2018-09-11 14:48:49   : Log Export Date {yyyy-MM-dd HH:mm:ss}
PROV.           : PROVINCE
UWI.   34/3-2 S   : UNIQUE WELL ID
API.            : API NUMBER
#==================================================================
~Curve
DEPT .m                   : DEPTH
Lithology_geolink ._      : Lithology_geolink
CALI .in                  : CALI
BS .in                    : BS
ROP .m/h                  : ROP
DRHO .g/cm3               : DRHO
THOR .ppm                 : THOR
NPHI .m3/m3               : NPHI
RHOB .g/cm3               : RHOB
PEF .b/e                  : PEF
GR .gAPI                  : GR
URAN .ppm                 : URAN
DTC .us/ft                : DTC
DTS .us/ft                : DTS
RDEP .ohm.m               : RDEP
RMED .ohm.m               : RMED
~Parameter
#==================================================================
~Ascii
# ...
 3420.3620605  -999.250000 12.566900253 12.250000954 88.189155579 -0.004600000  -999.250000 0.3163000047 2.4906001091 7.9882001877 97.953399658  -999.250000 96.694999695 207.11540222 1.2929999828 1.3004000187
 3420.5144043  -999.250000 12.564300537 12.250000954 96.494201660 0.0008000000  -999.250000 0.3005999923 2.5401999950 7.8807001114 93.995399475  -999.250000 95.418197632 200.78950500 1.4436000586 1.4460999966
 3420.6667480  -999.250000 12.560500145 12.250000954 89.811935425 0.0031000001  -999.250000 0.3089999855 2.5573000908 7.8262000084 92.941001892  -999.250000 89.142303467 187.71980286 1.4945000410 1.4893000126
 3420.8190918  -999.250000 12.559599876 12.250000954 98.829612732 0.0092000002  -999.250000 0.3089999855 2.5562000275 7.8260002136 94.003601074  -999.250000 94.089508057 191.25810242 1.4415999651 1.4463000298
 3420.9716797  -999.250000 12.559999466 12.250000954 97.011497498 0.0121999998  -999.250000 0.3174000084 2.5369000435 8.0676002502 95.288597107  -999.250000 95.378799438 188.83451843 1.3516000509 1.3719999790
 3421.1240234  -999.250000 12.579699516 12.250000954 93.965179443 0.0088000000  -999.250000 0.2973000109 2.5272998810 7.7382001877 97.636299133  -999.250000 96.834609985 194.05700684 1.2898999453 1.3192000389
 3421.2763672  -999.250000 12.607200623 12.250000954 100.57829285 0.0071000000  -999.250000 0.2980000079 2.5350999832 7.3784999847 97.413803101  -999.250000 96.601097107 194.33389282 1.2925000191 1.3137999773
 3421.4287109  -999.250000 12.571999550 12.250000954 103.92335510 0.0046000001  -999.250000 0.2921999991 2.5669000149 7.3408999443 92.520896912  -999.250000 94.587402344 193.85029602 1.4242000580 1.4390000105
 3421.5812988  -999.250000 12.576299667 12.250000954 103.32283783 0.0065000001  -999.250000 0.2897999883 2.5785999298 7.1575999260 88.418800354  -999.250000 91.649696350 192.59577942 1.5472999811 1.5511000156
 3421.7336426  -999.250000 12.581500053 12.250000954 104.55478668 0.0017000000  -999.250000 0.2811999917 2.5625000000 7.0468997955 87.998703003  -999.250000 91.204994202 192.87170410 1.5102000237 1.5085999966
 3421.8859863  -999.250000 12.608000755 12.250000954 113.00710297 0.0043000001  -999.250000 0.2761000097 2.5339999199 6.8526000977 90.123901367  -999.250000 92.950103760 189.97599792 1.4797999859 1.4957000017
 3422.0383301  -999.250000 12.574600220 12.250000954 103.10270691 -0.001100000  -999.250000 0.2802000046 2.5122001171 7.0852999687 93.249900818  -999.250000 93.426399231 193.96279907 1.4466999769 1.4805999994
 3422.1909180  -999.250000 12.567800522 12.250000954 111.98405457 0.0020000001  -999.250000 0.2818000019 2.5174002647 7.5240001678 95.091003418  -999.250000 93.086601257 197.77789307 1.4749000072 1.5089999437
 3422.3432617  -999.250000 12.582300186 12.250000954 110.21513367 0.0020000001  -999.250000 0.2766000032 2.5144999027 7.5213999748 93.225196838  -999.250000 93.342102051 195.51249695 1.5118999481 1.5300999880
 3422.4956055  -999.250000 12.584500313 12.250000954 111.56017303 0.0057000001  -999.250000 0.2694999874 2.5292000771 7.3719000816 89.852096558  -999.250000 93.740402222 196.71601868 1.4931999445 1.5003000498
 3422.6479492  -999.250000 12.560199738 12.250000954 109.35819244 0.0003000000  -999.250000 0.2599000037 2.5236999989 6.9436998367 91.507698059  -999.250000 93.261199951 198.78779602 1.4207999706 1.4397000074
 3422.8005371  -999.250000 12.578499794 12.250000954 114.73481750 -0.000900000  -999.250000 0.2565999925 2.5292000771 6.6128001213 97.833999634  -999.250000 92.895401001 196.96510315 1.4003000259 1.4199999571
 3422.9528809  -999.250000 12.611900330 12.250000954 104.13251495 -0.002900000  -999.250000 0.2529000044 2.5236001015 6.4640002251 100.92289734  -999.250000 93.277603149 191.54811096 1.4115999937 1.4272999763
 3423.1052246  -999.250000 12.603500366 12.250000954 109.04131317 0.0007000000  -999.250000 0.2605000138 2.5348000526 6.2758998871 97.611503601  -999.250000 93.629608154 187.11149597 1.4696999788 1.4780999422
 3423.2575684  -999.250000 12.590800285 12.250000954 108.36920929 -0.003700000  -999.250000 0.2676999867 2.5306999683 6.3186998367 92.520896912  -999.250000 93.000602722 193.65969849 1.5693000555 1.5654000044
 3423.4099121  -999.250000 12.604000092 12.250000954 107.72058105 -0.008300000  -999.250000 0.2581000030 2.5309998989 6.0250000954 92.298500061  -999.250000 92.799110413 193.45500183 1.4858000278 1.4989999533
 3423.5625000  -999.250000 12.615099907 12.250000954 111.65312958 -0.011300000  -999.250000 0.2549999952 2.5250999928 6.0032000542 97.067901611  -999.250000 93.667701721 193.66671753 1.4390000105 1.4569000006
 3423.7148438  -999.250000 12.613699913 12.250000954 106.08244324 -0.011000000  -999.250000 0.2583000064 2.5197000504 5.8852000237 99.687301636  -999.250000 93.895896912 192.84240723 1.3496999741 1.3686000109
 3423.8671875  -999.250000 12.637100220 12.250000954 108.03131104 -0.007100000  -999.250000 0.2696000040 2.5185999870 6.0995998383 104.06130219  -999.250000 94.788902283 201.79649353 1.2712999582 1.2891000509
 3424.0195313  -999.250000 12.618700027 12.250000954 107.87387848 -0.007100000  -999.250000 0.2797000110 2.5143001080 6.4050002098 115.20629883  -999.250000 96.435203552 205.68420410 1.1937999725 1.2052999735
 3424.1721191  -999.250000 12.624600410 12.250000954 107.44883728 -0.002300000  -999.250000 0.2863000035 2.5248999596 6.7142000198 122.64459991  -999.250000 98.284698486 212.37240601 1.0760999918 1.0875999928
 3424.3244629  -999.250000 12.609700203 12.250000954 111.02149200 0.0002000000  -999.250000 0.3021000028 2.5260999203 6.8509001732 119.18489838  -999.250000 100.59259796 218.11759949 1.0559999943 1.0642000437
 3424.4768066  -999.250000 12.579299927 12.250000954 111.23817444 0.0024000001  -999.250000 0.3151000142 2.5267000198 6.5250000954 110.95590210  -999.250000 102.08499146 212.90409851 1.0737999678 1.0830999613
 3424.6291504  -999.250000 12.563499451 12.250000954 114.24420929 -0.001000000  -999.250000 0.3323000073 2.5338997841 6.4254999161 110.70880127  -999.250000 101.92140198 211.00889587 1.0753999949 1.0765000582
 3424.7817383  -999.250000 12.584000587 12.250000954 113.90409851 -0.006400000  -999.250000 0.3388000131 2.5255999565 6.5349001884 117.75170135  -999.250000 99.665000916 211.48229980 1.1488000154 1.1419999599
 3424.9340820  -999.250000 12.599900246 12.250000954 111.42491150 -0.002100000  -999.250000 0.3366000056 2.5271999836 7.0549998283 122.07620239  -999.250000 97.593696594 213.07652283 1.1570999622 1.1601999998
 3425.0864258  -999.250000 12.591699600 12.250000954 119.81233215 0.0006000000  -999.250000 0.3339000046 2.5167996883 7.1500000954 123.38600159  -999.250000 98.448402405 214.39099121 1.1460000277 1.1521999836
 3425.2387695  -999.250000 12.565199852 12.250000954 128.09532166 0.0052000000  -999.250000 0.3296000063 2.5181999207 7.2541999817 121.95269775  -999.250000 98.014099121 213.79930115 1.1766999960 1.1841000319
 3425.3911133  -999.250000 12.597299576 12.250000954 122.66641235 -0.000500000  -999.250000 0.3269999921 2.4890999794 7.3014998436 116.29370117  -999.250000 97.392097473 210.06880188 1.2618999481 1.2582999468
 3425.5437012  -999.250000 12.520599365 12.250000954 123.02236176 -0.001300000  -999.250000 0.3253999949 2.4830000401 7.5250000954 109.10250092  -999.250000 96.474296570 204.80632019 1.3342000246 1.3516000509
 3425.6960449  -999.250000 12.556599617 12.250000954 133.37182617 -0.003500000  -999.250000 0.3264999986 2.4883000851 7.5307002068 104.40730286  -999.250000 95.395698547 201.80149841 1.2749999762 1.2963999510
 3425.8483887  -999.250000 12.567800522 12.250000954 122.01072693 -0.003800000  -999.250000 0.3287000060 2.5120000839 7.3312997818 101.19480133  -999.250000 94.755599976 205.36979675 1.2486000061 1.2494000196
 3426.0007324  -999.250000 12.577199936 12.250000954 120.00507355 0.0004000000  -999.250000 0.3224999905 2.5564999580 7.4254999161 96.244201660  -999.250000 93.469200134 203.45799255 1.4101999998 1.3933999538
 3426.1533203  -999.250000 12.593500137 12.250000954 120.20014191 -0.002100000  -999.250000 0.3267000020 2.6178998947 7.8466000557 94.926200867  -999.250000 92.549499512 190.75860596 1.3684999943 1.3769999743
