# LAS format log file from PETREL
# Project units are specified as depth units
#==================================================================
~Version information
VERS.   2.0:
WRAP.   NO:
#==================================================================
~Well
STRT .m      2380.2319336 :
STOP .m      4321.8081055 :
STEP .m     0.00000000 :
NULL .        -999.250000 :
COMP.           : COMPANY
WELL.  34/3-2 S   : WELL
FLD.            : FIELD
LOC.            : LOCATION
SRVC.           : SERVICE COMPANY
DATE.  2018-09-11 14:48:49   : Log Export Date {yyyy-MM-dd HH:mm:ss}
PROV.           : PROVINCE
UWI.   34/3-2 S   : UNIQUE WELL ID
API.            : API NUMBER
#==================================================================
~Curve
DEPT .m                   : DEPTH
Lithology_geolink ._      : Lithology_geolink
CALI .in                  : CALI
BS .in                    : BS
ROP .m/h                  : ROP
DRHO .g/cm3               : DRHO
THOR .ppm                 : THOR
NPHI .m3/m3               : NPHI
RHOB .g/cm3               : RHOB
PEF .b/e                  : PEF
GR .gAPI                  : GR
URAN .ppm                 : URAN
DTC .us/ft                : DTC
DTS .us/ft                : DTS
RDEP .ohm.m               : RDEP
RMED .ohm.m               : RMED
~Parameter
#==================================================================
~Ascii
# ...
 4317.8457031 1.0000000000 2.0195000172 8.5000000000 34.791336060 -0.010500000  -999.250000 0.1498000026 2.5276000500 15.956600189 37.904701233  -999.250000  -999.250000  -999.250000 6.8965997696 6.6786999702
 4317.9980469 2.0000000000 2.0502998829 8.5000000000 33.100566864 -0.015100000  -999.250000 0.1560000032 2.5009000301 13.010600090 45.942779541  -999.250000  -999.250000  -999.250000 6.2396059036 5.9989786148
 4318.1503906 2.0000000000 2.0606000423 8.5000000000 33.779621124 -0.021700000  -999.250000 0.1539999992 2.4890000820 12.987400055 50.256088257  -999.250000  -999.250000  -999.250000 5.6567673683 5.3749995232
 4318.3027344 2.0000000000 2.0452001095 8.5000000000 30.391481400 -0.016200000  -999.250000 0.1509000063 2.4990999699 12.704600334 49.565200806  -999.250000  -999.250000  -999.250000 5.1225118637 4.8773937225
 4318.4550781 2.0000000000 2.0502998829 8.5000000000 29.645082474 -0.011000000  -999.250000 0.1439999938 2.5151000023 15.717800140 42.066001892  -999.250000  -999.250000  -999.250000 5.4288096428 5.1133360863
 4318.6074219 1.0000000000 2.0401000977 8.5000000000 28.988653183 -0.009000000  -999.250000 0.1266999990 2.5120999813 15.199199677 31.439399719  -999.250000  -999.250000  -999.250000 6.6422014236 6.3287940025
 4318.7602539 1.0000000000 2.0606000423 8.5000000000 26.904855728 -0.006200000  -999.250000 0.1088000014 2.5183999538 13.943699837 23.261201859  -999.250000  -999.250000  -999.250000 8.0899000168 8.2721996307
 4318.9125977 1.0000000000 2.0502998829 8.5000000000 28.589569092 0.0020000001  -999.250000 0.1102999970 2.5239000320 11.454899788 21.617368698  -999.250000  -999.250000  -999.250000 9.2489995956 10.126600266
 4319.0649414 1.0000000000 2.0195000172 8.5000000000 25.021982193 0.0013000000  -999.250000 0.1234000027 2.5158998966 10.235500336 22.949302673  -999.250000  -999.250000  -999.250000 8.6977996826 9.8964996338
 4319.2172852 1.0000000000 2.0606000423 8.5000000000 28.843173981 -0.001600000  -999.250000 0.1386999935 2.5002999306 10.545200348 24.241338730  -999.250000  -999.250000  -999.250000 7.0342001915 8.2433996201
 4319.3696289 1.0000000000 2.0401000977 8.5000000000 30.357027054 -0.002100000  -999.250000 0.1448000073 2.4964001179 10.513199806 29.334968567  -999.250000  -999.250000  -999.250000 6.3317518234 7.0223140717
 4319.5219727 1.0000000000 2.0759999752 8.5000000000 32.503936768 0.0002000000  -999.250000 0.1488000005 2.5146000385 8.6710996628 33.228809357  -999.250000  -999.250000  -999.250000 6.1302409172 6.7746834755
 4319.6743164 1.0000000000 2.0606000423 8.5000000000 34.951469421 -0.002100000  -999.250000 0.1405999959 2.5190999508 7.4352002144 38.255500793  -999.250000  -999.250000  -999.250000 6.4404006004 7.0789189339
 4319.8266602  -999.250000 2.0529000759 8.5000000000 37.095165253 -0.002900000  -999.250000 0.1110000014 2.5151000023 6.4053997993 40.751701355  -999.250000  -999.250000  -999.250000 7.4675006866 8.1826543808
 4319.9790039  -999.250000 2.0708999634 8.5000000000 40.719009399 -0.006800000  -999.250000 0.0848999992 2.5122001171 7.7732000351  -999.250000  -999.250000  -999.250000  -999.250000 8.5860137939 9.0455369949
 4320.1318359  -999.250000 2.0401000977 8.5000000000 37.614830017 -0.007100000  -999.250000 0.0702999979 2.5360000134 8.6161003113  -999.250000  -999.250000  -999.250000  -999.250000 10.655799866 11.194399834
 4320.2841797  -999.250000 2.0529000759 8.5000000000 34.784118652 -0.005800000  -999.250000 0.0741999969 2.5861999989 10.783499718  -999.250000  -999.250000  -999.250000  -999.250000 10.701800346 10.555399895
 4320.4365234  -999.250000 2.0297999382 8.5000000000 31.185041428 -0.005100000  -999.250000 0.0843999982 2.6198000908 9.2177000046  -999.250000  -999.250000  -999.250000  -999.250000 9.6033000946 9.2705001831
 4320.5888672  -999.250000 2.0606000423 8.5000000000 34.049545288 -0.007700000  -999.250000 0.1036000028 2.6068000793 10.814399719  -999.250000  -999.250000  -999.250000  -999.250000 8.5983219147 7.9654827118
 4320.7412109  -999.250000 2.0220999718 8.5000000000 29.135253906 -0.012500000  -999.250000 0.1225999966 2.5511000156 10.800299644  -999.250000  -999.250000  -999.250000  -999.250000 7.9373154640 7.2645401955
 4320.8935547  -999.250000 2.0401000977 8.5000000000 27.673286438 -0.017899999  -999.250000 0.1292999983 2.4986999035 12.446999550  -999.250000  -999.250000  -999.250000  -999.250000 7.1590952873 6.5500903130
 4321.0458984  -999.250000 2.0374999046 8.5000000000 25.959892273 -0.012800000  -999.250000 0.1317999959 2.4797999859 12.038999557  -999.250000  -999.250000  -999.250000  -999.250000 6.2792210579 6.0553832054
 4321.1982422  -999.250000 2.0529000759 8.5000000000 24.111894608 -0.010700000  -999.250000 0.1349000037 2.4714999199 11.575099945  -999.250000  -999.250000  -999.250000  -999.250000 6.2795896530 6.1401224136
 4321.3505859  -999.250000 2.0606000423 8.5000000000 25.437320709 -0.007200000  -999.250000 0.1309999973 2.4758000374 11.255000114  -999.250000  -999.250000  -999.250000  -999.250000 6.6286773682 6.6345109940
 4321.5034180  -999.250000 2.0374999046 8.5000000000 25.242126465 -0.004800000  -999.250000 0.1251000017 2.4809000492 10.309200287  -999.250000  -999.250000  -999.250000  -999.250000 7.1508002281 7.2839999199
 4321.6557617  -999.250000 2.0529000759 8.5000000000 25.097768784 -0.005100000  -999.250000 0.1074000001 2.4888999462 10.267800331  -999.250000  -999.250000  -999.250000  -999.250000 7.9766001701 8.2995996475
 4321.8081055  -999.250000 2.0401000977 8.5000000000 27.791011810 -0.011700000  -999.250000 0.1004000008 2.4946999550 10.306400299  -999.250000  -999.250000  -999.250000  -999.250000 9.2906999588 9.8842000961
