# LAS format log file from PETREL
# Project units are specified as depth units
#==================================================================
~Version information
VERS.   2.0:
WRAP.   NO:
#==================================================================
~Well
STRT .m      2380.2319336 :
STOP .m      4321.8081055 :
STEP .m     0.00000000 :
NULL .        -999.250000 :
COMP.           : COMPANY
WELL.  34/3-2 S   : WELL
FLD.            : FIELD
LOC.            : LOCATION
SRVC.           : SERVICE COMPANY
DATE.  2018-09-11 14:48:49   : Log Export Date {yyyy-MM-dd HH:mm:ss}
PROV.           : PROVINCE
UWI.   34/3-2 S   : UNIQUE WELL ID
API.            : API NUMBER
#==================================================================
~Curve
DEPT .m                   : DEPTH
Lithology_geolink ._      : Lithology_geolink
CALI .in                  : CALI
BS .in                    : BS
ROP .m/h                  : ROP
DRHO .g/cm3               : DRHO
THOR .ppm                 : THOR
NPHI .m3/m3               : NPHI
RHOB .g/cm3               : RHOB
PEF .b/e                  : PEF
GR .gAPI                  : GR
URAN .ppm                 : URAN
DTC .us/ft                : DTC
DTS .us/ft                : DTS
RDEP .ohm.m               : RDEP
RMED .ohm.m               : RMED
~Parameter
#==================================================================
~Ascii
# ...
 3039.9714355  -999.250000 12.577500343 12.250000954 162.92906189 -0.004193590  -999.250000 0.3605565727 2.4137086868 6.0434436798 92.323196411  -999.250000 110.73280334 223.30439758 1.1488175392 1.1490180492
 3040.1237793  -999.250000 12.571901321 12.250000954 162.66940308 0.0030883013  -999.250000 0.3699849546 2.4170944691 6.1848731041 95.585197449  -999.250000 110.32399750 223.39494324 1.1234406233 1.1248387098
 3040.2763672  -999.250000 12.559201241 12.250000954 161.44584656 -0.000494240  -999.250000 0.3723961413 2.4062173367 6.2967209816 96.944297791  -999.250000 109.96910095 222.03996277 1.1517546177 1.1452672482
 3040.4287109  -999.250000 12.550800323 12.250000954 154.28346252 0.0023953526  -999.250000 0.3369568884 2.4088954926 6.5248341560 95.585197449  -999.250000 110.42699432 223.33859253 1.1608854532 1.1542855501
 3040.5810547  -999.250000 12.536899567 12.250000954 155.92025757 0.0015014423  -999.250000 0.3428903818 2.4016115665 6.8799304962 92.372703552  -999.250000 110.83550262 227.57353210 1.1534119844 1.1543998718
 3040.7333984  -999.250000 12.568598747 12.250000954 160.68461609 0.0110846153  -999.250000 0.3552801311 2.4366438389 7.2293400764 87.776298523  -999.250000 109.44660187 224.96890259 1.1587913036 1.1586930752
 3040.8857422  -999.250000 12.544600487 12.250000954 165.76390076 0.0129939206  -999.250000 0.3734417558 2.4418833256 7.6708841324 85.156799316  -999.250000 108.88459778 218.70529175 1.1788356304 1.1833209991
 3041.0383301  -999.250000 12.571399689 12.250000954 166.71438599 0.0188905448  -999.250000 0.3647140861 2.4436974525 7.8990364075 84.563697815  -999.250000 109.69819641 221.52813721 1.2057569027 1.2065627575
 3041.1906738  -999.250000 12.602000237 12.250000954 159.85549927 0.0117115378  -999.250000 0.3617047966 2.4122505188 7.8128385544 83.871803284  -999.250000 108.38639832 220.34440613 1.2120898962 1.2150864601
 3041.3430176  -999.250000 12.602000237 12.250000954 169.13861084 0.0085051283  -999.250000 0.3589045107 2.3963255882 7.7505998611 84.440200806  -999.250000 107.31809998 215.83094788 1.2600231171 1.2669167519
 3041.4953613  -999.250000 12.567299843 12.250000954 155.45082092 0.0118891206  -999.250000 0.3735529780 2.4255063534 7.3459982872 86.478897095  -999.250000 107.16410828 219.71659851 1.2601000071 1.2669999599
 3041.6479492  -999.250000 12.500899315 12.250000954 144.20466614 0.0209854171  -999.250000 0.3520346284 2.4561507702 7.1093778610 89.011901855  -999.250000 106.44020081 225.07212830 1.2401320934 1.2509257793
 3041.8002930  -999.250000 12.575499535 12.250000954 141.89605713 0.0179049671  -999.250000 0.3488051295 2.4819588661 6.7564659119 89.641998291  -999.250000 106.83150482 219.59471130 1.2744449377 1.2798534632
 3041.9526367  -999.250000 12.629400253 12.250000954 122.30408478 0.0177003201  -999.250000 0.3295309246 2.4650270939 6.5118913651 89.184799194  -999.250000 107.03690338 221.70469666 1.2859815359 1.2956746817
 3042.1049805  -999.250000 12.616600037 12.250000954 127.40937805 0.0184974410  -999.250000 0.3255127966 2.4674918652 6.1708931923 88.591796875  -999.250000 106.94940186 216.26087952 1.2522084713 1.2671915293
 3042.2575684  -999.250000 12.614500999 12.250000954 113.93407440 0.0181006417  -999.250000 0.3180119991 2.4739894867 6.0401082039 87.537399292  -999.250000 106.26799774 219.27952576 1.2578907013 1.2664010525
 3042.4099121  -999.250000 12.610600471 12.250000954 89.780532837 0.0101128202  -999.250000 0.3158035278 2.4733011723 6.3411164284 87.965698242  -999.250000 106.83619690 213.93078613 1.3078198433 1.3139237165
 3042.5622559  -999.250000 12.646600723 12.250000954 91.941680908 0.0027118591  -999.250000 0.3280802965 2.4530324936 6.8369050026 89.563796997  -999.250000 107.85669708 217.25265503 1.2612748146 1.2684730291
 3042.7145996  -999.250000 12.662599564 12.250000954 85.389785767 0.0116855763  -999.250000 0.3381838202 2.4372253418 7.4849610329 89.456703186  -999.250000 107.75569916 210.87744141 1.2498182058 1.2593145370
 3042.8669434  -999.250000 12.696200371 12.250000954 82.520660400 0.0132948793  -999.250000 0.3517564833 2.4188590050 7.9279808998 87.010200500  -999.250000 108.11260223 216.43064880 1.2380378246 1.2485345602
 3043.0195313  -999.250000 12.674599648 12.250000954 84.300941467 0.0152967954  -999.250000 0.3504022360 2.3952379227 8.3713903427 85.144401550  -999.250000 108.47180176 220.04173279 1.2304121256 1.2369185686
 3043.1718750  -999.250000 12.651100159 12.250000954 80.607643127 0.0121051278  -999.250000 0.3441101015 2.3882112503 8.1320848465 86.194702148  -999.250000 108.73480225 219.03681946 1.2382873297 1.2339047194
 3043.3242188  -999.250000 12.619999886 12.250000954 79.952163696 0.0146958334  -999.250000 0.3552820683 2.4050729275 7.8232951164 88.299301147  -999.250000 108.12570190 217.96151733 1.2326091528 1.2282091379
 3043.4765625  -999.250000 12.571100235 12.250000954 88.086746216 0.0246680006  -999.250000 0.3525089622 2.4398884773 7.8089442253 91.268898010  -999.250000 108.28630066 221.56015015 1.2146575451 1.2117527723
 3043.6291504  -999.250000 12.512100220 12.250000954 86.261177063 0.0261975955  -999.250000 0.3544967771 2.4472882748 7.6745157242 96.973197937  -999.250000 109.37000275 220.41625977 1.2033181190 1.2085051537
 3043.7814941  -999.250000 12.548000336 12.250000954 90.555114746 0.0321903862  -999.250000 0.3443163335 2.4566850662 7.5822477341 99.675003052  -999.250000 109.59458923 212.26338196 1.2158797979 1.2184840441
 3043.9338379  -999.250000 12.565199852 12.250000954 110.81461334 0.0259100962  -999.250000 0.3339166641 2.4629900455 7.0884923935 95.943496704  -999.250000 110.00589752 204.68495178 1.2020223141 1.2054209709
 3044.0861816  -999.250000 12.538900375 12.250000954 107.14900970 0.0290897600  -999.250000 0.3459612727 2.4635980129 7.1950554848 92.039001465  -999.250000 110.84929657 210.46978760 1.1720960140 1.1762934923
 3044.2387695  -999.250000 12.502599716 12.250000954 121.41246796 0.0240081735  -999.250000 0.3300256431 2.4484243393 7.3108143806 91.680702209  -999.250000 110.27189636 208.16253662 1.1706023216 1.1719069481
 3044.3911133  -999.250000 12.501600266 12.250000954 121.08587646 0.0091238786  -999.250000 0.3379871845 2.4051694870 7.6067256927 91.721900940  -999.250000 108.67199707 213.03108215 1.1603164673 1.1672074795
 3044.5434570  -999.250000 12.500101089 12.250000954 126.62791443 0.0021112179  -999.250000 0.3234233856 2.4020049572 7.4523482323 90.848701477  -999.250000 107.69840240 210.22341919 1.1567057371 1.1625075340
 3044.6958008  -999.250000 12.514099121 12.250000954 145.01347351 -0.003890384  -999.250000 0.3321858943 2.3949115276 7.4036779404 88.789398193  -999.250000 108.53739929 219.05630493 1.1646871567 1.1702874899
 3044.8481445  -999.250000 12.533499718 12.250000954 148.71131897 0.0067657600  -999.250000 0.3346920013 2.4118456841 7.4557328224 84.950897217  -999.250000 108.36689758 219.74333191 1.1756647825 1.1809657812
 3045.0007324  -999.250000 12.527299881 12.250000954 157.20718384 0.0132895829  -999.250000 0.3393924534 2.4137969017 7.6895251274 82.916297913  -999.250000 108.26270294 220.03952026 1.1718062162 1.1760079861
 3045.1530762  -999.250000 12.516400337 12.250000954 164.22235107 0.0186913460  -999.250000 0.3368041813 2.4235842228 7.6636419296 85.082702637  -999.250000 109.08351135 216.50157166 1.1771912575 1.1814911366
 3045.3054199  -999.250000 12.529299736 12.250000954 169.90002441 0.0129092950  -999.250000 0.3288128078 2.4193069935 7.5409970284 89.444297791  -999.250000 109.25379944 220.51293945 1.1677153111 1.1771069765
 3045.4577637  -999.250000 12.544600487 12.250000954 154.12350464 0.0066201598  -999.250000 0.3270057440 2.4139170647 7.3850998878 94.460800171  -999.250000 109.26660156 219.92880249 1.1674009562 1.1786948442
 3045.6103516  -999.250000 12.528400421 12.250000954 159.71305847 0.0071990383  -999.250000 0.3206102550 2.4135007858 7.4095597267 97.141998291  -999.250000 109.53668976 218.60412598 1.1778831482 1.1815953255
 3045.7626953  -999.250000 12.531399727 12.250000954 165.38328552 0.0130905453  -999.250000 0.3480559289 2.4202890396 7.5223193169 92.076103210  -999.250000 109.05780029 218.17477417 1.1995651722 1.1998707056
