# LAS format log file from PETREL
# Project units are specified as depth units
#==================================================================
~Version information
VERS.   2.0:
WRAP.   NO:
#==================================================================
~Well
STRT .m      2380.2319336 :
STOP .m      4321.8081055 :
STEP .m     0.00000000 :
NULL .        -999.250000 :
COMP.           : COMPANY
WELL.  34/3-2 S   : WELL
FLD.            : FIELD
LOC.            : LOCATION
SRVC.           : SERVICE COMPANY
DATE.  2018-09-11 14:48:49   : Log Export Date {yyyy-MM-dd HH:mm:ss}
PROV.           : PROVINCE
UWI.   34/3-2 S   : UNIQUE WELL ID
API.            : API NUMBER
#==================================================================
~Curve
DEPT .m                   : DEPTH
Lithology_geolink ._      : Lithology_geolink
CALI .in                  : CALI
BS .in                    : BS
ROP .m/h                  : ROP
DRHO .g/cm3               : DRHO
THOR .ppm                 : THOR
NPHI .m3/m3               : NPHI
RHOB .g/cm3               : RHOB
PEF .b/e                  : PEF
GR .gAPI                  : GR
URAN .ppm                 : URAN
DTC .us/ft                : DTC
DTS .us/ft                : DTS
RDEP .ohm.m               : RDEP
RMED .ohm.m               : RMED
~Parameter
#==================================================================
~Ascii
# ...
 2784.3967285  -999.250000 12.478599548 12.250000954 166.12330627 -0.003800000  -999.250000 0.3056902289 2.3953285217 5.3005266190 98.254096985  -999.250000 107.28990173 213.89450073 1.4042156935 1.4291024208
 2784.5490723  -999.250000 12.495800972 12.250000954 206.73797607 -0.006400000  -999.250000 0.3126887977 2.3846170902 5.0156555176 102.87519836  -999.250000 106.96700287 219.02430725 1.3973108530 1.4206135273
 2784.7014160  -999.250000 12.478799820 12.250000954 247.09541321 -0.004400000  -999.250000 0.3292468786 2.3870918751 5.0178914070 112.31510162  -999.250000 105.40209961 210.90620422 1.4588025808 1.4754240513
 2784.8540039  -999.250000 12.459799767 12.250000954 242.93798828 0.0097000012  -999.250000 0.3305979073 2.4071679115 5.4500060081 108.83070374  -999.250000 105.21030426 210.53689575 1.5901894569 1.5788342953
 2785.0063477  -999.250000 12.462400436 12.250000954 238.60601807 0.0120000001  -999.250000 0.3162230551 2.4269683361 5.6031556129 97.562103271  -999.250000 104.44180298 213.91630554 1.6445131302 1.6402018070
 2785.1586914  -999.250000 12.486700058 12.250000954 225.82171631 0.0076000001  -999.250000 0.3124060929 2.4011414051 5.7255039215 90.148597717  -999.250000 104.19850159 211.03689575 1.6446000338 1.6403000355
 2785.3110352  -999.250000 12.509498596 12.250000954 207.72927856 0.0060000001  -999.250000 0.3089112043 2.3886401653 5.4643392563 84.983802795  -999.250000 106.21379852 207.16329956 1.5969529152 1.5887655020
 2785.4636230  -999.250000 12.494099617 12.250000954 196.19590759 0.0030000000  -999.250000 0.3107969463 2.3641393185 5.2314724922 84.711997986  -999.250000 105.89719391 208.03950500 1.5352987051 1.5514595509
 2785.6159668  -999.250000 12.512299538 12.250000954 204.96817017 0.0046999999  -999.250000 0.3087033629 2.3724865913 5.0778460503 87.405601501  -999.250000 107.46950531 209.02720642 1.5605593920 1.5772584677
 2785.7683105  -999.250000 12.525799751 12.250000954 216.89230347 0.0031999999  -999.250000 0.3248740435 2.3718011379 5.3782172203 87.776298523  -999.250000 108.39330292 207.69110107 1.6221013069 1.6250233650
 2785.9206543  -999.250000 12.481199265 12.250000954 205.43841553 0.0035000001  -999.250000 0.3243018985 2.3664171696 5.5181522369 88.604103088  -999.250000 107.81649017 211.87460327 1.6621717215 1.6562998295
 2786.0732422  -999.250000 12.486399651 12.250000954 195.03207397 0.0055000000  -999.250000 0.3224030435 2.3685963154 5.6391062737 91.408897400  -999.250000 106.94699860 213.33749390 1.6648957729 1.6685804129
 2786.2255859  -999.250000 12.485099792 12.250000954 179.34111023 0.0098999999  -999.250000 0.3007347882 2.3882684708 5.4965295792 92.434402466  -999.250000 106.72019958 212.39259338 1.6550158262 1.6587158442
 2786.3779297  -999.250000 12.483799934 12.250000954 177.66799927 0.0068999999  -999.250000 0.3015985787 2.4089667797 5.8838777542 90.037399292  -999.250000 106.81460571 207.24169922 1.6576956511 1.6765712500
 2786.5302734  -999.250000 12.497900009 12.250000954 183.83097839 0.0082000000  -999.250000 0.2964083552 2.4372546673 5.8891925812 87.247398376  -999.250000 105.41159821 207.13252258 1.6992334127 1.7136405706
 2786.6826172  -999.250000 12.503899574 12.250000954 188.21006775 0.0024999999  -999.250000 0.2946057618 2.4366021156 5.9091362953 87.027496338  -999.250000 103.62439728 204.09350586 1.6616209745 1.6734292507
 2786.8352051  -999.250000 12.484800339 12.250000954 204.19287109 0.0111999996  -999.250000 0.2911055982 2.4343035221 5.5061469078 85.739997864  -999.250000 104.28678894 203.01849365 1.6464241743 1.6584239006
 2786.9875488  -999.250000 12.464099884 12.250000954 206.54777527 0.0091000004  -999.250000 0.2930967808 2.4037492275 5.5775842667 82.982200623  -999.250000 105.50119019 206.70869446 1.6275303364 1.6406284571
 2787.1398926  -999.250000 12.494099617 12.250000954 200.80418396 0.0087000001  -999.250000 0.3047812581 2.3922183514 5.2848701477 83.303398132  -999.250000 106.51480103 211.48440552 1.6081311703 1.6204323769
 2787.2922363  -999.250000 12.479300499 12.250000954 200.00057983 0.0057999999  -999.250000 0.3087872267 2.3920006752 4.9807748795 85.873497009  -999.250000 107.66000366 211.75650024 1.6081000566 1.6203999519
 2787.4448242  -999.250000 12.459799767 12.250000954 202.29617310 0.0044000000  -999.250000 0.3196825385 2.4010853767 4.7960948944 87.702102661  -999.250000 107.77070618 211.76609802 1.6085991859 1.6237945557
 2787.5971680  -999.250000 12.439299583 12.250000954 218.52153015 0.0052000000  -999.250000 0.3023279011 2.4118826389 5.3296432495 87.553901672  -999.250000 106.58370209 213.52189636 1.6095983982 1.6166115999
 2787.7495117  -999.250000 12.438400269 12.250000954 228.44996643 -0.013900000  -999.250000 0.2957105935 2.4150948524 5.9000859261 87.220298767  -999.250000 106.93859863 215.66780090 1.6683058739 1.6680175066
 2787.9018555  -999.250000 12.495200157 12.250000954 212.90396118 -0.009100000  -999.250000 0.2919121683 2.4257657528 5.8879418373 87.356201172  -999.250000 106.92810822 215.94999695 1.7623982430 1.7810374498
 2788.0544434  -999.250000 12.546299934 12.250000954 196.42761230 -0.003800000  -999.250000 0.2951947153 2.4167144299 5.3827109337 86.281196594  -999.250000 105.88849640 216.98489380 1.6432917118 1.6631897688
 2788.2067871  -999.250000 12.469200134 12.250000954 188.54148865 0.0176999997  -999.250000 0.3104754686 2.4140043259 5.0167860985 83.253997803  -999.250000 105.22750092 217.05761719 1.6431000233 1.6629999876
 2788.3591309  -999.250000 12.461899757 12.250000954 184.27716064 0.0152000003  -999.250000 0.3172890842 2.4086086750 5.0738077164 81.672401428  -999.250000 105.28559875 216.91151428 1.5905842781 1.6129803658
 2788.5114746  -999.250000 12.453000069 12.250000954 188.37300110 0.0109000001  -999.250000 0.3251873255 2.3966193199 5.1746382713 85.181503296  -999.250000 106.79219818 218.04170227 1.6057754755 1.6336666346
 2788.6638184  -999.250000 12.492400169 12.250000954 188.25337219 0.0132999998  -999.250000 0.3119425476 2.4051725864 5.1435999870 89.802597046  -999.250000 107.78530121 220.35220337 1.5966295004 1.6197447777
 2788.8164063  -999.250000 12.525799751 12.250000954 181.72045898 0.0063999998  -999.250000 0.3058097661 2.3785426617 5.1944184303 90.815803528  -999.250000 107.50000000 219.06669617 1.5765322447 1.5917447805
 2788.9687500  -999.250000 12.545499802 12.250000954 179.24838257 0.0044999998  -999.250000 0.3001091480 2.3903808594 5.0951590538 87.924499512  -999.250000 106.93350220 218.37179565 1.5765000582 1.5916999578
 2789.1210938  -999.250000 12.529299736 12.250000954 181.76400757 0.0008000000  -999.250000 0.3014977574 2.3819136620 5.2189011574 83.773002625  -999.250000 106.80599976 220.46139526 1.5708091259 1.5858094692
 2789.2734375  -999.250000 12.507800102 12.250000954 184.20510864 0.0031000001  -999.250000 0.3045900762 2.3999421597 5.4488625526 81.524200439  -999.250000 107.13520050 222.00230408 1.5443847179 1.5673592091
 2789.4260254  -999.250000 12.485500336 12.250000954 172.60034180 -0.003400000  -999.250000 0.3296597600 2.4123802185 5.7262558937 82.351997375  -999.250000 108.10299683 221.24330139 1.5733534098 1.5829747915
 2789.5783691  -999.250000 12.445300102 12.250000954 176.44917297 0.0002000000  -999.250000 0.3271041811 2.4242808819 5.8442111015 85.774597168  -999.250000 108.79608917 219.10731506 1.6147335768 1.6225365400
 2789.7307129  -999.250000 12.497699738 12.250000954 177.79968262 0.0027999999  -999.250000 0.3199115396 2.4211051464 5.8236331940 90.012702942  -999.250000 109.19080353 219.98829651 1.6679147482 1.6735181808
 2789.8830566  -999.250000 12.524900436 12.250000954 187.31394958 0.0105999997  -999.250000 0.3104304075 2.3982732296 5.7312960625 92.150299072  -999.250000 108.85919952 223.92950439 1.5400109291 1.5594664812
 2790.0356445  -999.250000 12.504399300 12.250000954 188.30062866 -0.001300000  -999.250000 0.3306674659 2.3887152672 6.0931186676 89.506103516  -999.250000 110.44640350 221.64828491 1.5342086554 1.5511128902
 2790.1879883  -999.250000 12.449500084 12.250000954 183.74681091 -0.007300000  -999.250000 0.3346935809 2.4041752815 5.6888499260 85.305099487  -999.250000 111.06590271 222.39932251 1.5041482449 1.5247423649
