# LAS format log file from PETREL
# Project units are specified as depth units
#==================================================================
~Version information
VERS.   2.0:
WRAP.   NO:
#==================================================================
~Well
STRT .m      2380.2319336 :
STOP .m      4321.8081055 :
STEP .m     0.00000000 :
NULL .        -999.250000 :
COMP.           : COMPANY
WELL.  34/3-2 S   : WELL
FLD.            : FIELD
LOC.            : LOCATION
SRVC.           : SERVICE COMPANY
DATE.  2018-09-11 14:48:49   : Log Export Date {yyyy-MM-dd HH:mm:ss}
PROV.           : PROVINCE
UWI.   34/3-2 S   : UNIQUE WELL ID
API.            : API NUMBER
#==================================================================
~Curve
DEPT .m                   : DEPTH
Lithology_geolink ._      : Lithology_geolink
CALI .in                  : CALI
BS .in                    : BS
ROP .m/h                  : ROP
DRHO .g/cm3               : DRHO
THOR .ppm                 : THOR
NPHI .m3/m3               : NPHI
RHOB .g/cm3               : RHOB
PEF .b/e                  : PEF
GR .gAPI                  : GR
URAN .ppm                 : URAN
DTC .us/ft                : DTC
DTS .us/ft                : DTS
RDEP .ohm.m               : RDEP
RMED .ohm.m               : RMED
~Parameter
#==================================================================
~Ascii
# ...
 3931.5117188 5.0000000000 8.4994001389 8.5000000000 31.158464432 0.0103000002 10.180399895 0.2012999952 2.6387999058 5.7442998886 57.990043640 3.3111999035 85.783172607 165.15049744 4.1795001030 4.4464998245
 3931.6640625 5.0000000000 8.4763002396 8.5000000000 25.677164078 0.0086000003 10.448900223 0.1909999996 2.6280999184 5.3439002037 57.771636963 3.1837000847 87.016441345 165.24650574 4.1332998276 4.4113998413
 3931.8166504 5.0000000000 8.4947996140 8.5000000000 24.368110657 0.0099999998 10.919899940 0.1897999942 2.6263000965 5.1830000877 59.368343353 3.1117000580 87.292343140 166.34429932 4.0692000389 4.3784999847
 3931.9689941 5.0000000000 8.4763002396 8.5000000000 27.145998001 0.0113000004 11.548800468 0.2003999949 2.6201999187 4.8914999962 64.717285156 2.8204998970 87.589569092 167.15539551 4.0025000572 4.2287001610
 3932.1213379 5.0000000000 8.4994001389 8.5000000000 25.159448624 0.0136000002 12.239199638 0.2083999962 2.6293001175 5.4011998177 70.444732666 2.6703000069 87.199935913 167.50439453 3.8424999714 4.0450000763
 3932.2736816 5.0000000000 8.5148000717 8.5000000000 26.937005997 0.0122999996 12.528800011 0.2170999944 2.6282999516 5.6718997955 71.895126343 2.3894000053 86.665260315 167.43580627 3.6749000549 3.8785998821
 3932.4260254 5.0000000000 8.5302000046 8.5000000000 30.944227219 0.0087000001 12.040300369 0.2149000019 2.6149001122 5.8884000778 69.920707703 2.3668999672 86.703193665 167.34069824 3.8773000240 4.0468001366
 3932.5786133 5.0000000000 8.5225000381 8.5000000000 31.782480240 0.0052000000 12.203700066 0.2094999999 2.5975000858 6.1953001022 70.859970093 2.3763999939 86.696563721 167.42462158 3.8698000908 4.0310001373
 3932.7309570 5.0000000000 8.5378999710 8.5000000000 31.986549377 -0.000700000 12.584600449 0.2090000063 2.5866000652 6.1052999496 70.258430481 2.2139999866 85.939353943 166.57929993 3.7544999123 3.8650999069
 3932.8833008 5.0000000000 8.5502996445 8.5000000000 33.946193695 -0.002300000 12.306300163 0.2116000056 2.5861999989 5.5590000153 70.267646790 2.3399999142 86.094184875 165.73629761 3.5794000626 3.6923999786
 3933.0356445 5.0000000000 8.5457000732 8.5000000000 35.315944672 -0.000800000 12.378399849 0.2037999928 2.5903000832 4.7939000130 64.001502991 2.2181999683 85.772888184 164.10519409 3.5583000183 3.6700000763
 3933.1882324 4.0000000000 8.5611000061 8.5000000000 49.144359589 -0.000100000 12.932499886 0.1978999972 2.5890998840 4.6620998383 63.322509766 2.0931000710 85.760604858 163.87300110 3.5604000092 3.7179000378
 3933.3405762 4.0000000000 8.5457000732 8.5000000000 36.534450531 -0.001900000 13.515700340 0.1829999983 2.5901000500 5.0931000710 64.690338135 2.2439999580 85.856651306 163.73980713 3.6473999023 3.8610000610
 3933.4929199 4.0000000000 8.5534000397 8.5000000000 36.560039520 0.0020999999 13.587900162 0.1702000052 2.5955998898 5.2002000809 60.976387024 2.1366999149 86.198143005 163.64848328 3.7032999992 3.9732999802
 3933.6452637 4.0000000000 8.5378999710 8.5000000000 32.929134369 -0.000500000 12.753399849 0.1763000041 2.5955998898 5.4773998260 59.656963348 1.9966000319 86.100822449 163.28849792 3.6698000431 4.0317997932
 3933.7978516 4.0000000000 8.5225000381 8.5000000000 33.365814209 -0.000700000 12.572500229 0.1933999956 2.5901999474 4.8435997963 58.643665314 2.0160000324 86.241950989 162.55990601 3.8877999783 4.3888001442
 3933.9501953 4.0000000000 8.5193996429 8.5000000000 26.895339966 -0.003700000 12.315999985 0.1947000027 2.5843000412 4.9601001740 60.339477539 2.0367999077 86.132164001 162.30659485 3.8703000546 4.3621001244
 3934.1025391 4.0000000000 8.5457000732 8.5000000000 28.921916962 -0.002500000 12.878700256 0.1938000023 2.5871999264 4.4576997757 56.027210236 1.9893000126 86.107574463 162.38299561 3.8331000805 4.3099999428
 3934.2548828 4.0000000000 8.5378999710 8.5000000000 26.077428818 -0.006200000 13.312299728 0.1880999953 2.5868999958 4.5696997643 57.159309387 1.8312000036 85.034652710 162.06950378 3.6314001083 4.1108999252
 3934.4072266 4.0000000000 8.5534000397 8.5000000000 22.934383392 -0.005000000 12.984199524 0.1878000051 2.5899999142 4.6013998985 58.782962799 1.9074000120 84.814041138 161.11790466 3.6682000160 4.0864000320
 3934.5598145 4.0000000000 8.5378999710 8.5000000000 22.890747070 -0.005600000 12.539999962 0.1880999953 2.5834000111 5.0549998283 57.807106018 1.9177000523 84.714988708 160.97229004 3.9756000042 4.5467000008
 3934.7121582 4.0000000000 8.5457000732 8.5000000000 19.174211502 -0.003800000 12.732000351 0.1957000047 2.5783998966 5.6844000816 51.865165710 1.7209000587 84.524932861 160.91201782 4.3015999794 5.0732002258
 3934.8645020 4.0000000000 8.5534000397 8.5000000000 21.281824112 -0.002200000 12.995400429 0.1993000060 2.5710000992 6.3924999237 55.346870422 1.8559999466 84.920783997 160.87049866 4.3302998543 4.9692997932
 3935.0168457 4.0000000000 8.5749998093 8.5000000000 22.536746979 0.0002000000 12.791299820 0.1934999973 2.5769000053 6.2674999237 63.809764862 1.9777001143 84.475028992 160.79820251 4.0022997856 4.7460999489
 3935.1694336 5.0000000000 8.5071001053 8.5000000000 26.098096848 0.0040000002 12.854399681 0.1904000044 2.5792996883 5.7579998970 69.943984985 1.8143999577 84.681266785 160.81959534 4.0494999886 4.6799998283
 3935.3217773 5.0000000000 8.5071001053 8.5000000000 22.782808304 0.0085000005 13.227100372 0.1875000000 2.5917999744 5.1890001297 66.477134705 2.0164000988 84.857154846 161.05340576 3.8747000694 4.7978000641
 3935.4741211 5.0000000000 8.4763002396 8.5000000000 23.113189697 0.0126000000 13.258600235 0.2018000036 2.5987000465 5.0644001961 63.882469177 2.1122000217 85.142738342 161.25540161 4.0441999435 4.9826002121
 3935.6264648 5.0000000000 8.5071001053 8.5000000000 23.349081039 0.0091000004 12.814100266 0.1964000016 2.6003000736 5.6424999237 65.545791626 2.4330999851 84.918128967 161.67149353 3.8060998917 4.5276999474
 3935.7790527 5.0000000000 8.5071001053 8.5000000000 25.443569183 0.0118000004 11.826499939 0.2014999986 2.6061000824 5.4510002136 65.223236084 2.4920001030 85.060272217 159.58180237 3.7653999329 4.3914999962
 3935.9313965 5.0000000000 8.4840002060 8.5000000000 26.031826019 0.0052000000 11.386799812 0.1865999997 2.5924999714 5.6456999779 64.044700623 2.6693999767 84.274330139 159.41000366 3.8585000038 4.3165001869
 3936.0837402 5.0000000000 8.4516000748 8.5000000000 25.573818207 0.0029000000 10.794699669 0.1850000024 2.5847001076 5.3579998016 60.308746338 2.8482000828 84.977317810 159.35359192 3.6893999577 4.2487998009
 3936.2360840 5.0000000000 8.4377002716 8.5000000000 25.785432816 0.0008000000 10.879199982 0.1835000068 2.5827999115 5.8067998886 59.395481110 3.1579000950 85.115150452 159.27009583 3.8092999458 4.4040999413
 3936.3884277 5.0000000000 8.4685001373 8.5000000000 26.701770782 0.0020000001 9.9202995300 0.1863999963 2.5899000168 5.6861000061 54.331939697 3.4837000370 85.085052490 159.22940063 3.9467999935 4.5766000748
 3936.5410156 4.0000000000 8.4454002380 8.5000000000 21.874343872 -0.000100000 9.6150999069 0.1827999949 2.5975999832 5.3200001717 50.674736023 3.4855999947 84.679870605 159.01589966 4.0669999123 4.7267999649
 3936.6933594 4.0000000000 8.4531002045 8.5000000000 19.688648224 0.0020000001 9.5731000900 0.1871999949 2.6050000191 5.3653998375 50.270053864 3.4168000221 84.413291931 158.50848389 4.2371001244 5.0043997765
 3936.8457031 4.0000000000 8.4454002380 8.5000000000 22.848096848 -0.001800000 9.4135999680 0.1862999946 2.5973999500 5.6634001732 55.168239594 3.4038000107 84.281875610 158.52090454 4.3229999542 5.0911002159
 3936.9980469 4.0000000000 8.4608001709 8.5000000000 22.081693649 -0.003100000 9.6294002533 0.1784999967 2.5987000465 6.1760001183 57.561901093 3.2442998886 83.642738342 159.12249756 4.3863000870 5.1593999863
 3937.1506348 4.0000000000 8.4454002380 8.5000000000 21.783464432 -0.000600000 9.4575004578 0.1820999980 2.5948998928 6.2796001434 57.561073303 3.1387000084 83.542686462 161.03179932 4.4752001762 5.2525000572
 3937.3029785 4.0000000000 8.4638996124 8.5000000000 21.777231216 0.0007000000 9.9625997543 0.1800999939 2.5927999020 7.3573999405 57.302204132 3.1545999050 83.506950378 161.29159546 4.5623998642 5.3607997894
