# LAS format log file from PETREL
# Project units are specified as depth units
#==================================================================
~Version information
VERS.   2.0:
WRAP.   NO:
#==================================================================
~Well
STRT .m      2380.2319336 :
STOP .m      4321.8081055 :
STEP .m     0.00000000 :
NULL .        -999.250000 :
COMP.           : COMPANY
WELL.  34/3-2 S   : WELL
FLD.            : FIELD
LOC.            : LOCATION
SRVC.           : SERVICE COMPANY
DATE.  2018-09-11 14:48:49   : Log Export Date {yyyy-MM-dd HH:mm:ss}
PROV.           : PROVINCE
UWI.   34/3-2 S   : UNIQUE WELL ID
API.            : API NUMBER
#==================================================================
~Curve
DEPT .m                   : DEPTH
Lithology_geolink ._      : Lithology_geolink
CALI .in                  : CALI
BS .in                    : BS
ROP .m/h                  : ROP
DRHO .g/cm3               : DRHO
THOR .ppm                 : THOR
NPHI .m3/m3               : NPHI
RHOB .g/cm3               : RHOB
PEF .b/e                  : PEF
GR .gAPI                  : GR
URAN .ppm                 : URAN
DTC .us/ft                : DTC
DTS .us/ft                : DTS
RDEP .ohm.m               : RDEP
RMED .ohm.m               : RMED
~Parameter
#==================================================================
~Ascii
# ...
 4187.0864258 5.0000000000 8.4917001724 8.5000000000 23.526649475 -0.001300000 11.826800346 0.1726000011 2.6249001026 7.7617001534 73.147506714 2.7530000210 84.295158386 156.26469421 3.6628000736 4.0265002251
 4187.2387695 5.0000000000 8.4994001389 8.5000000000 24.890293121 -0.002700000 11.985099792 0.1724999994 2.6305000782 8.1035995483 71.995697021 3.0169000626 85.248703003 158.17759705 4.9918999672 4.8432002068
 4187.3911133 5.0000000000 8.4531002045 8.5000000000 25.634105682 -0.000800000 12.874600410 0.1705999970 2.6287999153 8.6399002075 77.579299927 2.9672999382 85.122497559 158.75971985 4.5745000839 4.4920001030
 4187.5434570 5.0000000000 8.4685001373 8.5000000000 24.796010971 0.0012000001 13.284000397 0.1732999980 2.6300001144 8.8390998840 78.813102722 3.1038000584 84.329002380 159.26089478 4.3199000359 4.1845998764
 4187.6962891 6.0000000000 8.4377002716 8.5000000000 25.788057327 -0.000700000 14.306400299 0.1893000007 2.6229999065 7.4828000069 86.720481873 2.7490000725 84.193511963 159.57789612 3.8677999973 3.8053998947
 4187.8486328 6.0000000000 8.4454002380 8.5000000000 26.767717361 0.0014000000 14.583999634 0.1880999953 2.6285998821 7.3688001633 83.146591187 2.4093000889 84.347732544 160.25291443 3.5476000309 3.4302000999
 4188.0009766 6.0000000000 8.4223003387 8.5000000000 26.541009903 0.0055000000 14.000000000 0.1897999942 2.6372001171 7.2993998528 85.707458496 2.4607000351 82.888420105 159.19538879 3.3080999851 3.1995000839
 4188.1533203 6.0000000000 8.4454002380 8.5000000000 26.314306259 0.0082999999 13.680800438 0.1838999987 2.6533000469 7.5517001152 79.702140808 2.3592998981 80.341514587 154.96820068 3.4670999050 3.3743999004
 4188.3056641 6.0000000000 8.4146003723 8.5000000000 27.416742325 0.0082999999 13.678899765 0.1869000047 2.6545000076 6.7533001900 82.461898804 1.9844001532 79.532478333 146.71530151 3.9221999645 3.8645999432
 4188.4580078 6.0000000000 8.4454002380 8.5000000000 27.851633072 0.0076000001 12.980199814 0.1817000061 2.6533000469 6.8087000847 75.865188599 1.7288000584 77.907188416 145.40930176 4.3611998558 4.2691998482
 4188.6103516 5.0000000000 8.4223003387 8.5000000000 27.125043869 0.0024999999 12.116499901 0.1768999994 2.6386001110 6.4180002213 75.206802368 1.6486999989 77.000801086 145.30569458 4.5342001915 4.6119999886
 4188.7626953 5.0000000000 8.4608001709 8.5000000000 26.559226990 0.0003000000 11.899200439 0.1675000042 2.6426999569 6.8762001991 75.100601196 1.6250000000 76.507598877 145.14819336 4.7842998505 4.8147001266
 4188.9150391 5.0000000000 8.4531002045 8.5000000000 29.784574509 -0.005800000 11.937999725 0.1776999980 2.6315999031 6.8060002327 72.864997864 1.7490999699 77.535003662 145.14480591 4.8840999603 4.9621000290
 4189.0678711 5.0000000000 8.4454002380 8.5000000000 30.035432816 -0.007200000 11.871199608 0.1758999974 2.6298999786 7.9148998260 70.118515015 1.7963000536 78.405891418 144.87739563 4.8436999321 4.9475002289
 4189.2202148 5.0000000000 8.4377002716 8.5000000000 30.907152176 -0.007200000 12.367300034 0.1844999939 2.6273999214 8.4330997467 66.017097473 1.7669999599 79.118499756 143.76669312 4.7589998245 4.8986001015
 4189.3725586 5.0000000000 8.4531002045 8.5000000000 30.822179794 -0.006100000 11.611300468 0.1720000058 2.6277000904 8.6400003433 65.858909607 2.0051999092 79.551353455 142.58349609 4.6728000641 4.8649997711
 4189.5249023 5.0000000000 8.4377002716 8.5000000000 30.947107315 -0.005300000 11.069800377 0.1738000065 2.6303999424 9.3780002594 65.010665894 2.0369999409 79.097656250 142.69619751 4.7262001038 5.0535001755
 4189.6772461 4.0000000000 8.4531002045 8.5000000000 31.596992493 0.0005000000 10.400699615 0.1641999930 2.6340999603 8.5040998459 61.426570892 2.0541000366 78.208190918 143.44439697 4.7199001312 5.2445001602
 4189.8295898 4.0000000000 8.4377002716 8.5000000000 31.639633179 0.0013000000 10.967499733 0.1597999930 2.6391999722 7.3017997742 62.384101868 1.7273000479 76.552108765 143.31550598 4.6314997673 5.1774001122
 4189.9819336 4.0000000000 8.4392004013 8.5000000000 35.374801636 0.0020000001 10.123299599 0.1613000035 2.6493999958 6.0001001358 57.114398956 2.0724999905 75.906097412 143.49330139 4.5910000801 5.1062998772
 4190.1342773 4.0000000000 8.4377002716 8.5000000000 37.061874390 0.0026000000 10.167400360 0.1800000072 2.6538999081 5.9710001945 61.618900299 2.1768000126 76.091400146 144.11239624 5.0795001984 5.9116997719
 4190.2866211 4.0000000000 8.4608001709 8.5000000000 33.445045471 0.0041000000 10.394599915 0.1984000057 2.6521000862 6.7701001167 67.050399780 2.2607998848 76.745300293 144.48699951 5.8759999275 6.4530000687
 4190.4394531 5.0000000000 8.4377002716 8.5000000000 29.298881531 0.0023000001 10.462100029 0.1993000060 2.6415998936 7.8113999367 71.300468445 2.3780000210 77.167854309 146.90319824 6.2753000259 7.1378998756
 4190.5917969 5.0000000000 8.4377002716 8.5000000000 27.752298355 0.0027999999 11.048299789 0.1912000030 2.6375000477 7.7417998314 73.913398743 2.3687999249 77.997154236 149.39320374 7.8797001839 8.5038003922
 4190.7441406 5.0000000000 8.4531002045 8.5000000000 26.526576996 0.0019000000 11.276900291 0.1823000014 2.6354000568 7.4212999344 67.481277466 2.3183999062 79.258964539 152.26521301 9.2683000565 8.3371000290
 4190.8964844 5.0000000000 8.4300003052 8.5000000000 26.648235321 0.0037000000 11.734299660 0.1785999984 2.6440999508 7.5251998901 68.949317932 2.1089999676 79.870742798 153.15280151 8.2152004242 7.1030998230
 4191.0488281 5.0000000000 8.4300003052 8.5000000000 25.737834930 0.0041999999 11.474200249 0.1652999967 2.6472001076 6.6549000740 63.455780029 2.4951999187 80.418388367 156.59919739 5.7560000420 5.1112999916
 4191.2011719 5.0000000000 8.4377002716 8.5000000000 24.564132690 0.0054000001 12.043600082 0.1682000011 2.6568999290 6.4366002083 65.258697510 2.6730999947 82.568603516 160.79840088 3.7943999767 3.3192999363
 4191.3535156 5.0000000000 8.4377002716 8.5000000000 24.222215652 0.0030000000 12.601799965 0.1727000028 2.6454000473 6.0559000969 64.192298889 2.6307001114 84.960990906 165.17140198 3.2513000965 2.9086000919
 4191.5058594 5.0000000000 8.4330997467 8.5000000000 24.290458679 0.0015000000 12.763400078 0.1853999943 2.6475999355 6.8845000267 72.994201660 2.9702000618 86.189796448 169.98049927 3.3747999668 3.1758000851
 4191.6586914 6.0000000000 8.4531002045 8.5000000000 22.236219406 0.0008000000 13.824999809 0.1818999946 2.6524999142 6.6879000664 77.680961609 3.0336000919 85.728378296 170.37150574 3.3529999256 3.1533000469
 4191.8110352 6.0000000000 8.4300003052 8.5000000000 23.005905151 -0.000100000 13.508799553 0.1941999942 2.6535000801 6.4152002335 83.702598572 2.9997000694 85.721412659 170.63290405 2.7925000191 2.8382999897
 4191.9633789 6.0000000000 8.4454002380 8.5000000000 23.839567184 -0.001200000 14.483200073 0.1937000006 2.6486999989 6.2014999390 83.701393127 2.6617999077 85.728172302 170.76269531 2.4728999138 2.5696001053
 4192.1157227 6.0000000000 8.4146003723 8.5000000000 24.676837921 -0.000100000 14.494899750 0.2037000060 2.6391999722 6.8440999985 83.328727722 2.5618000031 86.380516052 171.19650269 2.3617000580 2.4827001095
 4192.2680664 6.0000000000 8.4608001709 8.5000000000 25.900606155 0.0011000000 14.218600273 0.1988999993 2.6343998909 7.9966001511 84.334320068 2.7219998837 88.597290039 171.92149353 2.3770999908 2.5518999100
 4192.4204102 6.0000000000 8.4069004059 8.5000000000 24.441385269 0.0017000000 14.931799889 0.2144999951 2.6240000725 7.4574999809 84.935302734 2.8355998993 90.062301636 173.12139893 2.5223999023 2.6296999454
 4192.5727539 6.0000000000 8.4377002716 8.5000000000 24.848415375 0.0031000001 15.062399864 0.2169000059 2.6285998821 7.1020002365 82.501502991 2.8784999847 91.381309509 179.39199829 2.5783998966 2.6259000301
 4192.7250977 6.0000000000 8.4377002716 8.5000000000 25.679746628 0.0043000001 16.281400681 0.2060000002 2.6303000450 6.0198001862 83.119201660 2.3982000351 91.438697815 179.97230530 2.6596999168 2.6426999569
 4192.8774414 6.0000000000 8.4146003723 8.5000000000 26.220710754 0.0033000000 15.627300262 0.2074999958 2.6340999603 6.0293002129 79.702796936 2.5357000828 89.857803345 179.61529541 2.6935999393 2.6326000690
