# LAS format log file from PETREL
# Project units are specified as depth units
#==================================================================
~Version information
VERS.   2.0:
WRAP.   NO:
#==================================================================
~Well
STRT .m      2380.2319336 :
STOP .m      4321.8081055 :
STEP .m     0.00000000 :
NULL .        -999.250000 :
COMP.           : COMPANY
WELL.  34/3-2 S   : WELL
FLD.            : FIELD
LOC.            : LOCATION
SRVC.           : SERVICE COMPANY
DATE.  2018-09-11 14:48:49   : Log Export Date {yyyy-MM-dd HH:mm:ss}
PROV.           : PROVINCE
UWI.   34/3-2 S   : UNIQUE WELL ID
API.            : API NUMBER
#==================================================================
~Curve
DEPT .m                   : DEPTH
Lithology_geolink ._      : Lithology_geolink
CALI .in                  : CALI
BS .in                    : BS
ROP .m/h                  : ROP
DRHO .g/cm3               : DRHO
THOR .ppm                 : THOR
NPHI .m3/m3               : NPHI
RHOB .g/cm3               : RHOB
PEF .b/e                  : PEF
GR .gAPI                  : GR
URAN .ppm                 : URAN
DTC .us/ft                : DTC
DTS .us/ft                : DTS
RDEP .ohm.m               : RDEP
RMED .ohm.m               : RMED
~Parameter
#==================================================================
~Ascii
# ...
 2398.0627441  -999.250000 13.174400330 17.500000000 65.929054260 -0.035799999  -999.250000  -999.250000  -999.250000  -999.250000 110.33460236  -999.250000 122.26650238 236.63629150 0.9678999782 1.1003999710
 2398.2150879  -999.250000 13.037899971 17.500000000 58.744796753 -0.040392637  -999.250000  -999.250000  -999.250000  -999.250000 114.68550110  -999.250000 123.16960144 239.60429382 0.9196773171 1.0536748171
 2398.3674316  -999.250000 13.156998634 17.500000000 51.059741974 -0.046789743  -999.250000  -999.250000  -999.250000  -999.250000 118.67829895  -999.250000 123.58139801 238.97619629 0.9225951433 1.0455130339
 2398.5200195  -999.250000 13.062800407 17.500000000 47.292098999 -0.048000000  -999.250000  -999.250000  -999.250000  -999.250000 121.84649658  -999.250000 127.01679230 237.92889404 0.9512000084 1.0350999832
 2398.6723633  -999.250000 12.952899933 17.500000000 45.780960083 -0.037599999  -999.250000  -999.250000  -999.250000  -999.250000 123.74530029  -999.250000 136.22749329 236.63540649 0.9207000136 0.9862999916
 2398.8247070  -999.250000 12.654199600 17.500000000 42.793834686 -0.023622401  -999.250000  -999.250000  -999.250000  -999.250000 119.80670166  -999.250000 127.71219635 235.91999817 0.9650289416 1.0137560368
 2398.9770508  -999.250000 12.763199806 17.500000000 39.847244263 -0.012318108  -999.250000  -999.250000  -999.250000  -999.250000 117.18099976  -999.250000 118.67359161 236.48629761 1.0578510761 1.1101453304
 2399.1293945  -999.250000 12.902299881 17.500000000 37.437183380 -0.019987660  -999.250000  -999.250000  -999.250000  -999.250000 118.24430084  -999.250000 127.33989716 236.55119324 1.0576006174 1.1318653822
 2399.2819824  -999.250000 13.273200035 17.500000000 36.302661896 -0.023900000  -999.250000  -999.250000  -999.250000  -999.250000 115.22799683  -999.250000 122.77719879 235.81280518 1.0094000101 1.0764000416
 2399.4343262  -999.250000 13.308300018 17.500000000 33.657127380 -0.031487841  -999.250000  -999.250000  -999.250000  -999.250000 112.03079987  -999.250000 116.28050995 237.07910156 1.0434453487 1.0953695774
 2399.5866699  -999.250000 13.316100121 17.500000000 32.575218201 -0.026508013  -999.250000  -999.250000  -999.250000  -999.250000 111.91510010  -999.250000 109.71939850 237.32760620 0.9993708134 1.0671453476
 2399.7390137  -999.250000 13.487199783 17.500000000 34.026172638 -0.033588622  -999.250000  -999.250000  -999.250000  -999.250000 113.30390167  -999.250000 115.50579834 237.30870056 1.0065883398 1.0537214279
 2399.8916016  -999.250000 13.647700310 17.500000000 36.158657074 -0.035799999  -999.250000  -999.250000  -999.250000  -999.250000 116.73249817  -999.250000 132.70520020 238.06709290 1.0398000479 1.0937000513
 2400.0439453  -999.250000 13.273599625 17.500000000 37.553867340 -0.033000000  -999.250000  -999.250000  -999.250000  -999.250000 116.90789795  -999.250000 118.53810120 238.16931152 1.0116000175 1.0722999573
 2400.1962891  -999.250000 13.240098953 17.500000000 37.902004242 -0.025811521  -999.250000  -999.250000  -999.250000  -999.250000 114.56610107  -999.250000 117.19490814 237.73800659 1.0141957998 1.0761938095
 2400.3486328  -999.250000 13.099900246 17.500000000 37.415279388 -0.021706572  -999.250000  -999.250000  -999.250000  -999.250000 112.44490051  -999.250000 116.55078888 237.39529419 1.0698107481 1.1544743776
 2400.5012207  -999.250000 13.640399933 17.500000000 35.871242523 -0.029500000  -999.250000  -999.250000  -999.250000  -999.250000 109.17800140  -999.250000 121.36090088 238.64770508 1.0730999708 1.1368000507
 2400.6535645  -999.250000 13.490400314 17.500000000 37.289058685 -0.035100002  -999.250000  -999.250000  -999.250000  -999.250000 108.91100311  -999.250000 127.27909851 239.72709656 1.0669000149 1.1561000347
 2400.8059082  -999.250000 13.421799660 17.500000000 38.943214417 -0.029908320  -999.250000  -999.250000  -999.250000  -999.250000 108.28829956  -999.250000 130.99339294 239.84732056 1.1077345610 1.1778650284
 2400.9582520  -999.250000 13.170599937 17.500000000 41.523746490 -0.028701922  -999.250000  -999.250000  -999.250000  -999.250000 100.50440216  -999.250000 131.82929993 238.72180176 1.3951387405 1.4316927195
 2401.1105957  -999.250000 13.401300430 17.500000000 43.714435577 -0.025105769  -999.250000  -999.250000  -999.250000  -999.250000 92.865898132  -999.250000 129.61639404 237.45159912 1.7070001364 1.6779054403
 2401.2631836  -999.250000 13.316900253 17.500000000 43.435825348 -0.021700000  -999.250000  -999.250000  -999.250000  -999.250000 92.811698914  -999.250000 127.20420074 236.79220581 1.3961000443 1.5269000530
 2401.4155273  -999.250000 13.163500786 17.500000000 45.089210510 -0.013113760  -999.250000  -999.250000  -999.250000  -999.250000 99.260299683  -999.250000 124.72550201 237.60260010 1.1355175972 1.2784980536
 2401.5678711  -999.250000 12.952699661 17.500000000 46.252403259 -0.012301282  -999.250000  -999.250000  -999.250000  -999.250000 104.93849945  -999.250000 122.97299957 238.44400024 1.0964620113 1.2183958292
 2401.7202148  -999.250000 13.246500015 17.500000000 46.845867157 -0.022883013  -999.250000  -999.250000  -999.250000  -999.250000 108.88430023  -999.250000 119.91639709 237.11599731 1.0766316652 1.1592946053
 2401.8728027  -999.250000 13.399700165 17.500000000 48.902214050 -0.025100000  -999.250000  -999.250000  -999.250000  -999.250000 114.74510193  -999.250000 118.63790131 237.35290527 1.0428999662 1.0900000334
 2402.0251465  -999.250000 13.092700005 17.500000000 41.946537018 -0.026500000  -999.250000  -999.250000  -999.250000  -999.250000 115.00879669  -999.250000 117.83129883 235.51828003 1.0163999796 1.0719000101
 2402.1774902  -999.250000 13.149200439 17.500000000 32.813526154 -0.027398560  -999.250000  -999.250000  -999.250000  -999.250000 112.51650238  -999.250000 125.63030243 235.30700684 0.9956332445 1.0648113489
 2402.3298340  -999.250000 12.979599953 17.500000000 32.270397186 -0.026701121  -999.250000  -999.250000  -999.250000  -999.250000 115.76830292  -999.250000 123.39450073 235.39230347 0.9651488662 1.0475277901
 2402.4824219  -999.250000 13.150798798 17.500000000 32.202861786 -0.033199999  -999.250000  -999.250000  -999.250000  -999.250000 119.35099792  -999.250000 117.79240417 236.59140015 0.9653999805 1.0390000343
 2402.6347656  -999.250000 13.093099594 17.500000000 29.853836060 -0.031300001  -999.250000  -999.250000  -999.250000  -999.250000 115.91149902  -999.250000 118.03440094 235.96940613 0.9747999907 1.0341000557
 2402.7871094  -999.250000 13.706399918 17.500000000 29.622413635 -0.035992477  -999.250000  -999.250000  -999.250000  -999.250000 110.15010071  -999.250000 124.14469910 234.81591797 1.0053509474 1.0567636490
 2402.9394531  -999.250000 13.840200424 17.500000000 27.820148468 -0.033903364  -999.250000  -999.250000  -999.250000  -999.250000 111.11940002  -999.250000 127.42389679 236.89688110 1.0053001642 1.0651865005
 2403.0917969  -999.250000 13.915400505 12.258414268 207.34590149 -0.033800159  -999.250000  -999.250000  -999.250000  -999.250000 64.736602783  -999.250000 128.55389404 237.31179810 0.9648649096 1.0256633759
 2403.2443848  -999.250000 13.607000351 12.250000954 197.48951721 -0.035700001  -999.250000  -999.250000  -999.250000  -999.250000 62.059501648  -999.250000 126.04250336 239.09161377 0.9873999953 1.0411000252
 2403.3967285  -999.250000 13.814001083 12.250000954 230.44250488 -0.037297443  -999.250000  -999.250000  -999.250000  -999.250000 58.521598816  -999.250000 125.71379852 240.45710754 1.0335260630 1.0992069244
 2403.5490723  -999.250000 13.906001091 12.250000954 226.55389404 -0.042491667  -999.250000  -999.250000  -999.250000  -999.250000 58.234699249  -999.250000 125.81739807 239.61071777 1.0049459934 1.0679502487
 2403.7014160  -999.250000 13.559299469 12.250000954 248.00460815 -0.042500000  -999.250000  -999.250000  -999.250000  -999.250000 60.175899506  -999.250000 126.61810303 239.30780029 0.9986100793 1.0696971416
 2403.8540039  -999.250000 13.875300407 12.250000954 253.11820984 -0.045200001  -999.250000  -999.250000  -999.250000  -999.250000 63.317100525  -999.250000 121.87120056 238.10220337 1.0102000237 1.0844000578
