# LAS format log file from PETREL
# Project units are specified as depth units
#==================================================================
~Version information
VERS.   2.0:
WRAP.   NO:
#==================================================================
~Well
STRT .m      1809.0520020 :
STOP .m      4407.6245117 :
STEP .m     0.00000000 :
NULL .        -999.250000 :
COMP.           : COMPANY
WELL.  35/3-2   : WELL
FLD.            : FIELD
LOC.            : LOCATION
SRVC.           : SERVICE COMPANY
DATE.  2018-09-11 14:48:58   : Log Export Date {yyyy-MM-dd HH:mm:ss}
PROV.           : PROVINCE
UWI.   35/3-2   : UNIQUE WELL ID
API.            : API NUMBER
#==================================================================
~Curve
DEPT .m                   : DEPTH
Lithology_geolink ._      : Lithology_geolink
CALI .in                  : CALI
DRHO .g/cm3               : DRHO
NPHI .m3/m3               : NPHI
RHOB .g/cm3               : RHOB
GR .gAPI                  : GR
DTC .us/ft                : DTC
RDEP .ohm.m               : RDEP
SP .mV                    : SP
RSHA .ohm.m               : RSHA
RMED .ohm.m               : RMED
~Parameter
#==================================================================
~Ascii
# ...
 4397.2612305  -999.250000 8.4799995422 -0.013000000 0.1289000064 2.7079999447 61.375000000 53.999996185 84.375000000 128.41900635 42.155998230 46.719001770
 4397.4135742  -999.250000 8.4720001221 -0.008000000 0.1270599961 2.6860001087 60.375000000 53.999996185 79.250000000 128.48100281 42.155998230 68.750000000
 4397.5659180  -999.250000 8.4560003281 -0.005000000 0.1293299943 2.6630001068 59.000000000 53.999996185 76.813003540 128.69999695 42.155998230 116.18800354
 4397.7182617  -999.250000 8.4449996948 -0.005000000 0.1342243105 2.6550254822 61.056407928 53.999996185 89.750000000 129.04400635 42.155998230 130.00000000
 4397.8706055  -999.250000 8.4340000153 -0.004000000 0.1394432634 2.6749358177 88.536659241 53.999996185 124.31300354 129.29400635 42.155998230 126.25000000
 4398.0229492  -999.250000 8.4379997253 0.0010000000 0.1397490799 2.7088911533 87.129806519 53.999996185 218.12500000 129.26199341 42.155998230 110.37500000
 4398.1752930  -999.250000 8.4230003357 0.0160000008 0.1376966089 2.7488718033 88.370994568 53.999996185 524.50000000 129.57499695 42.155998230 110.37500000
 4398.3276367  -999.250000 8.4259996414 0.0120000001 0.1347993016 2.7639517784 88.001205444 53.999996185 361.00000000 129.35600281 42.155998230 113.18800354
 4398.4804688  -999.250000 8.4219999313 0.0099999998 0.1315900087 2.7650001049 89.250000000 53.999996185 158.50000000 129.73100281 42.155998230 102.56300354
 4398.6328125  -999.250000 8.4270000458 0.0060000001 0.1284500062 2.7679998875 88.750000000 53.999996185 84.000000000 130.07499695 42.155998230 86.375000000
 4398.7851563  -999.250000 8.4320001602 0.0080000004 0.1268199980 2.7630000114 88.063003540 53.999996185 47.594001770 130.38699341 42.155998230 75.875000000
 4398.9375000  -999.250000 8.4340000153 -0.001000000 0.1296409518 2.7380797863 86.941596985 53.999996185 38.875000000 130.26199341 42.155998230 46.719001770
 4399.0898438  -999.250000 8.4309997559 -0.001000000 0.1350227296 2.6981282234 85.255409241 53.999996185 42.750000000 130.35600281 42.155998230 27.233999252
 4399.2421875  -999.250000 8.4379997253 -0.004000000 0.1385786235 2.6700897217 85.125404358 53.999996185 41.750000000 130.32499695 42.155998230 22.827999115
 4399.3945313  -999.250000 8.4560003281 -0.005000000 0.1380617023 2.6789710522 85.935394287 53.999996185 40.312999725 130.51199341 42.155998230 30.047000885
 4399.5468750  -999.250000 8.4589996338 -0.014000000 0.1341824681 2.7099006176 86.062599182 53.999996185 37.687999725 130.44999695 42.155998230 47.750000000
 4399.6997070  -999.250000 8.4499998093 -0.003000000 0.1302199960 2.7530000210 89.000000000 53.999996185 34.905998230 130.32499695 42.155998230 59.405998230
 4399.8520508  -999.250000 8.4420003891 0.0049999999 0.1309400052 2.7699999809 91.188003540 53.999996185 33.844001770 130.29400635 42.155998230 54.937999725
 4400.0043945  -999.250000 8.4440002441 0.0179999992 0.1339299977 2.7639999390 94.313003540 53.999996185 35.780998230 130.04400635 42.155998230 55.625000000
 4400.1567383  -999.250000 8.4549999237 -0.002000000 0.1389899999 2.7490000725 94.313003540 53.999996185 36.000000000 130.16900635 42.155998230 54.937999725
 4400.3090820  -999.250000 8.4659996033 -0.008000000 0.1378935128 2.7499969006 94.313003540 53.999996185 36.062999725 129.98100281 42.155998230 54.937999725
 4400.4614258  -999.250000 8.4549999237 -0.009000000 0.1355674565 2.7639551163 94.313003540 53.999996185 36.094001770 130.13699341 42.155998230 54.937999725
 4400.6137695  -999.250000 8.4680004120 0.0000000000 0.1332673728 2.7759616375 94.313003540 53.999996185 36.844001770 129.76199341 42.155998230 56.344001770
 4400.7661133  -999.250000 8.4659996033 0.0000000000 0.1347252876 2.7839741707 94.313003540 53.999996185 37.000000000 129.51199341 42.155998230 57.094001770
 4400.9184570  -999.250000 8.4639997482 0.0099999998 0.1367534846 2.7919743061 94.313003540 53.999996185 37.719001770 128.69999695 42.155998230 56.344001770
 4401.0712891  -999.250000 8.4619998932 0.0130000003 0.1356199980 2.7750000954 94.313003540 53.999996185 37.594001770 127.82498932 42.155998230 54.937999725
 4401.2236328  -999.250000 8.4160003662 0.0209999997 0.1327800006 2.7409999371 94.313003540 53.999996185 37.219001770 127.82498932 42.155998230 54.937999725
 4401.3759766  -999.250000 8.2790002823 0.0160000008 0.1304199994 2.7049999237 94.313003540 53.999996185 37.250000000 127.07500458 42.155998230 56.344001770
 4401.5283203  -999.250000 8.0179996490 0.0149999997 0.1295129061 2.6920413971 94.313003540 53.999996185 37.812999725 126.98100281 42.155998230 54.937999725
 4401.6806641  -999.250000 7.9200000763 0.0179999992 0.1299984306 2.6999742985 94.313003540 53.999996185 37.530998230 126.26199341 42.155998230 56.344001770
 4401.8330078  -999.250000 7.9000000954 0.0230000000 0.1305582076 2.7039871216 94.313003540 53.999996185 38.187999725 126.13700104 42.155998230 54.937999725
 4401.9853516  -999.250000 7.8930001259 0.0080000004 0.1328426450 2.6910417080 94.313003540 53.999996185 37.844001770 126.26199341 42.155998230 52.937999725
 4402.1376953  -999.250000 7.8930001259 0.0140000004 0.1362590343 2.6840224266 94.313003540 53.999996185 38.250000000 126.51200867 42.155998230 55.625000000
 4402.2900391  -999.250000 7.8909997940 0.0089999996 0.1394597441 2.6800129414 94.313003540 53.999996185 38.030998230 126.88699341 42.155998230 55.625000000
 4402.4428711  -999.250000 7.8909997940 0.0120000001 0.1417599916 2.6819999218 94.313003540 53.999996185 37.844001770 127.10599518 42.155998230 54.937999725
 4402.5952148  -999.250000 7.8919997215 0.0099999998 0.1417700052 2.6740000248 94.313003540 53.999996185 37.812999725 126.26199341 42.155998230 54.937999725
 4402.7475586  -999.250000 7.8930001259 -0.002000000 0.1415999979 2.6610000134 94.313003540 53.999996185 37.875000000 126.60600281 42.155998230 56.344001770
 4402.8999023  -999.250000 7.8909997940 -0.001000000 0.1415999979 2.6619968414 94.313003540 53.999996185 37.844001770 126.94999695 42.155998230 54.937999725
 4403.0522461  -999.250000 7.8909997940 -0.010000000 0.1415999979 2.6560192108 94.313003540 53.999996185 37.625000000 127.45000458 42.155998230 54.937999725
 4403.2045898  -999.250000 7.8909997940 -0.006000000 0.1415999979 2.6510159969 94.313003540 53.999996185 37.437999725 128.60600281 42.155998230 55.625000000
 4403.3569336  -999.250000 7.8909997940 -0.009000000 0.1415999979 2.6410319805 94.313003540 53.999996185 37.844001770 130.04400635 42.155998230 54.937999725
 4403.5092773  -999.250000 7.8899998665 0.0000000000 0.1415999979 2.6539583206 94.313003540 53.999996185 37.219001770 131.91900635 42.155998230 55.625000000
 4403.6621094  -999.250000 7.8880000114 0.0080000004 0.1415999979 2.6779999733 94.313003540 53.999996185 36.625000000 131.88699341 42.155998230 54.937999725
 4403.8144531  -999.250000 7.8899998665 0.0149999997 0.1415999979 2.6919999123 94.313003540 53.999996185 37.405998230 130.54400635 42.155998230 54.250000000
 4403.9667969  -999.250000 7.8899998665 0.0099999998 0.1415999979 2.6919999123 94.313003540 53.999996185 37.405998230 131.79400635 42.155998230 56.344001770
 4404.1191406  -999.250000 7.8880000114 0.0089999996 0.1415999979 2.6849999428 94.313003540 53.999996185 37.812999725 132.41900635 42.155998230 56.344001770
 4404.2714844  -999.250000 7.8889999390 0.0040000002 0.1415999979 2.6790189743 94.313003540 53.999996185 37.625000000 132.54400635 42.155998230 54.250000000
 4404.4238281  -999.250000 7.8869996071 0.0089999996 0.1415999979 2.6750128269 94.313003540 53.999996185 37.405998230 132.44999695 42.155998230 55.625000000
 4404.5761719  -999.250000 7.8860001564 0.0010000000 0.1415999979 2.6660287380 94.313003540 53.999996185 37.405998230 132.85600281 42.155998230 54.937999725
 4404.7285156  -999.250000 7.8790001869 -0.002000000 0.1418093294 2.6620128155 94.313003540 53.999996185 37.000000000 133.41900635 42.155998230 54.937999725
 4404.8808594  -999.250000 7.8680000305 -0.005000000 0.1422984302 2.6610031128 94.313003540 53.999996185 37.219001770 131.88699341 42.155998230 57.094001770
