# LAS format log file from PETREL
# Project units are specified as depth units
#==================================================================
~Version information
VERS.   2.0:
WRAP.   NO:
#==================================================================
~Well
STRT .m      1809.0520020 :
STOP .m      4407.6245117 :
STEP .m     0.00000000 :
NULL .        -999.250000 :
COMP.           : COMPANY
WELL.  35/3-2   : WELL
FLD.            : FIELD
LOC.            : LOCATION
SRVC.           : SERVICE COMPANY
DATE.  2018-09-11 14:48:58   : Log Export Date {yyyy-MM-dd HH:mm:ss}
PROV.           : PROVINCE
UWI.   35/3-2   : UNIQUE WELL ID
API.            : API NUMBER
#==================================================================
~Curve
DEPT .m                   : DEPTH
Lithology_geolink ._      : Lithology_geolink
CALI .in                  : CALI
DRHO .g/cm3               : DRHO
NPHI .m3/m3               : NPHI
RHOB .g/cm3               : RHOB
GR .gAPI                  : GR
DTC .us/ft                : DTC
RDEP .ohm.m               : RDEP
SP .mV                    : SP
RSHA .ohm.m               : RSHA
RMED .ohm.m               : RMED
~Parameter
#==================================================================
~Ascii
# ...
 1980.0446777 5.0000000000  -999.250000  -999.250000  -999.250000  -999.250000 49.469802856 114.56590271 1.3419920206 51.125099182 0.6309359074 1.1519951820
 1980.1971436 5.0000000000  -999.250000  -999.250000  -999.250000  -999.250000 50.470806122 118.19231415 1.3319888115 51.251102448 0.5509639382 1.1459984779
 1980.3494873 5.0000000000  -999.250000  -999.250000  -999.250000  -999.250000 52.717300415 123.56350708 1.3179727793 52.624000549 0.5059303045 1.1439712048
 1980.5019531 5.0000000000  -999.250000  -999.250000  -999.250000  -999.250000 50.594379425 124.18845367 1.2839896679 51.375499725 0.4189911783 1.1079784632
 1980.6542969 5.0000000000  -999.250000  -999.250000  -999.250000  -999.250000 51.060070038 124.74874878 1.2709808350 51.999000549 0.4080200195 1.0810087919
 1980.8067627 5.0000000000  -999.250000  -999.250000  -999.250000  -999.250000 47.404621124 123.18560028 1.2469775677 50.751201630 0.4329719543 1.0920176506
 1980.9591064 5.0000000000  -999.250000  -999.250000  -999.250000  -999.250000 45.688575745 120.19165039 1.2189847231 52.252403259 0.3980152011 1.1139702797
 1981.1115723 5.0000000000  -999.250000  -999.250000  -999.250000  -999.250000 46.408027649 124.75560760 1.1999888420 55.247795105 0.4170721173 1.0769711733
 1981.2639160 5.0000000000  -999.250000  -999.250000  -999.250000  -999.250000 48.938774109 131.74870300 1.1859928370 52.498096466 0.5070986152 1.0409944057
 1981.4163818 5.0000000000  -999.250000  -999.250000  -999.250000  -999.250000 49.903347015 130.12280273 1.1769856215 50.125598907 0.6300240159 1.0340192318
 1981.5687256 5.0000000000  -999.250000  -999.250000  -999.250000  -999.250000 48.246570587 128.74153137 1.1679928303 50.500499725 0.6449406743 1.0460079908
 1981.7211914 5.0000000000  -999.250000  -999.250000  -999.250000  -999.250000 43.973503113 118.19760895 1.1589840651 51.128402710 0.5713650584 1.0559952259
 1981.8735352 5.0000000000  -999.250000  -999.250000  -999.250000  -999.250000 46.782299042 124.19326019 1.1490088701 53.248195648 0.7989143133 1.0529879332
 1982.0260010 5.0000000000  -999.250000  -999.250000  -999.250000  -999.250000 48.413105011 130.74580383 1.1600096226 50.997196198 0.6916220784 1.0379760265
 1982.1783447 6.0000000000  -999.250000  -999.250000  -999.250000  -999.250000 52.844478607 128.12500000 1.1659944057 49.250400543 0.4560047984 1.0229984522
 1982.3306885 6.0000000000  -999.250000  -999.250000  -999.250000  -999.250000 53.439327240 128.12870789 1.1590183973 49.754001617 0.4622658193 1.0210232735
 1982.4831543 6.0000000000  -999.250000  -999.250000  -999.250000  -999.250000 55.092998505 132.75421143 1.1820304394 54.746395111 0.7940986156 1.0500079393
 1982.6354980 6.0000000000  -999.250000  -999.250000  -999.250000  -999.250000 53.840148926 137.98698425 1.2200400829 50.249000549 0.9166957736 1.0600343943
 1982.7879639 6.0000000000  -999.250000  -999.250000  -999.250000  -999.250000 49.028068542 121.74983978 1.2700408697 49.002002716 0.5370593071 1.1030545235
 1982.9403076 6.0000000000  -999.250000  -999.250000  -999.250000  -999.250000 45.373550415 121.57136536 1.3210279942 51.499801636 0.6110272408 1.1711032391
 1983.0927734 6.0000000000  -999.250000  -999.250000  -999.250000  -999.250000 43.567131042 132.00120544 1.3560440540 51.250202179 0.6450672746 1.2999430895
 1983.2451172 6.0000000000  -999.250000  -999.250000  -999.250000  -999.250000 48.721904755 133.49758911 1.4110103846 51.500202179 0.7301465869 1.2289206982
 1983.3975830 6.0000000000  -999.250000  -999.250000  -999.250000  -999.250000 52.352607727 130.47837830 1.4239760637 51.747398376 2.1574444771 1.1299920082
 1983.5499268 5.0000000000  -999.250000  -999.250000  -999.250000  -999.250000 57.715446472 116.99388885 1.4089744091 50.125801086 0.5639711618 1.1250112057
 1983.7023926 5.0000000000  -999.250000  -999.250000  -999.250000  -999.250000 53.272991180 109.38621521 1.3769215345 51.125400543 0.5285732746 1.1390304565
 1983.8547363 5.0000000000  -999.250000  -999.250000  -999.250000  -999.250000 48.276790619 116.37580109 1.3279814720 51.377704620 0.8861265779 1.1579791307
 1984.0072021 5.0000000000  -999.250000  -999.250000  -999.250000  -999.250000 43.027545929 117.38401031 1.3050464392 54.743194580 1.0435180664 1.1319167614
 1984.1595459 5.0000000000  -999.250000  -999.250000  -999.250000  -999.250000 40.874797821 123.00910950 1.3340103626 50.499099731 0.7427363396 1.0800185204
 1984.3118896 5.0000000000  -999.250000  -999.250000  -999.250000  -999.250000 40.625476837 134.37100220 1.3469976187 49.376899719 0.4139727950 1.1029696465
 1984.4643555 5.0000000000  -999.250000  -999.250000  -999.250000  -999.250000 41.221706390 129.37164307 1.3439952135 51.749599457 0.3799879849 1.0649929047
 1984.6166992 5.0000000000  -999.250000  -999.250000  -999.250000  -999.250000 44.597705841 125.18349457 1.3379784822 51.250801086 0.3650104105 1.0560127497
 1984.7691650 5.0000000000  -999.250000  -999.250000  -999.250000  -999.250000 49.218376160 119.55724335 1.3109478951 52.248897552 0.3779991865 1.0720609426
 1984.9215088 5.0000000000  -999.250000  -999.250000  -999.250000  -999.250000 48.437648773 112.37595367 1.2459959984 50.874298096 0.3770144284 1.1480336189
 1985.0739746 5.0000000000  -999.250000  -999.250000  -999.250000  -999.250000 47.999198914 113.56911469 1.2410368919 50.000301361 0.3950088322 1.1899591684
 1985.2263184 5.0000000000  -999.250000  -999.250000  -999.250000  -999.250000 46.999324799 121.19837189 1.2870479822 50.377304077 0.4059855640 1.1389520168
 1985.3787842 5.0000000000  -999.250000  -999.250000  -999.250000  -999.250000 46.157649994 134.12800598 1.3470448256 53.246997833 0.3879936039 1.0790096521
 1985.5311279 6.0000000000  -999.250000  -999.250000  -999.250000  -999.250000 47.185970306 136.00199890 1.3749864101 51.373897552 0.3840200305 1.0850336552
 1985.6835938 6.0000000000  -999.250000  -999.250000  -999.250000  -999.250000 44.661903381 138.48638916 1.3579599857 50.002201080 0.4091377258 1.1270400286
 1985.8359375 6.0000000000  -999.250000  -999.250000  -999.250000  -999.250000 48.344352722 129.99468994 1.3329895735 51.375900269 0.4953020811 1.1519927979
 1985.9884033 6.0000000000  -999.250000  -999.250000  -999.250000  -999.250000 48.786151886 123.37370300 1.3200048208 52.498798370 0.8721280694 1.1429808140
 1986.1407471 6.0000000000  -999.250000  -999.250000  -999.250000  -999.250000 52.000076294 122.56591034 1.3229870796 51.750801086 0.9517884851 1.1310000420
 1986.2930908 6.0000000000  -999.250000  -999.250000  -999.250000  -999.250000 52.095878601 126.19105530 1.3069968224 52.749401093 0.6879279613 1.1309968233
 1986.4455566 6.0000000000  -999.250000  -999.250000  -999.250000  -999.250000 54.435668945 129.99694824 1.3029791117 52.000099182 0.5982852578 1.1269807816
 1986.5979004 6.0000000000  -999.250000  -999.250000  -999.250000  -999.250000 51.531497955 126.18640137 1.2769615650 52.124298096 0.9545324445 1.1029896736
 1986.7503662 6.0000000000  -999.250000  -999.250000  -999.250000  -999.250000 52.154895782 124.18624878 1.2289935350 51.250701904 1.6184535027 1.0900312662
 1986.9027100 6.0000000000  -999.250000  -999.250000  -999.250000  -999.250000 50.782699585 122.00189972 1.2210191488 52.125701904 0.9367821813 1.1290096045
 1987.0551758 6.0000000000  -999.250000  -999.250000  -999.250000  -999.250000 52.904922485 124.37370300 1.2449864149 53.000202179 0.6648613811 1.1410112381
 1987.2075195 6.0000000000  -999.250000  -999.250000  -999.250000  -999.250000 51.562973022 122.75860596 1.2280240059 53.249599457 0.4920000136 1.1549247503
 1987.3599854 6.0000000000  -999.250000  -999.250000  -999.250000  -999.250000 51.528446198 133.50320435 1.2580200434 52.749698639 0.4919960201 1.0609911680
 1987.5123291 6.0000000000  -999.250000  -999.250000  -999.250000  -999.250000 48.342998505 137.49159241 1.2829703093 52.375400543 0.4870424569 1.0500231981
 1987.6647949 6.0000000000  -999.250000  -999.250000  -999.250000  -999.250000 47.090499878 126.97467804 1.2458671331 52.874198914 0.5397614241 1.0790112019
