# LAS format log file from PETREL
# Project units are specified as depth units
#==================================================================
~Version information
VERS.   2.0:
WRAP.   NO:
#==================================================================
~Well
STRT .m      1809.0520020 :
STOP .m      4407.6245117 :
STEP .m     0.00000000 :
NULL .        -999.250000 :
COMP.           : COMPANY
WELL.  35/3-2   : WELL
FLD.            : FIELD
LOC.            : LOCATION
SRVC.           : SERVICE COMPANY
DATE.  2018-09-11 14:48:58   : Log Export Date {yyyy-MM-dd HH:mm:ss}
PROV.           : PROVINCE
UWI.   35/3-2   : UNIQUE WELL ID
API.            : API NUMBER
#==================================================================
~Curve
DEPT .m                   : DEPTH
Lithology_geolink ._      : Lithology_geolink
CALI .in                  : CALI
DRHO .g/cm3               : DRHO
NPHI .m3/m3               : NPHI
RHOB .g/cm3               : RHOB
GR .gAPI                  : GR
DTC .us/ft                : DTC
RDEP .ohm.m               : RDEP
SP .mV                    : SP
RSHA .ohm.m               : RSHA
RMED .ohm.m               : RMED
~Parameter
#==================================================================
~Ascii
# ...
 2671.7883301 5.0000000000 16.493999481 0.0289919861 0.2478090674 2.4570000172 44.280998230 95.375999451 2.3959069252 95.550201416 2.8537821770 2.5180463791
 2671.9406738 5.0000000000 16.476999283 0.0230192002 0.2391876876 2.4609999657 46.687999725 95.999298096 2.3378493786 95.674804688 2.0946731567 2.5468845367
 2672.0932617 5.0000000000 16.541000366 0.0180080123 0.2402981669 2.4649999142 49.594001770 95.565605164 2.2438559532 95.550003052 1.8906544447 2.4746735096
 2672.2456055 6.0000000000 16.573999405 0.0170016028 0.2494852692 2.4560000896 53.094001770 96.377601624 2.1989278793 95.550003052 1.7832275629 2.3728125095
 2672.3979492 6.0000000000 16.604999542 0.0179983974 0.2619101107 2.4549999237 55.250000000 97.999992371 2.1539342403 95.547996521 1.9262579679 2.2558302879
 2672.5502930 6.0000000000 16.631000519 0.0199935995 0.2646412849 2.4590001106 51.847999573 98.002899170 2.1129245758 94.301002502 2.7101171017 2.1499104500
 2672.7028809 6.0000000000 16.754999161 0.0130112180 0.2621240616 2.4549999237 53.125000000 98.563003540 2.0659904480 94.925399780 2.7821614742 2.0938305855
 2672.8552246 6.0000000000 16.707000732 0.0100048073 0.2702868879 2.4460000992 49.405998230 98.563301086 2.0629742146 95.052009583 2.5198509693 2.0410783291
 2673.0075684 6.0000000000 16.665000916 0.0149919866 0.2765799165 2.4430000782 52.000000000 98.748397827 2.0470094681 96.300003052 1.8053284883 2.0900063515
 2673.1599121 6.0000000000 16.888000488 0.0199839994 0.2682268620 2.4440000057 53.905998230 97.749702454 2.0530159473 96.300201416 2.6318635941 2.0942502022
 2673.3125000 6.0000000000 17.045999527 0.0120128207 0.2509177625 2.4509999752 53.500000000 97.561203003 2.0630288124 96.424606323 1.9269920588 2.2502367496
 2673.4648438 6.0000000000 16.885000229 -0.000979167 0.2378509492 2.4460000992 52.187999725 96.999000549 2.0719857216 96.300804138 2.8592596054 2.3241071701
 2673.6171875 6.0000000000 16.722000122 -0.004993590 0.2434809357 2.4400000572 49.094001770 96.375602722 2.0629935265 96.798797607 3.0214903355 2.3909583092
 2673.7695313 6.0000000000 16.701999664 -0.004001603 0.2592247427 2.4330000877 52.905998230 96.749992371 2.0590143204 96.050407410 3.3268108368 2.3648476601
 2673.9218750 6.0000000000 16.697999954 0.0029776001 0.2741621435 2.4330000877 55.937999725 96.751296997 2.0680224895 96.299400330 3.2086315155 2.2698493004
 2674.0744629 6.0000000000 16.680999756 0.0039983978 0.2806197107 2.4360001087 53.812999725 97.561203003 2.0821633339 95.925003052 2.9802992344 2.1757376194
 2674.2268066 6.0000000000 16.715999603 0.0129855769 0.2707658410 2.4449999332 52.437999725 97.001205444 2.1330847740 95.923599243 3.3844742775 2.0939712524
 2674.3791504 6.0000000000 16.736000061 0.0070096157 0.2591086924 2.4500000477 49.530998230 97.748092651 2.1860835552 95.050201416 3.0566442013 2.0761170387
 2674.5314941 6.0000000000 16.709999084 0.0079968004 0.2462113500 2.4709999561 52.023998260 96.555801392 2.2380847931 95.176002502 2.8353815079 2.1491811275
 2674.6840820 5.0000000000 16.732999802 0.0179839730 0.2359963208 2.5090000629 49.750000000 95.180992126 2.2911438942 95.797203064 3.0733327866 2.2624673843
 2674.8364258 5.0000000000 16.784999847 0.0249887817 0.2213534713 2.5360000134 46.094001770 92.993179321 2.3359999657 94.925605774 3.1772308350 2.4084568024
 2674.9887695 5.0000000000 16.784000397 0.0399759598 0.2155093402 2.5420000553 41.562999725 88.750999451 2.3360369205 95.300605774 3.3214647770 2.6934759617
 2675.1411133 5.0000000000 16.768999100 0.0380063988 0.2224576622 2.5230000019 40.500000000 89.376312256 2.3590223789 95.675407410 3.6121602058 2.9899871349
 2675.2937012 5.0000000000 16.766000748 0.0459871814 0.2390434146 2.5079998970 42.280998230 90.195594788 2.3730735779 95.923805237 4.3407855034 2.9805696011
 2675.4460449 5.0000000000 16.806999207 0.0430048108 0.2553838193 2.4890000820 46.780998230 92.568809509 2.3960382938 95.549804688 6.1392149925 2.5345144272
 2675.5983887 5.0000000000 16.829999924 0.0479919873 0.2619394958 2.4800000191 50.000000000 96.187004089 2.4198877811 95.425407410 3.7802915573 2.2319166660
 2675.7507324 5.0000000000 16.846000671 0.0410112180 0.2609316409 2.4749999046 53.530998230 95.565307617 2.3499052525 95.675201416 3.3389182091 2.1801154613
 2675.9030762 5.0000000000 16.799999237 0.0350192003 0.2569926381 2.4719998837 53.094001770 96.999298096 2.2908909321 95.801803589 3.2873830795 2.2520978451
 2676.0556641 5.0000000000 16.806999207 0.0330032036 0.2486733347 2.4779999256 55.405998230 96.563011169 2.2228240967 96.924201965 2.9047024250 2.3130927086
 2676.2080078 5.0000000000 16.892999649 0.0429839753 0.2403033972 2.4949998856 52.219001770 96.563308716 2.1679439545 96.675003052 3.4347321987 2.3420529366
 2676.3603516 5.0000000000 16.920000076 0.0449967980 0.2345591933 2.5120000839 52.655998230 96.749389648 2.1330158710 96.676605225 3.2682065964 2.3749616146
 2676.5126953 5.0000000000 16.893999100 0.0300479997 0.2367928028 2.4979999065 50.792999268 96.376296997 2.1430141926 97.668991089 3.3971619606 2.3508942127
 2676.6652832 5.0000000000 16.868999481 0.0250080135 0.2445276082 2.4800000191 54.405998230 96.565612793 2.1521086693 93.921401978 3.4974334240 2.2847056389
 2676.8176270 5.0000000000 16.861000061 0.0269967951 0.2473055720 2.4700000286 54.094001770 97.374000549 2.1860496998 92.803207397 3.3199791908 2.1930129528
 2676.9699707 5.0000000000 16.891000748 0.0399791673 0.2532604635 2.4820001125 52.094001770 96.749992371 2.2170159817 94.801406860 2.6845464706 2.2011041641
 2677.1223145 5.0000000000 16.924999237 0.0449840017 0.2631582618 2.4979999065 48.405998230 96.749389648 2.2269647121 95.674598694 3.0254070759 2.2660624981
 2677.2749023 5.0000000000 16.920000076 0.0489935875 0.2660254538 2.5090000629 48.280998230 96.376197815 2.2049262524 95.425399780 3.2799568176 2.3051600456
 2677.4272461 5.0000000000 16.909000397 0.0390160270 0.2633043826 2.4979999065 47.562999725 96.749389648 2.1819310188 95.550201416 3.5776827335 2.3550224304
 2677.5795898 5.0000000000 16.937000275 0.0260208342 0.2581083477 2.4690001011 52.219001770 96.374397278 2.1388828754 95.675407410 3.3799519539 2.3690094948
 2677.7319336 7.0000000000 16.909000397 0.0120224357 0.2690524161 2.4409999847 51.344001770 96.000297546 2.0659887791 95.924804688 3.3500719070 2.3747837543
 2677.8842773 7.0000000000 17.000999451 0.0120000001 0.2822178006 2.4400000572 56.937999725 96.190505981 2.0590560436 95.800201416 3.3949103355 2.2396938801
 2678.0368652 7.0000000000 17.017000198 0.0100032045 0.3009600043 2.4479999542 58.750000000 97.757804871 2.0939872265 95.923400879 3.3382863998 2.0486576557
 2678.1892090 7.0000000000 16.937000275 0.0199839734 0.3164551854 2.4730000496 61.905998230 100.18859863 2.0899870396 95.425407410 3.1145560741 1.9420224428
 2678.3415527 7.0000000000 16.895999908 0.0279871803 0.3141537309 2.4920001030 57.750000000 100.56169128 2.0819840431 95.675407410 2.2157948017 1.9560992718
 2678.4938965 7.0000000000 16.875000000 0.0389648005 0.2954101563 2.5120000839 53.609001160 99.740806580 2.0719871521 95.924598694 2.7111506462 2.0182337761
 2678.6464844 6.0000000000 16.937999725 0.0300144218 0.2668057978 2.5169999599 48.687999725 97.738601685 2.0639903545 95.673805237 2.8060464859 2.1643071175
 2678.7988281 6.0000000000 16.934000015 0.0270048082 0.2575547695 2.5179998875 48.155998230 94.190208435 2.0610835552 95.301002502 3.1319870949 2.2601346970
 2678.9511719 6.0000000000 16.895000458 0.0230064094 0.2648682296 2.5069999695 48.125000000 95.562705994 2.1130752563 95.925605774 3.1253671646 2.3437900543
 2679.1035156 6.0000000000 16.896999359 0.0220031999 0.2732331753 2.4900000095 51.625000000 95.375000000 2.1601154804 96.299804688 3.9757564068 2.2129776478
 2679.2561035 6.0000000000 16.950000763 0.0100192307 0.2727408409 2.4719998837 52.594001770 95.387199402 2.2322881222 96.173805237 3.2003600597 2.1990447044
 2679.4084473 6.0000000000 16.940000534 0.0020128207 0.2627060711 2.4619998932 53.530998230 99.184799194 2.3219904900 95.799400330 3.0014693737 2.2132532597
