# LAS format log file from PETREL
# Project units are specified as depth units
#==================================================================
~Version information
VERS.   2.0:
WRAP.   NO:
#==================================================================
~Well
STRT .m      1809.0520020 :
STOP .m      4407.6245117 :
STEP .m     0.00000000 :
NULL .        -999.250000 :
COMP.           : COMPANY
WELL.  35/3-2   : WELL
FLD.            : FIELD
LOC.            : LOCATION
SRVC.           : SERVICE COMPANY
DATE.  2018-09-11 14:48:58   : Log Export Date {yyyy-MM-dd HH:mm:ss}
PROV.           : PROVINCE
UWI.   35/3-2   : UNIQUE WELL ID
API.            : API NUMBER
#==================================================================
~Curve
DEPT .m                   : DEPTH
Lithology_geolink ._      : Lithology_geolink
CALI .in                  : CALI
DRHO .g/cm3               : DRHO
NPHI .m3/m3               : NPHI
RHOB .g/cm3               : RHOB
GR .gAPI                  : GR
DTC .us/ft                : DTC
RDEP .ohm.m               : RDEP
SP .mV                    : SP
RSHA .ohm.m               : RSHA
RMED .ohm.m               : RMED
~Parameter
#==================================================================
~Ascii
# ...
 3705.5175781 2.0000000000 15.482000351 0.0219999999 0.1589629203 2.5550000668 38.094001770 76.749992371 6.5349998474 111.30000305 4.7760000229 11.156000137
 3705.6699219 6.0000000000 15.501999855 0.0230000000 0.1578916758 2.5710000992 45.875000000 77.750000000 6.1909999847 112.80000305 5.3460001945 12.468999863
 3705.8222656 6.0000000000 15.277000427 0.0299999993 0.1784141064 2.5799999237 53.219001770 77.999992371 5.9019999504 112.80000305 7.3369998932 10.555000305
 3705.9748535 6.0000000000 14.819000244 0.0280000009 0.2165888399 2.5750000477 62.812999725 78.563003540 5.8280000687 112.05000305 7.4920001030 6.1909999847
 3706.1271973 7.0000000000 14.649999619 0.0170000009 0.2507153153 2.5559999943 65.375000000 80.187995911 4.8750000000 110.17500305 4.1269998550 4.6479997635
 3706.2795410 7.0000000000 14.836000443 0.0149999997 0.2690806091 2.5329999924 71.625000000 83.188003540 4.3200001717 108.17500305 3.3029999733 4.3049998283
 3706.4318848 7.0000000000 14.953000069 0.0230000000 0.2737849653 2.5030000210 74.375000000 82.999992371 3.8459999561 112.30000305 3.7339999676 4.2459998131
 3706.5844727 7.0000000000 14.642998695 0.0379999988 0.2814776599 2.4370000362 76.500000000 84.563003540 3.7230000496 112.42500305 3.5250000954 4.1290001869
 3706.7368164 7.0000000000 14.182001114 0.0560000017 0.2918433845 2.3489999771 74.250000000 85.375000000 3.5739998817 111.92500305 3.6070001125 4.0700001717
 3706.8891602 7.0000000000 14.095999718 0.0769999996 0.2987289727 2.2980000973 72.563003540 84.563003540 3.3770000935 111.30000305 3.7209999561 4.1680002213
 3707.0415039 7.0000000000 14.639000893 0.1030000001 0.2964836359 2.3020000458 69.801002502 82.004997253 3.3359999657 112.17500305 3.2860000134 4.0359997749
 3707.1938477 7.0000000000 14.944999695 0.1110000014 0.2860734165 2.3259999752 66.125000000 83.563003540 3.2950000763 112.55000305 1.2569999695 4.3670001030
 3707.3464355 7.0000000000 15.053000450 0.1040000021 0.2862097323 2.3310000896 66.938003540 82.999992371 3.3589999676 113.17500305 2.7039999962 4.2620000839
 3707.4987793 7.0000000000 14.864999771 0.0909999982 0.2983005941 2.3259999752 65.563003540 84.375007629 3.5060000420 113.42500305 0.8240000010 4.1840000153
 3707.6511230 7.0000000000 14.694000244 0.0729999989 0.3141745627 2.3210000992 64.313003540 85.000000000 3.6150000095 113.55000305 0.8410000205 4.1799998283
 3707.8034668 7.0000000000 14.642998695 0.0450000018 0.3195727468 2.3220000267 57.344001770 85.750000000 3.7950000763 114.30000305 0.7549999952 4.4060001373
 3707.9560547 2.0000000000 14.281999588 0.0199999996 0.3054027557 2.3229999542 50.125000000 84.375007629 4.2379999161 116.30000305 1.2580000162 4.8280000687
 3708.1083984 2.0000000000 14.204999924 0.0130000003 0.2851325274 2.3299999237 41.250000000 82.563003540 4.3480000496 112.17500305 1.2330000401 5.7420001030
 3708.2607422 2.0000000000 14.300000191 0.0130000003 0.2710225880 2.3420000076 35.530998230 80.375000000 4.7420001030 112.17500305 1.0249999762 6.8239998817
 3708.4130859 2.0000000000 14.468000412 0.0049999999 0.2752662897 2.3570001125 31.937999725 78.563003540 4.9730000496 110.42500305 0.9810000062 6.5659999847
 3708.5656738 2.0000000000 14.754999161 -0.004000000 0.2852240205 2.3829998970 33.530998230 79.563003540 5.2699999809 114.92500305 1.2209999561 5.6599998474
 3708.7180176 2.0000000000 15.112000465 -0.002000000 0.2842316031 2.4070000648 33.655998230 79.000000000 5.7189998627 116.42500305 1.0130000114 5.0590000153
 3708.8703613 2.0000000000 14.812000275 0.0040000002 0.2764125466 2.4140000343 33.219001770 81.188003540 5.8159999847 116.17500305 1.8309999704 4.8949999809
 3709.0227051 2.0000000000 14.053000450 0.0060000001 0.2749123871 2.4019999504 30.784999847 84.193000793 5.7769999504 116.30000305 3.1970000267 4.9569997787
 3709.1752930 2.0000000000 13.774999619 0.0070000002 0.2774699926 2.3870000839 26.968999863 86.000000000 5.8049998283 116.92500305 2.2409999371 4.9299998283
 3709.3276367 2.0000000000 13.551999092 0.0099999998 0.2748100162 2.3849999905 28.937999725 88.563003540 5.5079998970 117.42500305 2.4730000496 5.0229997635
 3709.4799805 2.0000000000 13.345000267 0.0289999992 0.2643400133 2.3970000744 35.655998230 87.000000000 4.6250000000 117.67500305 2.5529999733 5.0939998627
 3709.6323242 2.0000000000 13.376000404 0.0560000017 0.2677100003 2.4000000954 47.530998230 83.375000000 4.3159999847 119.67500305 2.0869998932 5.1129999161
 3709.7846680 7.0000000000 13.518000603 0.0689999983 0.2958900034 2.3770000935 60.280998230 87.375000000 4.0199999809 108.67500305 2.1960000992 4.6799998283
 3709.9372559 7.0000000000 13.581999779 0.0590000004 0.3259800076 2.3480000496 66.188003540 85.000000000 3.5329999924 107.67500305 2.6329998970 3.9549999237
 3710.0895996 7.0000000000 13.564000130 0.0280000009 0.3473400176 2.3359999657 68.188003540 86.000000000 3.3910000324 104.92500305 2.2829999924 3.7339999676
 3710.2419434 7.0000000000 13.463001251 0.0299999993 0.3519900143 2.3699998856 67.750000000 87.375000000 3.1909999847 108.42500305 0.7829999924 3.5959999561
 3710.3942871 7.0000000000 13.451000214 0.0399999991 0.3511799872 2.4110000134 69.250000000 86.375000000 3.0099999905 111.05000305 1.3769999743 3.5980000496
 3710.5468750 7.0000000000 13.473999977 0.0460000001 0.3408900201 2.4379999638 70.125000000 86.375000000 3.0290000439 114.05000305 2.0759999752 3.7539999485
 3710.6992188 7.0000000000 13.512000084 0.0350000001 0.3225100040 2.4489998817 69.625000000 85.375000000 3.1909999847 114.42500305 1.6829999685 3.9219999313
 3710.8515625 7.0000000000 13.583999634 0.0189999994 0.3214199841 2.4539999962 66.125000000 87.999992371 3.3910000324 114.55000305 2.0220000744 4.0000000000
 3711.0039063 7.0000000000 13.328000069 0.0170000009 0.3386099935 2.4619998932 59.680000305 88.185997009 3.5869998932 114.67500305 2.3120000362 4.0300002098
 3711.1564941 5.0000000000 12.989000320 0.0280000009 0.3380099833 2.4600000381 47.530998230 87.750000000 3.9059998989 116.17500305 1.7430000305 3.7049999237
 3711.3088379 5.0000000000 12.862000465 0.0309999995 0.3081600070 2.4419999123 37.030998230 89.375007629 4.3550000191 116.42500305 2.5999999046 3.7829999924
 3711.4611816 5.0000000000 12.821999550 0.0439999998 0.2658399940 2.4260001183 33.155998230 89.563003540 4.2969999313 117.05000305 1.8370000124 4.0390000343
 3711.6135254 5.0000000000 13.347000122 0.0640000030 0.2324500084 2.4130001068 40.312999725 87.000000000 3.9000000954 116.42500305 2.5250000954 4.9489998817
 3711.7658691 5.0000000000 13.984998703 0.0839999989 0.1987500042 2.4059998989 52.437999725 85.750000000 3.8029999733 116.55000305 3.2290000916 5.9650001526
 3711.9184570 5.0000000000 13.902000427 0.0949999988 0.1931300014 2.3940000534 64.375000000 85.375000000 3.7500000000 116.05000305 3.5050001144 5.1449999809
 3712.0708008 7.0000000000 13.901000023 0.0869999975 0.2347299904 2.3800001144 65.750000000 87.000000000 3.6270000935 115.30000305 2.7439999580 4.1560001373
 3712.2231445 7.0000000000 14.041999817 0.0790000036 0.3000999987 2.3670001030 67.375000000 87.375000000 3.5199999809 110.42500305 0.9959999919 3.4379999638
 3712.3754883 7.0000000000 13.996999741 0.0599999987 0.3394699991 2.3429999352 63.687999725 89.000000000 3.4040000439 105.55000305 1.1879999638 3.3459999561
 3712.5280762 7.0000000000 13.660999298 0.0350000001 0.3428900242 2.3229999542 64.000000000 89.000000000 3.3199999332 114.30000305 1.1959999800 3.5680000782
 3712.6804199 6.0000000000 13.647999763 0.0390000008 0.3326800168 2.3410000801 61.405998230 87.188003540 3.1840000153 114.80000305 1.2100000381 3.8770000935
 3712.8327637 6.0000000000 13.859000206 0.0520000011 0.3099200130 2.3740000725 58.250000000 87.375000000 3.3110001087 114.67500305 1.2410000563 4.5199999809
 3712.9851074 6.0000000000 13.821001053 0.0469999984 0.2835000157 2.3819999695 56.876998901 87.191001892 3.4419999123 115.05000305 2.0339999199 5.0000000000
 3713.1376953 6.0000000000 13.984998703 0.0179999992 0.2723799944 2.3699998856 47.875000000 88.188003540 3.6089999676 115.17500305 3.4690001011 4.9099998474
