# LAS format log file from PETREL
# Project units are specified as depth units
#==================================================================
~Version information
VERS.   2.0:
WRAP.   NO:
#==================================================================
~Well
STRT .m      1809.0520020 :
STOP .m      4407.6245117 :
STEP .m     0.00000000 :
NULL .        -999.250000 :
COMP.           : COMPANY
WELL.  35/3-2   : WELL
FLD.            : FIELD
LOC.            : LOCATION
SRVC.           : SERVICE COMPANY
DATE.  2018-09-11 14:48:58   : Log Export Date {yyyy-MM-dd HH:mm:ss}
PROV.           : PROVINCE
UWI.   35/3-2   : UNIQUE WELL ID
API.            : API NUMBER
#==================================================================
~Curve
DEPT .m                   : DEPTH
Lithology_geolink ._      : Lithology_geolink
CALI .in                  : CALI
DRHO .g/cm3               : DRHO
NPHI .m3/m3               : NPHI
RHOB .g/cm3               : RHOB
GR .gAPI                  : GR
DTC .us/ft                : DTC
RDEP .ohm.m               : RDEP
SP .mV                    : SP
RSHA .ohm.m               : RSHA
RMED .ohm.m               : RMED
~Parameter
#==================================================================
~Ascii
# ...
 3013.7741699 5.0000000000 14.635998726 -0.002000000 0.2970899940 2.4819746017 49.848300934 96.000602722 2.0837697983 99.048400879 3.1563696861 2.0450992584
 3013.9265137 5.0000000000 14.637999535 -0.002000000 0.2957099974 2.4740142822 51.190254211 96.187301636 2.0117726326 98.549598694 2.9599759579 2.0761041641
 3014.0788574 5.0000000000 14.635000229 0.0000000000 0.2968100011 2.4830272198 52.590347290 95.748794556 1.8699567318 98.299598694 2.9453477859 2.1410753727
 3014.2312012 5.0000000000 14.630999565 0.0130000003 0.2995599806 2.5000495911 50.309642792 94.998695374 1.8430112600 98.050201416 3.1619038582 2.1881489754
 3014.3837891 6.0000000000 14.640000343 0.0329999998 0.2968499959 2.5310637951 48.222034454 94.184188843 1.8500959873 98.171401978 3.1018655300 2.2812719345
 3014.5361328 6.0000000000 14.635998726 0.0480000004 0.2805800140 2.5510032177 49.172542572 92.995697021 1.8801506758 97.050201416 3.0602884293 2.3662738800
 3014.6884766 6.0000000000 14.637999535 0.0540000014 0.2651300132 2.5529568195 52.625602722 92.188606262 1.9741827250 97.175201416 3.2405321598 2.5369904041
 3014.8408203 6.0000000000 14.645998955 0.0430000015 0.2601200044 2.5259568691 53.000701904 92.563301086 2.0882372856 97.300605774 3.5720319748 2.5310480595
 3014.9931641 6.0000000000 14.640999794 0.0160000008 0.2687700093 2.4989953041 53.434936523 92.749694824 2.2361249924 97.674400330 3.5917050838 2.5606396198
 3015.1457520 6.0000000000 14.569000244 -0.009000000 0.2659800053 2.4960801601 51.522415161 92.555206299 2.3140447140 97.299201965 3.4066560268 2.3362560272
 3015.2980957 6.0000000000 14.480999947 -0.017000001 0.2448800057 2.5210256577 50.090995789 91.368591309 2.3278846741 97.051002502 2.9884645939 2.4162225723
 3015.4504395 6.0000000000 14.439000130 -0.011000000 0.2158799917 2.5370094776 48.218200684 87.373100281 2.2557308674 97.675804138 3.2793831825 2.5556843281
 3015.6027832 6.0000000000 14.418999672 0.0099999998 0.2062299848 2.5429871082 47.723358154 86.189903259 2.0879247189 98.175003052 4.1434998512 2.9816122055
 3015.7553711 6.0000000000 14.468998909 0.0240000002 0.2224700004 2.5349423885 50.430698395 87.384002686 2.0410127640 98.174201965 5.6961684227 2.7387936115
 3015.9077148 6.0000000000 14.470999718 0.0130000003 0.2499900013 2.5169935226 48.153045654 90.194404602 2.0448799133 97.925003052 4.1888284683 2.3625335693
 3016.0600586 6.0000000000 14.439000130 0.0080000004 0.2704899907 2.5130193233 46.310043335 94.186698914 1.9698445797 97.925003052 2.8361296654 2.0720481873
 3016.2124023 6.0000000000 14.501999855 0.0120000001 0.2756800056 2.5250272751 44.475612640 93.376602173 1.8728990555 97.926803589 2.9164440632 2.1020336151
 3016.3649902 6.0000000000 14.531000137 0.0309999995 0.2771899998 2.5419585705 48.598201752 94.377624512 1.8096030951 99.050003052 2.5741279125 2.1225454807
 3016.5173340 6.0000000000 14.564001083 0.0280000009 0.2803100049 2.5289568901 49.905696869 95.194198608 1.6858077049 99.049804688 3.8583557606 1.9809086323
 3016.6696777 6.0000000000 14.512000084 0.0189999994 0.2870100141 2.5019857883 49.716846466 96.567817688 1.5659358501 98.925407410 2.8341026306 1.9240144491
 3016.8220215 6.0000000000 14.522000313 0.0260000005 0.2865500152 2.4929952621 48.375251770 99.560798645 1.5260753632 99.173797607 2.8979647160 1.9328221083
 3016.9743652 6.0000000000 14.522999763 0.0270000007 0.2883900106 2.4899983406 48.537597656 98.188606262 1.5729502439 98.424400330 2.8756825924 1.8221362829
 3017.1269531 6.0000000000 14.512000084 0.0250000004 0.2910799980 2.4889969826 52.642120361 98.565399170 1.5420864820 98.048805237 2.6769790649 1.9068464041
 3017.2792969 6.0000000000 14.501000404 0.0179999992 0.2971999943 2.4880175591 50.498546600 99.000000000 1.5691522360 97.674598694 2.3591537476 1.8589758873
 3017.4316406 6.0000000000 14.545999527 0.0219999999 0.2886900008 2.4990065098 49.586688995 98.997695923 1.6641699076 97.424804688 2.4555833340 1.8441137075
 3017.5839844 6.0000000000 14.506999969 0.0140000004 0.2777400017 2.5030064583 45.040313721 97.560096741 1.7701506615 97.298797607 2.8189215660 1.9151922464
 3017.7365723 6.0000000000 14.444000244 0.0120000001 0.2701700032 2.5070319176 50.842403412 95.747596741 1.8644800186 96.550399780 2.7701888084 2.0353872776
 3017.8889160 6.0000000000 14.430000305 0.0109999999 0.2642799914 2.5170288086 50.340644836 94.992286682 2.0140752792 96.677207947 2.8295240402 2.1567482948
 3018.0412598 6.0000000000 14.418000221 0.0170000009 0.2414999902 2.5350208282 48.242038727 90.181884766 2.0610001087 98.049804688 3.1562964916 2.6236104965
 3018.1936035 6.0000000000 14.411999702 0.0160000008 0.2085499913 2.5480225086 43.281147003 86.370796204 2.0609648228 97.925605774 3.3426587582 3.0054183006
 3018.3461914 5.0000000000 14.409999847 0.0299999993 0.1882200092 2.5620319843 43.385120392 83.750045776 2.0391569138 98.300003052 4.3787136078 3.8885488510
 3018.4985352 5.0000000000 14.406999588 0.0489999987 0.2073900104 2.5719904900 46.541542053 83.772384644 2.0880465508 98.300201416 5.2247371674 3.7471103668
 3018.6508789 5.0000000000 14.406000137 0.0630000010 0.2498800159 2.5659711361 48.754108429 88.379806519 2.1171875000 98.425003052 5.6803331375 3.1915545464
 3018.8032227 5.0000000000 14.409999847 0.0540000014 0.2864199877 2.5479888916 51.317707062 91.381408691 2.2340624332 98.424598694 3.3950879574 2.2905735970
 3018.9555664 5.0000000000 14.421000481 0.0430000015 0.3001399934 2.5410094261 54.244792938 95.373397827 2.2731137276 98.175407410 2.8266682625 2.0249023438
 3019.1081543 5.0000000000 14.482999802 0.0329999998 0.2880100012 2.5470318794 50.976699829 94.366607666 2.3436992168 98.426200867 2.6217629910 1.9648416042
 3019.2604980 5.0000000000 14.522000313 0.0209999997 0.2542999983 2.5570142269 43.712192535 91.743583679 2.2502036095 98.799201965 3.1714839935 2.2277164459
 3019.4128418 5.0000000000 14.505000114 0.0099999998 0.2090099901 2.5660369396 39.466445923 87.741989136 2.3773190975 98.299598694 3.4747419357 2.6749551296
 3019.5651855 5.0000000000 14.515000343 0.0120000001 0.1695199907 2.5890431404 37.879508972 82.745590210 2.5764503479 98.048202515 4.5621023178 3.2711138725
 3019.7177734 16.000000000 14.468998909 0.0250000004 0.1546799988 2.6160094738 40.683799744 79.991004944 2.8583953381 96.929801941 5.8744096756 3.9663856030
 3019.8701172 16.000000000 14.428999901 0.0309999995 0.1556299925 2.6189758778 39.371894836 77.189605713 3.2938237190 98.424201965 6.6259808540 4.3980813026
 3020.0224609 5.0000000000 14.420000076 0.0260000005 0.1569399983 2.6039729118 37.435794830 78.192108154 3.8073348999 97.925003052 7.2358765602 4.4489760399
 3020.1748047 5.0000000000 14.411000252 0.0179999992 0.1512300074 2.5869934559 36.063652039 80.748100281 4.0157079697 97.924400330 6.5355429649 4.4337930679
 3020.3273926 5.0000000000 14.411000252 0.0130000003 0.1437800080 2.5830447674 36.474525452 79.561782837 3.8327777386 97.549606323 6.2499980927 4.3050894737
 3020.4797363 5.0000000000 14.413000107 0.0089999996 0.1347500086 2.5970239639 38.198642731 79.177505493 3.4513411522 97.425003052 5.9381203651 4.3332805634
 3020.6320801 5.0000000000 14.421999931 0.0179999992 0.1320800036 2.6119856834 40.474159241 77.005111694 3.0407178402 97.425605774 6.0137724876 4.5073041916
 3020.7844238 5.0000000000 14.456000328 0.0219999999 0.1508899927 2.6029150486 43.695362091 80.193099976 2.8646378517 97.801208496 6.4974999428 4.0729293823
 3020.9367676 5.0000000000 14.538000107 0.0140000004 0.1893799901 2.5499134064 48.285404205 83.382011414 2.6385929585 98.548202515 8.0509166718 3.4045543671
 3021.0893555 6.0000000000 14.595999718 -0.002000000 0.2399599999 2.4959168434 51.031101227 87.767997742 2.3845360279 97.425399780 5.4993357658 2.5029120445
 3021.2416992 6.0000000000 14.628000259 -0.012000000 0.2702499926 2.4700143337 51.062347412 93.377906799 2.2395288944 97.548797607 3.1119711399 2.1638221741
 3021.3940430 6.0000000000 14.696000099 -0.012000000 0.2819899917 2.4790208340 50.655998230 95.188598633 1.9458957911 96.801208496 3.0940337181 2.0531618595
