# LAS format log file from PETREL
# Project units are specified as depth units
#==================================================================
~Version information
VERS.   2.0:
WRAP.   NO:
#==================================================================
~Well
STRT .m      1809.0520020 :
STOP .m      4407.6245117 :
STEP .m     0.00000000 :
NULL .        -999.250000 :
COMP.           : COMPANY
WELL.  35/3-2   : WELL
FLD.            : FIELD
LOC.            : LOCATION
SRVC.           : SERVICE COMPANY
DATE.  2018-09-11 14:48:58   : Log Export Date {yyyy-MM-dd HH:mm:ss}
PROV.           : PROVINCE
UWI.   35/3-2   : UNIQUE WELL ID
API.            : API NUMBER
#==================================================================
~Curve
DEPT .m                   : DEPTH
Lithology_geolink ._      : Lithology_geolink
CALI .in                  : CALI
DRHO .g/cm3               : DRHO
NPHI .m3/m3               : NPHI
RHOB .g/cm3               : RHOB
GR .gAPI                  : GR
DTC .us/ft                : DTC
RDEP .ohm.m               : RDEP
SP .mV                    : SP
RSHA .ohm.m               : RSHA
RMED .ohm.m               : RMED
~Parameter
#==================================================================
~Ascii
# ...
 2842.7812500 6.0000000000 14.522999763 0.0390016027 0.3455672562 2.2639918327 50.469001770 99.185401917 1.6599534750 98.300605774 1.3609919548 1.8091250658
 2842.9335938 6.0000000000 15.099000931 0.0310128201 0.3423950374 2.2589807510 48.030998230 97.564903259 1.6310400963 98.674400330 1.3565368652 1.8869967461
 2843.0859375 6.0000000000 15.895000458 0.0110639995 0.3395889997 2.2470047474 45.312999725 98.745910645 1.6559711695 98.300407410 1.6901378632 1.8851778507
 2843.2385254 6.0000000000 16.340999603 0.0229807701 0.3440927565 2.2499744892 48.563999176 96.208763123 1.6381728649 98.548400879 1.1524015665 1.9959073067
 2843.3908691 6.0000000000 16.149999619 0.0349807702 0.3670132458 2.2419919968 48.969001770 99.561401367 1.6920561790 98.049003601 0.9668493867 1.9670624733
 2843.5432129 6.0000000000 14.937000275 0.0379951894 0.3714728951 2.2369904518 53.219001770 98.564002991 1.7270480394 97.425003052 1.4967676401 2.0058205128
 2843.6955566 6.0000000000 14.470000267 0.0220512003 0.3703735471 2.2310175896 50.062999725 99.190490723 1.7569711208 97.423797607 1.9731554985 1.8940256834
 2843.8481445 6.0000000000 14.836998940 0.0140128210 0.3487446904 2.2420194149 49.834999084 100.73381805 1.7389103174 96.674606323 0.8241919875 1.9100543261
 2844.0004883 6.0000000000 15.062000275 0.0239839740 0.3501277268 2.2480094433 47.187999725 98.184097290 1.7109470367 96.550003052 0.8852660060 1.9271234274
 2844.1528320 6.0000000000 15.022000313 0.0419711545 0.3475940824 2.2539870739 48.780998230 95.763519287 1.6779903173 96.549201965 1.6736634970 2.0038638115
 2844.3051758 6.0000000000 14.430000305 0.0519839749 0.3574741483 2.2459552288 49.687999725 104.18189240 1.6719343662 96.050201416 1.4646538496 1.9189326763
 2844.4575195 6.0000000000 14.500000000 0.0410352014 0.3573404849 2.2179806232 49.905998230 100.37980652 1.6310545206 96.178207397 1.8712819815 1.8766217232
 2844.6101074 6.0000000000 14.756999969 0.0559759624 0.3580688238 2.2060031891 52.875000000 103.37300110 1.6651983261 98.172203064 1.4231872559 1.6415568590
 2844.7624512 6.0000000000 14.890999794 0.0689791664 0.3425049782 2.2070207596 53.375000000 102.74238586 1.7269358635 97.300201416 1.1706779003 1.8149871826
 2844.9147949 6.0000000000 14.902000427 0.0839759633 0.3294808567 2.2200000286 53.750000000 98.003196716 1.6870064735 97.423797607 1.5931875706 1.8071362972
 2845.0671387 6.0000000000 15.456000328 0.0700448006 0.3241271079 2.2200081348 50.437999725 99.998405457 1.6910032034 96.678405762 1.7102932930 1.8919438124
 2845.2197266 6.0000000000 15.825000763 0.0490336530 0.3285029531 2.2250735760 51.817001343 99.012374878 1.6930799484 98.805999756 1.8930448294 1.8570640087
 2845.3720703 6.0000000000 15.984999657 0.0410128199 0.3373358548 2.2480430603 53.250000000 100.99900055 1.7179583311 100.65737152 1.9056745768 1.8771041632
 2845.5244141 6.0000000000 15.737000465 0.0469903834 0.3324278891 2.2749681473 52.562999725 100.37369537 1.6920865774 89.688621521 1.0799920559 1.9419375658
 2845.6767578 6.0000000000 15.402999878 0.0370320007 0.3509804308 2.2549889088 52.000000000 99.561676025 1.7461395264 98.174598694 1.0758013725 1.9030144215
 2845.8293457 6.0000000000 14.704999924 0.0290128198 0.3511498272 2.2479710579 51.391998291 98.718063354 1.8328464031 97.925003052 1.5764784813 1.9121311903
 2845.9816895 6.0000000000 14.916999817 0.0369871818 0.3332687020 2.2390336990 47.094001770 93.752601624 1.7849502563 97.925003052 2.0355513096 1.9530752897
 2846.1340332 16.000000000 15.710000038 0.0599631406 0.2918464243 2.2600016594 37.125000000 95.380111694 1.7540479898 97.923797607 1.1345736980 2.0001971722
 2846.2863770 16.000000000 15.994000435 0.0849599391 0.2814066708 2.2610142231 35.187999725 98.559494019 1.7840977907 97.175407410 2.1152677536 2.1228621006
 2846.4387207 16.000000000 15.201001167 0.0899840072 0.3085328639 2.2700271606 37.250000000 96.377906799 1.8449759483 97.423400879 2.2814023495 2.0369806290
 2846.5913086 16.000000000 14.706000328 0.1019807681 0.3283283710 2.2870094776 45.530998230 98.193801880 1.8303264380 96.426605225 1.9087792635 2.0246543884
 2846.7436523 16.000000000 14.623999596 0.0940128192 0.3381343186 2.2899806499 45.344001770 99.997093201 1.9320385456 96.925003052 1.8392468691 1.9170224667
 2846.8959961 5.0000000000 14.609000206 0.0780256391 0.3335973024 2.2780017853 44.312999725 98.176483154 1.9557338953 96.925003052 1.3698141575 1.9313205481
 2847.0483398 5.0000000000 14.586999893 0.0710223988 0.3320947886 2.2790081501 42.405998230 91.001602173 1.7899230719 96.926002502 1.2540047169 2.1312468052
 2847.2009277 5.0000000000 14.777000427 0.0739951953 0.3224954307 2.2839839458 40.102001190 91.996009827 1.7419872284 97.550003052 1.2624943256 2.2844817638
 2847.3532715 5.0000000000 15.581999779 0.0730016008 0.3065056503 2.2789647579 42.780998230 91.381713867 1.7379391193 97.550407410 2.9734728336 2.1225881577
 2847.5056152 5.0000000000 15.604999542 0.0610192306 0.3111524880 2.2569758892 46.375000000 95.569412231 1.6999824047 97.799804688 2.6422677040 1.8657933474
 2847.6579590 5.0000000000 15.447999954 0.0420607999 0.3297004998 2.2420194149 54.187999725 99.569702148 1.6890417337 97.675605774 0.9402515888 1.7369871140
 2847.8105469 5.0000000000 15.461000443 0.0469919853 0.3443765342 2.2540128231 57.396999359 103.73442078 1.7148079872 98.048004150 1.0976911783 1.7289648056
 2847.9628906 5.0000000000 15.555998802 0.0479983985 0.3426228762 2.2580046654 54.586688995 101.37400055 1.6549246311 97.424598694 1.3126505613 1.7179791927
 2848.1152344 5.0000000000 15.576001167 0.0599807687 0.3432888985 2.2609870434 50.028945923 100.74779510 1.6079647541 97.175201416 1.0958093405 1.7050673962
 2848.2675781 5.0000000000 15.428999901 0.0570048094 0.3431602418 2.2529952526 48.752052307 99.379211426 1.5860320330 97.299804688 1.6000705957 1.7470432520
 2848.4199219 5.0000000000 15.032999992 0.0560032018 0.3458214402 2.2500369549 50.033252716 101.99869537 1.6059582233 97.176406860 1.6440609694 1.7741169930
 2848.5725098 6.0000000000 15.659999847 0.0709759668 0.3293963671 2.2730736732 51.427299500 101.19180298 1.5801759958 98.049606323 1.6798304319 1.8471280336
 2848.7248535 6.0000000000 15.762999535 0.0799855739 0.3312170804 2.2960240841 48.093952179 102.37149811 1.6350880861 97.925003052 1.0045752525 1.8870736361
 2848.8771973 6.0000000000 15.935000420 0.0979711488 0.3320786357 2.3109648228 48.059394836 100.19020081 1.6901010275 97.924804688 1.3627195358 1.9328733683
 2849.0295410 6.0000000000 15.664999008 0.0670991987 0.3411010206 2.2890048027 45.815402985 101.56140137 1.7530801296 97.800003052 1.1886938810 1.8540865183
 2849.1821289 6.0000000000 15.737000465 0.0610096157 0.3391032517 2.2920992374 47.311100006 100.55201721 1.8030159473 97.798805237 1.6214896441 1.9079327583
 2849.3344727 6.0000000000 15.574999809 0.0669903830 0.3294355273 2.3229968548 47.030097961 98.998695374 1.8080128431 97.424598694 1.7737789154 1.8872691393
 2849.4868164 6.0000000000 15.260999680 0.0799791664 0.3167403638 2.3209681511 46.464344025 98.186096191 1.8159952164 97.174201965 1.6364967823 2.0550370216
 2849.6391602 6.0000000000 15.277999878 0.0909648016 0.3127128780 2.3009247780 43.567619324 97.000015259 1.8129663467 96.676002502 1.9465048313 2.0780000687
 2849.7917480 6.0000000000 14.965999603 0.0670384616 0.3270868957 2.2539551258 46.452575684 97.017784119 1.7920032740 97.298400879 2.2575759888 2.0778496265
 2849.9440918 6.0000000000 14.890000343 0.0560176298 0.3362552822 2.2400000095 48.818256378 99.751304626 1.7930368185 96.800407410 1.1914904118 2.0309197903
 2850.0964355 6.0000000000 15.071000099 0.0420224369 0.3323063552 2.2400305271 52.089443207 100.56560516 1.8159230947 97.050201416 1.4966666698 1.9809246063
 2850.2487793 6.0000000000 15.465000153 0.0469999984 0.3213176429 2.2590143681 49.246994019 102.18569946 1.7679358721 97.175605774 1.2882933617 1.9338718653
 2850.4011230 6.0000000000 16.194000244 0.0489999987 0.3140333295 2.2679982185 47.378005981 100.74939728 1.7280304432 97.550407410 0.8488782048 1.8538974524
