# LAS format log file from PETREL
# Project units are specified as depth units
#==================================================================
~Version information
VERS.   2.0:
WRAP.   NO:
#==================================================================
~Well
STRT .m      1809.0520020 :
STOP .m      4407.6245117 :
STEP .m     0.00000000 :
NULL .        -999.250000 :
COMP.           : COMPANY
WELL.  35/3-2   : WELL
FLD.            : FIELD
LOC.            : LOCATION
SRVC.           : SERVICE COMPANY
DATE.  2018-09-11 14:48:58   : Log Export Date {yyyy-MM-dd HH:mm:ss}
PROV.           : PROVINCE
UWI.   35/3-2   : UNIQUE WELL ID
API.            : API NUMBER
#==================================================================
~Curve
DEPT .m                   : DEPTH
Lithology_geolink ._      : Lithology_geolink
CALI .in                  : CALI
DRHO .g/cm3               : DRHO
NPHI .m3/m3               : NPHI
RHOB .g/cm3               : RHOB
GR .gAPI                  : GR
DTC .us/ft                : DTC
RDEP .ohm.m               : RDEP
SP .mV                    : SP
RSHA .ohm.m               : RSHA
RMED .ohm.m               : RMED
~Parameter
#==================================================================
~Ascii
# ...
 3876.5104980 6.0000000000 9.1719999313 -0.001000000 0.3734899759 2.6370000839 83.625000000 89.750000000 2.8220000267 124.00299835 4.3200001717 3.5120000839
 3876.6628418 6.0000000000 9.1680002213 -0.006000000 0.3721799850 2.6270000935 85.250000000 90.187995911 2.7620000839 123.92500305 4.6950001717 3.4470000267
 3876.8151855 6.0000000000 9.1619997025 -0.005000000 0.3678200245 2.6189999580 85.500000000 90.000000000 2.7460000515 123.81600189 4.8520002365 3.4730000496
 3876.9675293 6.0000000000 9.1560001373 -0.003000000 0.3658800125 2.6089999676 86.813003540 89.750000000 2.6459999084 123.80000305 4.9730000496 3.5569999218
 3877.1201172 6.0000000000 9.1549997330 -0.002000000 0.3702399731 2.6010000706 83.688003540 90.000000000 2.6429998875 123.51899719 5.1050000191 3.7149999142
 3877.2724609 6.0000000000 9.1610002518 -0.002000000 0.3780199885 2.5969998837 83.000000000 90.563003540 2.6459999084 123.15899658 5.4530000687 3.7400000095
 3877.4248047 6.0000000000 9.1669998169 -0.002000000 0.3817299902 2.5929999352 80.625000000 90.563003540 2.6640000343 123.39399719 5.1599998474 3.7360000610
 3877.5771484 6.0000000000 9.1599998474 -0.004000000 0.3821099997 2.5799999237 80.688003540 90.375000000 2.6600000858 123.53399658 4.5549998283 3.7400000095
 3877.7294922 6.0000000000 9.1459999084 -0.009000000 0.3820100129 2.5639998913 76.688003540 90.375000000 2.7130000591 123.31600189 4.3949999809 3.7109999657
 3877.8820801 6.0000000000 9.1350002289 -0.013000000 0.3834699988 2.5559999943 77.688003540 90.375000000 2.7360000610 123.78399658 4.9530000687 3.6889998913
 3878.0344238 6.0000000000 9.1319999695 -0.016000001 0.3855699897 2.5620000362 84.375000000 90.750000000 2.7639999390 123.83100128 5.2230000496 3.6840000153
 3878.1867676 6.0000000000 9.1330003738 -0.014000000 0.3860200047 2.5739998817 88.938003540 90.750000000 2.7829999924 123.92500305 5.0229997635 3.7070000172
 3878.3391113 6.0000000000 9.1350002289 -0.010000000 0.3844600022 2.5840001106 89.063003540 90.375000000 2.7869999409 123.92500305 4.5079998970 3.8239998817
 3878.4916992 6.0000000000 9.1359996796 -0.004000000 0.3872900009 2.5889999866 88.063003540 90.187995911 2.7790000439 124.09700012 5.0000000000 3.9920001030
 3878.6440430 6.0000000000 9.1379995346 -0.007000000 0.3968899846 2.5840001106 84.000000000 90.187995911 2.8010001183 124.15899658 5.5739998817 4.0739998817
 3878.7963867 6.0000000000 9.1400003433 -0.014000000 0.4057400227 2.5739998817 83.125000000 90.000000000 2.7709999084 123.89399719 5.6840000153 3.9960000515
 3878.9487305 6.0000000000 9.1409997940 -0.016000001 0.4050099850 2.5720000267 82.438003540 90.187995911 2.7809998989 123.95600128 5.2150001526 3.8380000591
 3879.1013184 6.0000000000 9.1429996490 -0.011000000 0.3979399800 2.5799999237 84.313003540 90.563003540 2.8090000153 124.31600189 5.0310001373 3.7070000172
 3879.2536621 6.0000000000 9.1450004578 -0.004000000 0.3920300007 2.5880000591 84.750000000 90.563003540 2.8689999580 124.89399719 4.8359999657 3.6600000858
 3879.4060059 6.0000000000 9.1459999084 -0.003000000 0.3847299814 2.5910000801 84.313003540 90.750000000 2.9769999981 125.50300598 4.6599998474 3.6800000668
 3879.5583496 6.0000000000 9.1269998550 -0.013000000 0.3734599948 2.6019999981 80.875000000 90.996093750 3.1879999638 123.17498016 5.1840000153 3.6603846550
 3879.7109375 6.0000000000 9.1059999466 -0.017999999 0.3669500053 2.6530001163 73.938003540 88.533599854 3.3570001125 123.15574646 5.1370000839 3.9031841755
 3879.8632813 6.0000000000 9.0920000076 -0.008000000 0.3724499941 2.7530000210 63.155998230 79.370803833 3.4200000763 122.14485168 5.2069997787 4.8980607986
 3880.0156250 16.000000000 9.1099996567 0.0199999996 0.3812900186 2.8369998932 63.875000000 76.746788025 3.4649999142 122.67572784 5.4609999657 6.8067083359
 3880.1679688 16.000000000 9.1440000534 0.0410000011 0.3829199970 2.8410000801 70.125000000 74.753906250 3.5269999504 123.12647247 55.937999725 7.8694100380
 3880.3203125 6.0000000000 9.1540002823 0.0219999999 0.3754900098 2.7730000019 77.125000000 77.197616577 3.6210000515 122.17748260 12.421999931 6.8764715195
 3880.4729004 6.0000000000 9.1450004578 -0.004000000 0.3691299856 2.7269999981 78.188003540 83.179603577 3.7290000916 123.72474670 6.6760001183 5.2990736961
 3880.6252441 6.0000000000 9.1309995651 -0.003000000 0.3698099852 2.7360000610 73.375000000 80.564605713 3.6779999733 124.58049774 6.6760001183 4.6989135742
 3880.7775879 6.0000000000 9.1280002594 0.0149999997 0.3754700124 2.7539999485 77.750000000 81.563713074 3.5329999924 124.26866913 5.0630002022 4.6447243690
 3880.9299316 6.0000000000 9.1309995651 0.0289999992 0.3834699988 2.7330000401 83.750000000 82.004806519 3.3670001030 124.06710052 5.8550000191 4.4726619720
 3881.0825195 6.0000000000 9.1339998245 0.0270000007 0.3862499893 2.6760001183 92.313003540 85.008796692 3.2209999561 124.75315094 6.7579998970 4.2617731094
 3881.2348633 6.0000000000 9.1359996796 0.0199999996 0.3846900165 2.6210000515 92.250000000 87.748794556 3.1559998989 124.79747772 4.8829998970 4.1912822723
 3881.3872070 6.0000000000 9.1389999390 0.0120000001 0.3831900060 2.5859999657 87.375000000 87.001602173 3.1189999580 123.22212219 5.4770002365 4.3671011925
 3881.5395508 6.0000000000 9.1420001984 0.0040000002 0.3816699982 2.5659999847 85.188003540 88.000289917 3.1480000019 123.30030060 5.4219999313 4.4299550056
 3881.6921387 6.0000000000 9.1409997940 0.0010000000 0.3772400022 2.5639998913 82.438003540 88.188598633 3.2360000610 123.48600006 5.8319997787 4.4018273354
 3881.8444824 6.0000000000 9.1359996796 -0.001000000 0.3766799867 2.5729999542 82.125000000 88.375000000 3.3810000420 123.17725372 5.4219999313 4.3479614258
 3881.9968262 6.0000000000 9.1300001144 -0.005000000 0.3780499995 2.5850000381 78.375000000 88.374000549 3.5959999561 124.58164978 5.9140000343 4.3242692947
 3882.1491699 6.0000000000 9.1239995956 -0.011000000 0.3669800162 2.5999999046 72.688003540 87.744895935 3.7750000954 124.98614502 5.5000000000 4.4932518005
 3882.3015137 6.0000000000 9.1190004349 -0.014000000 0.3421599865 2.6389999390 67.188003540 84.553085327 3.8459999561 124.45668030 5.6640000343 5.2749037743
 3882.4541016 6.0000000000 9.1140003204 -0.011000000 0.3231399953 2.6930000782 68.563003540 78.373001099 3.8959999084 124.87870026 5.8590002060 6.4630126953
 3882.6064453 6.0000000000 9.1090002060 -0.006000000 0.3266400099 2.7239999771 78.000000000 77.753906250 3.9920001030 125.09718323 5.6680002213 7.0885095596
 3882.7587891 6.0000000000 9.1049995422 -0.006000000 0.3454400003 2.6970000267 86.250000000 80.200515747 4.1880002022 125.20550537 10.531000137 6.1584038734
 3882.9111328 6.0000000000 9.1129999161 -0.008000000 0.3678300083 2.6370000839 94.813003540 88.005699158 4.3670001030 124.89286804 5.6989998817 5.1638751030
 3883.0637207 7.0000000000 9.1250000000 -0.007000000 0.3885100186 2.5950000286 89.938003540 91.564407349 4.5120000839 124.19020081 7.7420001030 5.0877885818
 3883.2160645 7.0000000000 9.1359996796 -0.001000000 0.4076599777 2.5750000477 87.125000000 92.000602722 4.4730000496 123.94087219 7.5040001869 5.6456503868
 3883.3684082 7.0000000000 9.1350002289 0.0010000000 0.4210399985 2.5639998913 84.250000000 92.375297546 4.5040001869 123.86307526 7.7420001030 6.0512437820
 3883.5207520 7.0000000000 9.1289997101 -0.002000000 0.4261399806 2.5520000458 93.375000000 92.561096191 4.6989998817 124.53522491 7.9770002365 6.2031764984
 3883.6733398 7.0000000000 9.1230001450 -0.001000000 0.4213199914 2.5460000038 96.875000000 91.368598938 4.8200001717 125.29904938 8.1949996948 6.3132977486
 3883.8256836 7.0000000000 9.1210002899 0.0040000002 0.4123199880 2.5460000038 93.125000000 89.370498657 4.8239998817 125.00212097 7.1560001373 6.4062132835
 3883.9780273 7.0000000000 9.1199998856 0.0040000002 0.4000200033 2.5450000763 85.875000000 86.561408997 4.8319997787 124.45668030 7.5310001373 6.5394949913
 3884.1303711 7.0000000000 9.1579999924 -0.001000000 0.3868499994 2.5380001068 83.875000000 85.561401367 4.7729997635 124.87694550 7.0040001869 6.8482437134
