# LAS format log file from PETREL
# Project units are specified as depth units
#==================================================================
~Version information
VERS.   2.0:
WRAP.   NO:
#==================================================================
~Well
STRT .m      1809.0520020 :
STOP .m      4407.6245117 :
STEP .m     0.00000000 :
NULL .        -999.250000 :
COMP.           : COMPANY
WELL.  35/3-2   : WELL
FLD.            : FIELD
LOC.            : LOCATION
SRVC.           : SERVICE COMPANY
DATE.  2018-09-11 14:48:58   : Log Export Date {yyyy-MM-dd HH:mm:ss}
PROV.           : PROVINCE
UWI.   35/3-2   : UNIQUE WELL ID
API.            : API NUMBER
#==================================================================
~Curve
DEPT .m                   : DEPTH
Lithology_geolink ._      : Lithology_geolink
CALI .in                  : CALI
DRHO .g/cm3               : DRHO
NPHI .m3/m3               : NPHI
RHOB .g/cm3               : RHOB
GR .gAPI                  : GR
DTC .us/ft                : DTC
RDEP .ohm.m               : RDEP
SP .mV                    : SP
RSHA .ohm.m               : RSHA
RMED .ohm.m               : RMED
~Parameter
#==================================================================
~Ascii
# ...
 2329.8027344 6.0000000000 17.093999863 0.0490096137 0.3264037371 2.3430545330 42.905998230 109.37760925 1.4821074009 93.177810669 1.5705448389 1.5559198856
 2329.9553223 6.0000000000 17.090000153 0.0839999989 0.3379999995 2.3770833015 46.597656250 110.99420166 1.5489968061 94.925399780 1.2867662907 1.5062528849
 2330.1076660 5.0000000000 17.059000015 0.1119552031 0.3510490656 2.4029920101 48.877250671 109.18569946 1.5480208397 95.049400330 1.2142531872 1.5849182606
 2330.2600098 5.0000000000 17.246000290 0.1110016033 0.3479050696 2.3979151249 50.280998230 107.75130463 1.5609807968 94.674804688 1.3719967604 1.5341330767
 2330.4123535 5.0000000000 17.406000137 0.0630769208 0.3402223289 2.3449311256 45.562999725 108.56079865 1.5490015745 94.549804688 1.3705688715 1.6169134378
 2330.5649414 5.0000000000 17.437999725 0.0399999991 0.3380099833 2.3019521236 43.682842255 107.18980408 1.5499519110 94.424606323 1.7242896557 1.5632079840
 2330.7172852 5.0000000000 17.448999405 0.0340000018 0.3375200033 2.2869951725 40.471256256 107.75480652 1.5350255966 94.300407410 1.5021730661 1.6279358864
 2330.8696289 5.0000000000 17.288999557 0.0300063994 0.3406949043 2.2840192318 41.876899719 110.74719238 1.5509551764 94.550003052 0.9871153831 1.5879808664
 2331.0219727 5.0000000000 17.222999573 0.0210144222 0.3359476328 2.2960128784 43.062999725 109.00090027 1.5229535103 94.548797607 1.0589263439 1.5758669376
 2331.1745605 5.0000000000 17.277000427 0.0299999993 0.3306899965 2.3040990829 46.028995514 109.56180573 1.4939583540 93.801605225 1.0130448341 1.4930224419
 2331.3269043 5.0000000000 17.226999283 0.0560000017 0.3361899853 2.3350481987 44.778495789 109.19371033 1.4809230566 94.299598694 1.0277868509 1.4998557568
 2331.4792480 5.0000000000 17.156000137 0.0729727969 0.3650637269 2.3650257587 43.215602875 112.75070190 1.4329695702 94.052207947 1.5172483921 1.4100064039
 2331.6315918 5.0000000000 17.152000427 0.0640144274 0.3831510544 2.3809807301 41.094001770 113.18990326 1.4140048027 95.430809021 1.0489552021 1.4139664173
 2331.7839355 5.0000000000 17.180000305 0.0490240380 0.3840286136 2.3689453602 44.719001770 114.37721252 1.4169423580 99.034378052 1.0210064650 1.3930096626
 2331.9365234 5.0000000000 17.211000443 0.0329999998 0.3683100045 2.3349263668 47.500801086 115.73600006 1.3809968233 89.301200867 1.0254479647 1.3989168406
 2332.0888672 5.0000000000 17.323999405 0.0399888009 0.3779146075 2.3119616508 47.996700287 111.37820435 1.3800352812 89.672996521 1.1651874781 1.3730080128
 2332.2412109 5.0000000000 17.288999557 0.0180352554 0.3652503490 2.2879889011 45.937999725 113.37920380 1.4020673037 88.434417725 1.2819310427 1.3780368567
 2332.3935547 5.0000000000 17.417999268 0.0110112177 0.3666976392 2.2810256481 46.312999725 115.99098206 1.4439711571 94.299400330 1.2387723923 1.4011218548
 2332.5461426 5.0000000000 17.351999283 0.0140000004 0.3464400172 2.2970895767 48.187648773 110.37619781 1.4261375666 93.923400879 1.0968879461 1.4772304296
 2332.6984863 5.0000000000 17.347999573 0.0370000005 0.3593899906 2.3250305653 47.966094971 110.74719238 1.4690079689 93.425003052 1.0621699095 1.5489791632
 2332.8508301 5.0000000000 17.417999268 0.0619600005 0.3651008606 2.3439936638 46.156650543 108.99449158 1.4739855528 93.426002502 1.1689342260 1.5360561609
 2333.0031738 5.0000000000 17.426000595 0.0639967993 0.3698623776 2.3399856091 46.562999725 105.56941223 1.4650096893 94.051406860 1.7503750324 1.5709438324
 2333.1557617 5.0000000000 17.340000153 0.0529999994 0.3635300100 2.3309521675 45.157451630 109.56300354 1.4709711075 94.924606323 1.3610991240 1.5360192060
 2333.3081055 5.0000000000 17.382999420 0.0509999990 0.3637699783 2.3159518242 46.062297821 109.56400299 1.4619679451 94.800605774 1.3919422626 1.5419327021
 2333.4604492 5.0000000000 17.617000580 0.0549935997 0.3727855384 2.2859599590 45.627101898 110.18769836 1.4420160055 95.174804688 1.3555495739 1.4999375343
 2333.6127930 5.0000000000 17.465000153 0.0440176278 0.3806074560 2.2610223293 46.937999725 110.00280762 1.4520047903 95.049400330 1.0755385160 1.4609278440
 2333.7651367 5.0000000000 17.483999252 0.0489919856 0.3775649369 2.2750658989 45.562999725 111.74839020 1.4549888372 94.674201965 1.4106714725 1.4161121845
 2333.9177246 5.0000000000 17.292999268 0.0320000015 0.3719500005 2.3161375523 45.528495789 110.74940491 1.4480031729 94.177001953 1.2052671909 1.4858975410
 2334.0700684 5.0000000000 17.288999557 0.0469760001 0.3621956408 2.3590142727 43.971500397 110.56169891 1.4489551783 94.801002502 0.9771105647 1.4540336132
 2334.2224121 5.0000000000 17.136999130 0.0619759597 0.3582862616 2.3679776192 45.530998230 109.74749756 1.4209647179 95.415786743 1.0466698408 1.4749038219
 2334.3747559 5.0000000000 17.090000153 0.0669919923 0.3527888060 2.3539841175 42.905998230 108.19120789 1.3990480900 89.681816101 1.4637836218 1.4150561094
 2334.5273438 5.0000000000 17.069999695 0.0689999983 0.3492400050 2.3439617157 45.908000946 110.18919373 1.4291504622 93.927001953 1.3298511505 1.4501376152
 2334.6796875 5.0000000000 17.108999252 0.0419999994 0.3544999957 2.3319969177 47.158855438 110.56169891 1.4760512114 94.549400330 1.5946378708 1.4929920435
 2334.8320313 5.0000000000 17.125000000 0.0320160016 0.3513250947 2.3300158978 48.932098389 109.75099945 1.5080865622 94.174804688 1.3683797121 1.4881169796
 2334.9843750 5.0000000000 17.125000000 0.0409855768 0.3474162817 2.3400127888 45.250000000 110.37209320 1.5620497465 94.050201416 0.9826554656 1.5610159636
 2335.1369629 5.0000000000 17.159999847 0.0419999994 0.3543699980 2.3480703831 44.719001770 108.56040192 1.5929968357 94.175003052 1.3911408186 1.5710607767
 2335.2893066 5.0000000000 17.136999130 0.0540000014 0.3646300137 2.3699998856 44.726512909 107.75160217 1.5919711590 94.175605774 1.4346793890 1.5900288820
 2335.4416504 5.0000000000 17.007999420 0.0360287987 0.3613352776 2.3699855804 49.402248383 108.74459076 1.5739840269 94.549400330 1.2346329689 1.6080209017
 2335.5939941 5.0000000000 17.062999725 0.0310080126 0.3509666324 2.3609807491 47.062999725 105.37820435 1.5639326572 94.175605774 1.0054070950 1.6210160255
 2335.7463379 5.0000000000 17.222999573 0.0319983996 0.3496121168 2.3489518166 44.719001770 107.37209320 1.5219438076 94.549003601 0.6360704899 1.6309871674
 2335.8989258 5.0000000000 17.452999115 0.0230000000 0.3669200242 2.3189487457 40.032451630 105.56880188 1.4869424105 93.928604126 0.6800479889 1.6226768494
 2336.0512695 5.0000000000 17.527000427 0.0329839997 0.3794998527 2.3029630184 40.938098907 107.38111115 1.4689534903 95.050201416 0.6950400472 1.5218942165
 2336.2036133 5.0000000000 17.461000443 0.0170256421 0.3935275376 2.2800016403 41.000000000 111.19120789 1.4399696589 95.174400330 0.7203077078 1.4558557272
 2336.3559570 5.0000000000 17.378999710 0.0209935904 0.3846542835 2.2810080051 42.844001770 113.18890381 1.4209759235 94.800407410 0.9119823575 1.3659904003
 2336.5085449 5.0000000000 17.323999405 0.0120000001 0.3642599881 2.2860832214 42.843852997 113.75080109 1.4060224295 95.045204163 0.9015280008 1.3600192070
 2336.6608887 5.0000000000 17.253999710 0.0309999995 0.3475299776 2.3120112419 42.747196198 113.99519348 1.4129807949 93.551406860 1.0661714077 1.3660336733
 2336.8132324 5.0000000000 17.163999557 0.0160240009 0.3514337540 2.3190336227 41.000801086 110.99929810 1.4010304213 94.425003052 1.1731683016 1.3871217966
 2336.9655762 5.0000000000 17.117000580 0.0209919866 0.3415658474 2.3400382996 41.505607605 110.56330109 1.4200096130 94.424598694 1.2782291174 1.4630160332
 2337.1181641 5.0000000000 17.062999725 0.0260000005 0.3179900050 2.3640768528 45.006401062 110.74759674 1.4260927439 94.173400879 1.4200208187 1.4732720852
 2337.2705078 5.0000000000 17.082000732 0.0469999984 0.3214199841 2.3879630566 47.002403259 109.99639130 1.4550706148 93.675003052 1.1154342890 1.5579887629
 2337.4228516 5.0000000000 17.222999573 0.0240368005 0.3641914427 2.3649568558 48.498245239 107.75070190 1.4990512133 93.675605774 1.3864022493 1.5509759188
