# LAS format log file from PETREL
# Project units are specified as depth units
#==================================================================
~Version information
VERS.   2.0:
WRAP.   NO:
#==================================================================
~Well
STRT .m      1809.0520020 :
STOP .m      4407.6245117 :
STEP .m     0.00000000 :
NULL .        -999.250000 :
COMP.           : COMPANY
WELL.  35/3-2   : WELL
FLD.            : FIELD
LOC.            : LOCATION
SRVC.           : SERVICE COMPANY
DATE.  2018-09-11 14:48:58   : Log Export Date {yyyy-MM-dd HH:mm:ss}
PROV.           : PROVINCE
UWI.   35/3-2   : UNIQUE WELL ID
API.            : API NUMBER
#==================================================================
~Curve
DEPT .m                   : DEPTH
Lithology_geolink ._      : Lithology_geolink
CALI .in                  : CALI
DRHO .g/cm3               : DRHO
NPHI .m3/m3               : NPHI
RHOB .g/cm3               : RHOB
GR .gAPI                  : GR
DTC .us/ft                : DTC
RDEP .ohm.m               : RDEP
SP .mV                    : SP
RSHA .ohm.m               : RSHA
RMED .ohm.m               : RMED
~Parameter
#==================================================================
~Ascii
# ...
 4226.2685547  -999.250000 8.7030000687 0.0040000002 0.1173100024 2.6849999428 94.938003540 66.995391846 43.093021393 127.79389954 37.811195374 46.752254486
 4226.4208984  -999.250000 8.7010002136 -0.010000000 0.1032299995 2.6670000553 96.250000000 65.561805725 47.456691742 127.76200104 76.165733337 57.106681824
 4226.5732422  -999.250000 8.6990003586 -0.014000000 0.0952400044 2.6670000553 98.375000000 65.188003540 48.297000885 127.76200104 88.875000000 61.062999725
 4226.7255859  -999.250000 8.6999998093 -0.009000000 0.0988300070 2.6710000038 95.125000000 66.000000000 47.224998474 127.54399872 78.125000000 54.250000000
 4226.8779297  -999.250000 8.6960000992 -0.003000000 0.1087800041 2.6689999104 91.125000000 66.375000000 43.860000610 127.73099518 41.280998230 51.687999725
 4227.0302734  -999.250000 8.6979999542 -0.002000000 0.1173100024 2.6619999409 85.750000000 67.000000000 42.436000824 127.63700104 68.063003540 51.687999725
 4227.1831055  -999.250000 8.7019996643 -0.003000000 0.1183499992 2.6600000858 83.625000000 66.001808167 44.953708649 127.91890717 75.756111145 54.271835327
 4227.3354492  -999.250000 8.7060003281 -0.005000000 0.1165100038 2.6740000248 88.188003540 66.564407349 46.711154938 127.88689423 38.883262634 61.074619293
 4227.4877930  -999.250000 8.7100000381 -0.005000000 0.1164700016 2.6819999218 94.375000000 67.005607605 41.125766754 127.85559845 70.660255432 64.637123108
 4227.6401367  -999.250000 8.7110004425 0.0010000000 0.1295600086 2.6860001087 104.37500000 68.761016846 30.142402649 127.73119354 62.027496338 48.753501892
 4227.7924805  -999.250000 8.7110004425 0.0120000001 0.1544300020 2.6919999123 99.813003540 72.196189880 22.172641754 127.79409790 60.852733612 30.223392487
 4227.9448242  -999.250000 8.7089996338 0.0099999998 0.1740300059 2.6930000782 85.375000000 74.750000000 19.253000259 127.82498932 34.250000000 21.922000885
 4228.0971680  -999.250000 8.7040004730 -0.005000000 0.1868600100 2.6860001087 64.688003540 74.375000000 18.111000061 127.76200104 11.921999931 21.922000885
 4228.2495117  -999.250000 8.7030000687 -0.010000000 0.1964599937 2.6800000668 52.780998230 75.000000000 17.548000336 127.85600281 6.8010001183 25.641000748
 4228.4023438  -999.250000 8.7030000687 -0.015000000 0.2101799995 2.6649999619 49.094001770 76.182792664 18.417388916 127.76210022 9.9216985703 26.725538254
 4228.5546875  -999.250000 8.7030000687 -0.011000000 0.2158000022 2.6579999924 57.844001770 74.563003540 20.099246979 127.79380035 19.436647415 24.093147278
 4228.7070313  -999.250000 8.6960000992 -0.005000000 0.2008600086 2.6689999104 70.438003540 74.552787781 22.053230286 127.73129272 9.3714675903 23.855794907
 4228.8593750  -999.250000 8.6789999008 0.0000000000 0.1743399948 2.6849999428 83.000000000 71.360977173 25.550287247 127.82528687 8.3784961700 32.548877716
 4229.0117188  -999.250000 8.6619997025 -0.007000000 0.1487199962 2.6819999218 85.125000000 66.992813110 26.876575470 127.91870880 41.217250824 47.718353271
 4229.1640625  -999.250000 8.6549997330 -0.012000000 0.1324999928 2.6689999104 82.625000000 64.750000000 24.559999466 127.82498932 50.344001770 37.844001770
 4229.3164063  -999.250000 8.6569995880 -0.002000000 0.1230700016 2.6760001183 82.250000000 64.375000000 21.593999863 128.01199341 26.202999115 23.952999115
 4229.4687500  -999.250000 8.6510000229 0.0149999997 0.1181199998 2.6960000992 85.875000000 63.780998230 20.037000656 128.01199341 13.227000237 21.281000137
 4229.6210938  -999.250000 8.6479997635 0.0189999994 0.1184099987 2.6989998817 89.438003540 63.000000000 22.632999420 127.79399872 23.358999252 25.797000885
 4229.7739258  -999.250000 8.6529998779 0.0120000001 0.1171500012 2.6819999218 82.063003540 60.596504211 32.765716553 127.95009613 43.452323914 34.857872009
 4229.9262695  -999.250000 8.6619997025 0.0020000001 0.1075399965 2.6579999924 68.813003540 61.369293213 46.093498230 127.98081207 67.926284790 48.870090485
 4230.0786133  -999.250000 8.6639995575 -0.006000000 0.0916099995 2.6400001049 56.280998230 59.594001770 59.346931458 127.92060852 200.42788696 66.699722290
 4230.2309570  -999.250000 8.6599998474 -0.005000000 0.0810400024 2.6380000114 54.000000000 59.594001770 70.530494690 128.41799927 177.91305542 89.932189941
 4230.3833008  -999.250000 8.6510000229 0.0030000000 0.0768699944 2.6480000019 53.155998230 59.596496582 73.455833435 128.10580444 150.59594727 88.149757385
 4230.5356445  -999.250000 8.6479997635 0.0099999998 0.0753600001 2.6600000858 51.812999725 60.375000000 65.602996826 128.04400635 63.530998230 95.875000000
 4230.6879883  -999.250000 8.6479997635 0.0170000009 0.0762500018 2.6689999104 55.312999725 62.000000000 59.068000793 128.04400635 86.313003540 83.125000000
 4230.8403320  -999.250000 8.6529998779 0.0109999999 0.0838399976 2.6730000973 63.437999725 62.780998230 56.939998627 128.07499695 112.43800354 68.750000000
 4230.9931641  -999.250000 8.6569995880 0.0149999997 0.0913899988 2.6840000153 77.063003540 62.377002716 54.645420074 127.79259491 50.551177979 69.845855713
 4231.1455078  -999.250000 8.6510000229 0.0020000001 0.0913799927 2.6809999943 81.938003540 62.997398376 57.593658447 127.35601044 46.980972290 80.083236694
 4231.2978516  -999.250000 8.6479997635 -0.008000000 0.0849500000 2.6689999104 80.813003540 62.188598633 63.400825500 127.35700989 79.940605164 86.375000000
 4231.4501953  -999.250000 8.6479997635 -0.005000000 0.0825800002 2.6689999104 77.438003540 62.377002716 64.905723572 127.66869354 80.702125549 86.375000000
 4231.6025391  -999.250000 8.6479997635 0.0030000000 0.0895700008 2.6889998913 74.250000000 62.998699188 66.385391235 127.57429504 65.824623108 86.380607605
 4231.7548828  -999.250000 8.6479997635 0.0080000004 0.0942000002 2.7079999447 77.000000000 62.592102051 69.943534851 127.35520935 69.401359558 88.149757385
 4231.9072266  -999.250000 8.6479997635 -0.001000000 0.0871800035 2.6949999332 76.000000000 62.000000000 74.791000366 127.10599518 57.969001770 95.875000000
 4232.0595703  -999.250000 8.6479997635 -0.002000000 0.0695300028 2.6700000763 76.063003540 62.187999725 81.565002441 126.98100281 98.875000000 100.25000000
 4232.2119141  -999.250000 8.6479997635 -0.003000000 0.0543200001 2.6489999294 76.250000000 61.594001770 80.194000244 127.38700104 58.969001770 122.75000000
 4232.3647461  -999.250000 8.6560001373 -0.005000000 0.0512200035 2.6410000324 74.563003540 62.000602722 75.753044128 127.41979218 68.831031799 110.32191467
 4232.5170898  -999.250000 8.6669998169 -0.007000000 0.0568200015 2.6329998970 75.063003540 62.188598633 73.894317627 127.66869354 74.331230164 93.813003540
 4232.6694336  -999.250000 8.6540002823 -0.002000000 0.0662499964 2.6389999390 73.313003540 62.375000000 71.827987671 127.57489777 41.167469025 93.826423645
 4232.8217773  -999.250000 8.6479997635 0.0030000000 0.0732100010 2.6510000229 80.813003540 62.375701904 75.590003967 127.54359436 54.368091583 98.039665222
 4232.9741211  -999.250000 8.6479997635 0.0030000000 0.0718600005 2.6559998989 85.313003540 62.592700958 86.192703247 127.42058563 52.401409149 110.42572021
 4233.1264648  -999.250000 8.6520004272 -0.001000000 0.0641099960 2.6530001163 87.250000000 62.187999725 94.834999084 127.91900635 109.31300354 126.25000000
 4233.2788086  -999.250000 8.6630001068 0.0020000001 0.0574500002 2.6619999409 85.438003540 62.000000000 94.940002441 128.13699341 190.87500000 138.25000000
 4233.4311523  -999.250000 8.6730003357 0.0170000009 0.0607299991 2.6909999847 83.750000000 61.000000000 85.248001099 128.48100281 110.37500000 130.00000000
 4233.5834961  -999.250000 8.6800003052 0.0230000000 0.0698499978 2.7049999237 77.750000000 60.780998230 70.996002197 127.45000458 102.31300354 110.37500000
 4233.7363281  -999.250000 8.6840000153 0.0170000009 0.0773900002 2.7039999962 74.375000000 60.596504211 58.239604950 127.07470703 66.646934509 83.085937500
 4233.8886719  -999.250000 8.6789999008 0.0010000000 0.0822400004 2.6860001087 73.563003540 61.376300812 50.955436707 126.98090363 53.944709778 70.930992126
