# LAS format log file from PETREL
# Project units are specified as depth units
#==================================================================
~Version information
VERS.   2.0:
WRAP.   NO:
#==================================================================
~Well
STRT .m      1809.0520020 :
STOP .m      4407.6245117 :
STEP .m     0.00000000 :
NULL .        -999.250000 :
COMP.           : COMPANY
WELL.  35/3-2   : WELL
FLD.            : FIELD
LOC.            : LOCATION
SRVC.           : SERVICE COMPANY
DATE.  2018-09-11 14:48:58   : Log Export Date {yyyy-MM-dd HH:mm:ss}
PROV.           : PROVINCE
UWI.   35/3-2   : UNIQUE WELL ID
API.            : API NUMBER
#==================================================================
~Curve
DEPT .m                   : DEPTH
Lithology_geolink ._      : Lithology_geolink
CALI .in                  : CALI
DRHO .g/cm3               : DRHO
NPHI .m3/m3               : NPHI
RHOB .g/cm3               : RHOB
GR .gAPI                  : GR
DTC .us/ft                : DTC
RDEP .ohm.m               : RDEP
SP .mV                    : SP
RSHA .ohm.m               : RSHA
RMED .ohm.m               : RMED
~Parameter
#==================================================================
~Ascii
# ...
 4055.2756348 5.0000000000 8.4659996033 0.0000000000 0.2465699911 2.6300001144 61.344001770 77.000297546 4.6090002060 125.62718964 11.015999794 6.7912292480
 4055.4279785 5.0000000000 8.4689998627 0.0109999999 0.2538100183 2.5840001106 57.780998230 77.191810608 4.6250000000 125.13320923 9.1560001373 5.6867852211
 4055.5805664 5.0000000000 8.4729995728 0.0109999999 0.2489899993 2.5360000134 55.937999725 79.563598633 4.6250000000 128.37245178 6.4099998474 4.9294748306
 4055.7329102 5.0000000000 8.4759998322 0.0109999999 0.2335600108 2.5169999599 55.062999725 79.747497559 4.5939998627 126.64234161 5.9879999161 4.7663316727
 4055.8852539 5.0000000000 8.4799995422 0.0120000001 0.2143899947 2.5309998989 52.344001770 78.184799194 4.4489998817 125.61180878 5.8200001717 4.9740514755
 4056.0375977 5.0000000000 8.4860000610 0.0140000004 0.1998900026 2.5510001183 53.719001770 76.185401917 4.3159999847 125.48690033 5.2810001373 5.6297006607
 4056.1901855 5.0000000000 8.4980001450 0.0170000009 0.1952499896 2.5569999218 54.312999725 74.559806824 4.3319997787 125.42979431 8.1479997635 6.0654273033
 4056.3425293 5.0000000000 8.5120000839 0.0179999992 0.1970400065 2.5480000973 56.719001770 73.564308167 4.3790001869 126.92420197 7.8979997635 5.8865175247
 4056.4948730 5.0000000000 8.5249996185 0.0170000009 0.1963999867 2.5309998989 49.187999725 74.377601624 4.4299998283 126.42259216 5.5590000153 5.5860943794
 4056.6472168 2.0000000000 8.5360002518 0.0109999999 0.1913899928 2.5150001049 41.187999725 75.999000549 4.4219999313 124.92397308 6.6020002365 5.6452627182
 4056.7995605 2.0000000000 8.5469999313 0.0040000002 0.1872899979 2.5050001144 38.562999725 75.376304626 4.3400001526 124.28299713 6.6479997635 5.8085927963
 4056.9521484 2.0000000000 8.5570001602 -0.001000000 0.1891799867 2.4979999065 39.562999725 76.193000793 4.1950001717 123.66404724 6.4609999657 5.5533614159
 4057.1044922 2.0000000000 8.5679998398 -0.002000000 0.1950400025 2.4900000095 43.344001770 77.750701904 4.0700001717 125.24137878 5.7729997635 5.0423302650
 4057.2568359 2.0000000000 8.5780000687 -0.001000000 0.1988299936 2.4849998951 46.219001770 78.189903259 3.9839999676 127.97451019 6.0159997940 4.6247053146
 4057.4091797 2.0000000000 8.5889997482 -0.001000000 0.1998600066 2.4920001030 45.469001770 79.374710083 3.9360001087 129.53024292 4.5630002022 4.4409885406
 4057.5617676 2.0000000000 8.5989999771 -0.003000000 0.2021299899 2.5120000839 49.655998230 79.192405701 4.0120000839 127.18920898 4.6799998283 4.4342370033
 4057.7141113 2.0000000000 8.6070003510 -0.009000000 0.2048899978 2.5380001068 51.094001770 80.561698914 4.2459998131 126.62672424 5.2420001030 4.5083060265
 4057.8664551 2.0000000000 8.6149997711 -0.015000000 0.2056899965 2.5789999962 54.530998230 79.746498108 4.5739998817 125.83045959 5.2699999809 4.7003397942
 4058.0187988 2.0000000000 8.6160001755 -0.017000001 0.2045599967 2.6429998875 48.375000000 77.558494568 4.8400001526 125.49020386 5.6760001183 5.5379920006
 4058.1713867 2.0000000000 8.6029996872 -0.012000000 0.2030100077 2.7049999237 44.250000000 74.738601685 5.0630002022 127.48361206 4.1479997635 7.4105887413
 4058.3237305 2.0000000000 8.5850000381 -0.007000000 0.2016299963 2.7200000286 45.125000000 71.188003540 5.2579998970 126.42479706 10.069999695 10.087340355
 4058.4760742 2.0000000000 8.5729999542 -0.003000000 0.1987199932 2.6849999428 52.719001770 71.194412231 5.4489998817 126.30058289 16.858999252 10.919846535
 4058.6284180 2.0000000000 8.5749998093 0.0000000000 0.1942600012 2.6370000839 63.812999725 75.192504883 5.6329998970 126.65834045 14.828000069 9.5756587982
 4058.7807617 2.0000000000 8.5839996338 0.0020000001 0.1927499920 2.6040000916 66.063003540 78.003196716 5.8159999847 126.25457001 11.852000237 8.1155042648
 4058.9333496 2.0000000000 8.5970001221 0.0020000001 0.1978199929 2.5889999866 69.000000000 80.003196716 5.8400001526 127.23164368 10.015999794 7.1822495461
 4059.0856934 6.0000000000 8.6110000610 0.0020000001 0.2054499984 2.5889999866 70.688003540 81.000602722 5.6290001869 125.56911469 8.8520002365 6.6364054680
 4059.2380371 6.0000000000 8.6239995956 0.0010000000 0.2119500041 2.6010000706 75.625000000 81.374702454 5.2849998474 127.50441742 6.7420001030 6.2657051086
 4059.3903809 6.0000000000 8.6350002289 0.0020000001 0.2163100094 2.6159999371 72.500000000 81.190505981 4.9409999847 128.39234924 8.0310001373 6.0819997787
 4059.5429688 6.0000000000 8.6459999084 0.0000000000 0.2199600041 2.6199998856 72.125000000 82.751403809 4.6560001373 127.36150360 8.4379997253 6.0816254616
 4059.6953125 6.0000000000 8.6569995880 -0.001000000 0.2254800051 2.6089999676 75.375000000 83.190505981 4.4840002060 127.20810699 7.0040001869 5.9644618034
 4059.8476563 6.0000000000 8.6680002213 0.0010000000 0.2321199924 2.5950000286 82.938003540 84.750999451 4.4180002213 128.51553345 7.3520002365 5.6286125183
 4060.0000000 6.0000000000 8.6780004501 0.0030000000 0.2408799976 2.5850000381 85.313003540 85.376602173 4.4920001030 126.36310577 6.1449999809 5.3870177269
 4060.1525879 6.0000000000 8.6829996109 0.0030000000 0.2448500097 2.5810000896 84.313003540 86.369201660 4.6020002365 127.05059052 7.1329998970 5.3987998962
 4060.3049316 6.0000000000 8.6400003433 0.0000000000 0.2402300090 2.5759999752 82.375000000 84.561698914 4.7270002365 127.23689270 6.0590000153 5.6486263275
 4060.4572754 6.0000000000 8.5500001907 -0.003000000 0.2323399931 2.5680000782 77.938003540 83.747497559 4.9140000343 127.17389679 6.8520002365 6.0397820473
 4060.6096191 5.0000000000 8.4680004120 -0.005000000 0.2251499891 2.5659999847 70.063003540 82.184799194 5.1293382645 126.48416901 7.0992951393 6.5279021263
 4060.7619629 5.0000000000 8.4329996109 -0.007000000 0.2202300131 2.5780000687 60.375000000 80.184089661 5.3402886391 124.72560883 7.9069776535 7.0912261009
 4060.9145508 5.0000000000 8.4280004501 -0.006000000 0.2130400091 2.6029999256 52.969001770 77.743598938 5.5208096504 126.97335815 8.5176734924 7.8567376137
 4061.0668945 5.0000000000 8.4300003052 -0.001000000 0.2039800137 2.6300001144 52.875000000 75.750999451 5.7733697891 127.39453888 9.0427799225 8.3981008530
 4061.2192383 5.0000000000 8.4309997559 0.0070000002 0.2008299977 2.6370000839 57.937999725 76.376304626 6.0043382645 127.73639679 11.395733833 8.4600553513
 4061.3715820 5.0000000000 8.4320001602 0.0080000004 0.2052800059 2.6140000820 63.155998230 77.191505432 6.2151618004 127.36187744 9.9792051315 7.8701920509
 4061.5241699 5.0000000000 8.4340000153 0.0030000000 0.2125599980 2.5829999447 66.938003540 79.380805969 6.3157887459 127.28138733 6.9966015816 7.3668017387
 4061.6765137 5.0000000000 8.4350004196 0.0000000000 0.2171799988 2.5610001087 63.905998230 81.187004089 6.2496314049 126.47157288 8.4294862747 7.3052625656
 4061.8288574 5.0000000000 8.4359998703 0.0000000000 0.2166900039 2.5510001183 62.437999725 80.561698914 6.0197114944 126.20564270 8.1099777222 7.4691810608
 4061.9812012 5.0000000000 8.4370002747 0.0030000000 0.2132399976 2.5520000458 61.812999725 79.750000000 5.8398365974 125.98739624 8.7187738419 7.5816745758
 4062.1337891 5.0000000000 8.4390001297 0.0040000002 0.2100600004 2.5610001087 66.313003540 79.751998901 5.7376384735 126.23545837 8.5734624863 7.3781490326
 4062.2861328 5.0000000000 8.4399995804 0.0020000001 0.2116200030 2.5650000572 68.063003540 80.376304626 5.6248750687 125.75430298 7.1616344452 7.1126747131
 4062.4384766 5.0000000000 8.4409999847 -0.001000000 0.2175600082 2.5620000362 69.750000000 81.188606262 5.5469808578 126.56540680 8.1811761856 6.9098811150
 4062.5908203 5.0000000000 8.4429998398 -0.002000000 0.2219599932 2.5539999008 67.063003540 81.560806274 5.5349183083 126.19230652 8.9141244888 6.8358492851
 4062.7431641 5.0000000000 8.4440002441 0.0010000000 0.2200900018 2.5490000248 61.780998230 80.186698914 5.4839200974 127.00530243 8.9900941849 6.7417378426
 4062.8957520 5.0000000000 8.4449996948 0.0000000000 0.2128599882 2.5450000763 58.062999725 79.374710083 5.4339118004 128.43740845 7.7989473343 6.5778751373
