# LAS format log file from PETREL
# Project units are specified as depth units
#==================================================================
~Version information
VERS.   2.0:
WRAP.   NO:
#==================================================================
~Well
STRT .m      1809.0520020 :
STOP .m      4407.6245117 :
STEP .m     0.00000000 :
NULL .        -999.250000 :
COMP.           : COMPANY
WELL.  35/3-2   : WELL
FLD.            : FIELD
LOC.            : LOCATION
SRVC.           : SERVICE COMPANY
DATE.  2018-09-11 14:48:58   : Log Export Date {yyyy-MM-dd HH:mm:ss}
PROV.           : PROVINCE
UWI.   35/3-2   : UNIQUE WELL ID
API.            : API NUMBER
#==================================================================
~Curve
DEPT .m                   : DEPTH
Lithology_geolink ._      : Lithology_geolink
CALI .in                  : CALI
DRHO .g/cm3               : DRHO
NPHI .m3/m3               : NPHI
RHOB .g/cm3               : RHOB
GR .gAPI                  : GR
DTC .us/ft                : DTC
RDEP .ohm.m               : RDEP
SP .mV                    : SP
RSHA .ohm.m               : RSHA
RMED .ohm.m               : RMED
~Parameter
#==================================================================
~Ascii
# ...
 2500.7956543 5.0000000000 14.479999542 0.0240336545 0.3384906054 2.3800001144 45.719001770 98.753997803 2.1150000095 92.898200989 1.5429999828 2.1539871693
 2500.9479980 5.0000000000 14.977000237 0.0040320517 0.3232644796 2.3519999981 46.155998230 99.999595642 2.0720000267 84.557815552 1.7339999676 2.1499376297
 2501.1003418 5.0000000000 14.729999542 -0.005983974 0.3230003715 2.3350000381 47.094001770 99.752006531 2.0350000858 89.432617188 0.9300000072 2.1110000610
 2501.2526855 5.0000000000 14.486000061 0.0039839745 0.3188666403 2.3350000381 50.648998260 101.00000000 2.0209999084 94.174003601 1.1480000019 2.1109166145
 2501.4050293 5.0000000000 14.770000458 0.0249327999 0.3260269761 2.3450000286 48.312999725 101.00120544 2.0079998970 93.551208496 1.1419999599 2.0590305328
 2501.5576172 5.0000000000 14.294999123 0.0299919862 0.3247121572 2.3389999866 47.875000000 101.74619293 1.9709999561 94.302803040 0.7480000257 2.0780320168
 2501.7099609 5.0000000000 13.937999725 0.0329951905 0.3221441209 2.3329999447 42.969001770 100.56490326 1.9459999800 95.175407410 1.2539999485 2.0880064964
 2501.8623047 5.0000000000 14.211000443 0.0459791683 0.2991069853 2.3350000381 45.250000000 101.74878693 1.9479999542 95.425201416 0.8669999838 2.0920207500
 2502.0146484 5.0000000000 14.303000450 0.0539744012 0.3021201789 2.3450000286 43.000000000 100.99869537 1.9509999752 95.549804688 1.0900000334 2.1049728394
 2502.1672363 5.0000000000 13.663999557 0.0609887838 0.3323515058 2.3480000496 46.030998230 100.19239807 1.9839999676 95.424606323 1.0319999456 2.0880320072
 2502.3195801 5.0000000000 13.975000381 0.0300496779 0.3716370165 2.3199999332 42.750000000 101.55980682 2.0550000668 95.299598694 0.7260000110 2.0980176926
 2502.4719238 5.0000000000 13.967000008 0.0010464744 0.3606178164 2.2939999104 41.812999725 99.560798645 2.1129999161 95.049804688 0.9399999976 2.1090576649
 2502.6242676 5.0000000000 13.760000229 -0.004980800 0.3447708189 2.3080000877 41.655998230 98.188301086 2.1270000935 94.924804688 0.5989999771 2.1450896263
 2502.7768555 5.0000000000 14.015999794 0.0129711544 0.3260799050 2.3229999542 45.125000000 98.372398376 2.1519999504 94.799201965 0.5799999833 2.2011246681
 2502.9291992 5.0000000000 13.883000374 0.0439503193 0.3358043730 2.3090000153 48.437999725 97.564605713 2.1679999828 94.549400330 0.7549999952 2.2400817871
 2503.0815430 5.0000000000 14.309000015 0.0589759611 0.3291107714 2.2750000954 49.250000000 98.564002991 2.1559998989 94.172401428 1.1779999733 2.2909934521
 2503.2338867 5.0000000000 14.465001106 0.0300464742 0.3222809434 2.2409999371 47.305999756 99.186698914 2.1640000343 92.553611755 1.7309999466 2.2869246006
 2503.3862305 5.0000000000 14.114999771 0.0100639993 0.3318791687 2.2290000916 45.405998230 99.002502441 2.2009999752 94.800003052 0.8240000010 2.2399406433
 2503.5388184 5.0000000000 14.076000214 -0.000982372 0.3438508511 2.2449998856 43.969001770 100.56300354 2.1889998913 94.800003052 0.5210000277 2.2028017044
 2503.6911621 5.0000000000 14.008000374 0.0099823717 0.3485025764 2.2750000954 41.562999725 100.56300354 2.1310000420 94.798797607 0.6389999986 2.1409807205
 2503.8435059 5.0000000000 13.906001091 0.0409503207 0.3388854563 2.3259999752 42.937999725 100.56530762 2.0550000668 94.051002502 0.6859999895 2.1289470196
 2503.9958496 5.0000000000 13.847999573 0.0350192003 0.3453193009 2.3180000782 44.687999725 101.99839783 1.9379999638 94.674804688 0.6259999871 2.0959775448
 2504.1484375 5.0000000000 14.298999786 0.0130352564 0.3435129523 2.2809998989 48.937999725 101.01020050 1.8760000467 94.550003052 0.7630000114 2.0817248821
 2504.3007813 5.0000000000 13.767999649 -0.003972757 0.3648357391 2.2509999275 49.437999725 104.18800354 1.8860000372 94.550003052 0.8880000114 1.9958286285
 2504.4531250 5.0000000000 13.633000374 -0.003001603 0.3560941219 2.2599999905 48.405998230 104.18730164 1.8960000277 94.550407410 0.9100000262 1.8889840841
 2504.6054688 5.0000000000 13.769999504 0.0109551996 0.3378186226 2.3020000458 47.500000000 103.75040436 1.9099999666 94.801605225 1.0529999733 1.8790544271
 2504.7580566 5.0000000000 13.534998894 0.0269743595 0.3130297065 2.3450000286 45.125000000 103.98899841 1.9579999447 95.802001953 0.5500000119 1.9134352207
 2504.9104004 5.0000000000 13.791000366 0.0240048077 0.3153062761 2.3499999046 46.155998230 100.56210327 1.9659999609 96.419998169 0.5149999857 2.0493221283
 2505.0627441 5.0000000000 13.777000427 0.0319871828 0.3402899206 2.3359999657 42.969001770 99.999000549 1.9900000095 93.304809570 0.7879999876 2.2501442432
 2505.2150879 5.0000000000 13.916000366 0.0220160261 0.3432652950 2.3059999943 42.333000183 99.373397827 2.0590000153 96.295196533 1.4670000076 2.3398780823
 2505.3674316 5.0000000000 14.034999847 0.0259872004 0.3330428302 2.2869999409 39.125000000 99.000900269 2.0859999657 93.296195984 1.1779999733 2.2639646530
 2505.5200195 5.0000000000 14.307000160 0.0329887830 0.3172852397 2.2760000229 41.780998230 99.562400818 2.1289999485 90.936599731 0.8399999738 2.2420513630
 2505.6723633 5.0000000000 14.338000298 0.0329999998 0.3115292192 2.2850000858 44.905998230 99.374710083 2.1640000343 94.549003601 0.6600000262 2.2579438686
 2505.8247070 5.0000000000 14.331999779 0.0399887823 0.3157931566 2.3110001087 46.969001770 99.189605713 2.1909999847 93.925201416 0.7689999938 2.2230689526
 2505.9770508 5.0000000000 14.559000015 0.0409968011 0.3268744648 2.3320000172 45.780998230 100.18608856 2.1600000858 94.050605774 0.6449999809 2.2659280300
 2506.1296387 5.0000000000 14.633000374 0.0609679483 0.3370237350 2.3459999561 46.625000000 99.001800537 2.1480000019 94.426200867 0.5939999819 2.2210414410
 2506.2819824 5.0000000000 14.661999702 0.0629967973 0.3327668607 2.3550000191 45.594001770 99.564002991 2.0939471722 94.800605774 0.6649695635 2.2339406013
 2506.4343262 5.0000000000 14.190999985 0.0669935942 0.3269093633 2.3680000305 49.125000000 100.19149780 2.0608766079 95.174804688 0.6459856033 2.1969823837
 2506.5866699 5.0000000000 14.319000244 0.0430768020 0.3297010064 2.3589999676 48.969001770 102.37279510 1.9839150906 95.050407410 0.6369888186 2.1858928204
 2506.7392578 5.0000000000 14.045000076 0.0260272436 0.3409220278 2.3410000801 48.937999725 101.00379944 1.9308879375 95.299201965 0.6302111745 2.1188144684
 2506.8916016 5.0000000000 13.928000450 0.0040352568 0.3350893855 2.3180000782 44.469001770 102.18830109 1.8959776163 95.051803589 0.6958669424 2.0608158112
 2507.0439453 5.0000000000 14.375000000 0.0239679497 0.3408108056 2.3329999447 41.219001770 102.37371826 1.8820176125 96.174003601 0.6130608916 1.9458509684
 2507.1962891 5.0000000000 13.868000031 0.0339839756 0.3331622779 2.3410000801 42.609001160 101.58268738 1.8931378126 95.539184570 0.6510945559 1.8529503345
 2507.3486328 5.0000000000 13.180001259 0.0359935984 0.3252254426 2.3269999027 47.469001770 105.74298859 1.9790128469 88.807815552 0.7102066875 1.8222579956
 2507.5012207 5.0000000000 13.772999763 0.0120384619 0.3058211207 2.2999999523 48.687999725 101.36219788 1.9871472120 93.680603027 0.8386383653 1.9837040901
 2507.6535645 5.0000000000 14.028999329 0.0129983975 0.2979825437 2.3120000362 45.562999725 97.376304626 2.0331137180 95.425804138 0.7263285518 2.2033703327
 2507.8059082 5.0000000000 14.371000290 0.0030160258 0.3032115996 2.3450000286 42.344001770 98.183494568 2.1041347980 95.924400330 0.9303172827 2.4339551926
 2507.9582520 5.0000000000 14.279000282 0.0249295998 0.3044360876 2.3829998970 41.500000000 95.377204895 2.1881089211 95.549804688 0.5055063963 2.4059438705
 2508.1108398 5.0000000000 14.428000450 0.0519567318 0.2844520807 2.4149999619 44.125000000 96.747589111 2.2562112808 95.425399780 0.8221583962 2.3712687492
 2508.2631836 5.0000000000 15.027001381 0.0639807731 0.2920976579 2.3980000019 45.405998230 95.997695923 2.3219215870 95.549201965 1.1828141212 2.4552884102
 2508.4155273 5.0000000000 14.758001328 0.0440320522 0.2986994088 2.3289999962 44.530998230 94.564002991 2.2728750706 95.050804138 1.0671634674 2.6348621845
