# LAS format log file from PETREL
# Project units are specified as depth units
#==================================================================
~Version information
VERS.   2.0:
WRAP.   NO:
#==================================================================
~Well
STRT .m      1809.0520020 :
STOP .m      4407.6245117 :
STEP .m     0.00000000 :
NULL .        -999.250000 :
COMP.           : COMPANY
WELL.  35/3-2   : WELL
FLD.            : FIELD
LOC.            : LOCATION
SRVC.           : SERVICE COMPANY
DATE.  2018-09-11 14:48:58   : Log Export Date {yyyy-MM-dd HH:mm:ss}
PROV.           : PROVINCE
UWI.   35/3-2   : UNIQUE WELL ID
API.            : API NUMBER
#==================================================================
~Curve
DEPT .m                   : DEPTH
Lithology_geolink ._      : Lithology_geolink
CALI .in                  : CALI
DRHO .g/cm3               : DRHO
NPHI .m3/m3               : NPHI
RHOB .g/cm3               : RHOB
GR .gAPI                  : GR
DTC .us/ft                : DTC
RDEP .ohm.m               : RDEP
SP .mV                    : SP
RSHA .ohm.m               : RSHA
RMED .ohm.m               : RMED
~Parameter
#==================================================================
~Ascii
# ...
 3534.5246582 5.0000000000 14.048000336 0.0089951921 0.1400486976 2.6419999599 42.905998230 73.188003540 5.5229997635 102.67500305 21.476999283 6.2379999161
 3534.6770020 5.0000000000 14.000000000 0.0060096001 0.1438877136 2.6329998970 39.030998230 76.000000000 5.1989998817 103.67500305 8.3620004654 5.3590002060
 3534.8295898 5.0000000000 13.996000290 0.0069983979 0.1422925740 2.6319999695 35.375000000 75.750000000 4.8010001183 103.30000305 7.7360000610 5.5040001869
 3534.9819336 5.0000000000 13.946999550 0.0050032050 0.1386658102 2.6319999695 38.375000000 75.375000000 4.4730000496 102.67500305 8.3199996948 5.7109999657
 3535.1342773 5.0000000000 13.928000450 0.0279631410 0.1381108761 2.6459999084 38.094001770 75.563003540 4.2620000839 102.42500305 7.8959999084 5.9650001526
 3535.2866211 5.0000000000 13.781000137 0.0409584008 0.1422467232 2.6589999199 42.594001770 76.375000000 4.0780000687 101.55000305 8.8879995346 5.9140000343
 3535.4392090 5.0000000000 13.574999809 0.0230288468 0.1461138278 2.6300001144 41.375000000 76.375000000 4.0079998970 102.92500305 9.3520002365 5.6449999809
 3535.5915527 5.0000000000 13.470999718 0.0170096159 0.1462597847 2.6280000210 40.094001770 76.375000000 3.9470000267 103.42500305 6.5120000839 5.5939998627
 3535.7438965 5.0000000000 13.465000153 0.0060176281 0.1474081576 2.6210000515 39.347999573 76.001998901 3.8299999237 103.92500305 6.9869999886 5.8049998283
 3535.8962402 5.0000000000 13.468999863 0.0249391999 0.1443099529 2.6410000324 40.562999725 76.563011169 3.6879999638 102.80000305 7.3109998703 5.8909997940
 3536.0488281 6.0000000000 13.468999863 0.0329871811 0.1453583091 2.6440000534 45.530998230 78.375000000 3.6089999676 101.05000305 8.2709999084 5.4770002365
 3536.2011719 6.0000000000 13.458000183 0.0320016034 0.1523787379 2.6410000324 48.437999725 81.188003540 3.6519999504 100.05000305 8.6560001373 4.9840002060
 3536.3535156 6.0000000000 13.501000404 0.0359935872 0.1642409712 2.6340000629 50.155998230 81.002998352 3.5050001144 104.17500305 7.4260001183 4.6319999695
 3536.5058594 6.0000000000 13.557000160 0.0160320513 0.1684632450 2.6029999256 50.219001770 82.000000000 3.3029999733 106.05000305 6.4039998055 4.5000000000
 3536.6584473 6.0000000000 13.569999695 0.0279808007 0.1388075352 2.5989999771 48.875000000 81.749992371 3.1779999733 103.67500305 6.3579998016 4.5310001373
 3536.8107910 2.0000000000 13.581999779 0.0070336540 0.0987542197 2.5750000477 48.437999725 81.749992371 3.1150000095 94.425003052 7.0170001984 4.3400001526
 3536.9631348 2.0000000000 13.592000008 0.0040048077 0.0573463626 2.5650000572 48.030998230 82.375000000 3.1019999981 97.175003052 6.3200001717 4.2379999161
 3537.1154785 2.0000000000 13.588000298 0.0069951927 0.0450196825 2.5550000668 48.530998230 83.375000000 3.5980000496 103.42500305 6.0819997787 4.1170001030
 3537.2678223 2.0000000000 13.581999779 0.0199583992 0.0426276140 2.5820000172 48.062999725 84.375007629 4.2379999161 103.42500305 6.5920000076 4.3629999161
 3537.4204102 2.0000000000 13.371999741 0.0209983978 0.0436483473 2.5980000496 44.125000000 78.375000000 4.7109999657 104.55000305 6.0050001144 4.7849998474
 3537.5727539 2.0000000000 13.180999756 0.0070224362 0.0339755267 2.5950000286 36.530998230 72.563003540 5.3280000687 104.67500305 1.9390000105 7.3439998627
 3537.7250977 2.0000000000 13.152000427 -0.002983974 0.0225682873 2.5629999638 31.575000763 64.731002808 5.7760000229 101.67500305 2.2999999523 17.013999939
 3537.8774414 16.000000000 13.156000137 0.0019840002 0.0138080642 2.5539999008 30.608999252 58.780998230 5.3829998970 99.925003052 52.306999207 79.875000000
 3538.0300293 16.000000000 13.156000137 0.0099871792 0.0134006096 2.5680000782 34.750000000 58.374996185 5.5819997787 104.17500305 77.646003723 69.625000000
 3538.1823730 16.000000000 13.161999702 0.0139935901 0.0443902537 2.5799999237 38.500000000 60.375000000 6.0349998474 103.80000305 91.021003723 21.781000137
 3538.3347168 16.000000000 13.163998604 0.0130016031 0.1082176268 2.5889999866 44.655998230 67.375000000 6.0000000000 104.80000305 128.77099609 10.046999931
 3538.4870605 16.000000000 13.163998604 0.0060224002 0.1682177186 2.5840001106 50.655998230 74.000000000 5.7849998474 109.80000305 54.310001373 6.1680002213
 3538.6396484 16.000000000 13.163998604 0.0079967957 0.1938491762 2.5799999237 51.030998230 80.187995911 5.0390000343 96.800003052 3.8029999733 4.9920001030
 3538.7919922 6.0000000000 13.163998604 0.0010112179 0.1958568394 2.5620000362 50.969001770 83.563003540 4.4380002022 95.675003052 6.1820001602 4.4650001526
 3538.9443359 6.0000000000 13.163998604 0.0010000000 0.1926451623 2.5569999218 49.625000000 83.375000000 3.6679999828 102.42500305 6.3829998970 4.5079998970
 3539.0966797 6.0000000000 13.178999901 0.0239631403 0.1880274117 2.5710000992 51.312999725 82.188003540 3.3380000591 102.17500305 6.0289998055 4.7189998627
 3539.2490234 6.0000000000 13.305999756 0.0598847978 0.1952866614 2.5650000572 50.937999725 82.000000000 3.4000000954 99.675003052 6.4609999657 5.0700001717
 3539.4016113 6.0000000000 13.687000275 0.0410304517 0.2111945003 2.5250000954 45.094001770 83.750000000 4.0900001526 104.42500305 7.0000000000 4.9689998627
 3539.5539551 5.0000000000 13.409999847 0.0130448723 0.2066772878 2.4979999065 39.655998230 77.999992371 4.7230000496 104.55000305 6.7529997826 5.4959998131
 3539.7062988 5.0000000000 13.244000435 -0.005969551 0.1609633714 2.5309998989 32.870998383 73.177001953 5.3990001678 103.80000305 2.1730000973 7.5419998169
 3539.8586426 5.0000000000 13.175000191 -0.000019200 0.1032948941 2.5669999123 31.562999725 69.750000000 5.5630002022 103.80000305 2.4279999733 17.000000000
 3540.0112305 5.0000000000 13.154000282 0.0129791666 0.0824331865 2.5840001106 32.750000000 60.000000000 5.1599998474 103.67500305 22.672000885 65.438003540
 3540.1635742 5.0000000000 13.550999641 0.0030160258 0.1184321642 2.5590000153 34.780998230 63.187999725 5.0859999657 104.55000305 7.8179998398 23.437999725
 3540.3159180 5.0000000000 13.329000473 0.0079919873 0.1723934710 2.5620000362 41.250000000 70.375000000 5.3979997635 106.05000305 6.2020001411 10.116999626
 3540.4682617 5.0000000000 13.229000092 0.0139808003 0.2188611031 2.5780000687 45.530998230 76.188003540 5.2300000191 103.05000305 5.8740000725 5.8590002060
 3540.6208496 5.0000000000 13.246000290 0.0110048074 0.2279356867 2.5869998932 47.469001770 80.000000000 4.6680002213 103.05000305 3.5109999180 4.6799998283
 3540.7731934 5.0000000000 13.237999916 0.0139951929 0.2200227231 2.6019999981 48.219001770 82.000000000 4.1329998970 101.80000305 6.2059998512 4.4260001183
 3540.9255371 5.0000000000 13.246999741 0.0040160259 0.2122025341 2.5920000076 48.250000000 83.375000000 3.6619999409 101.67500305 7.2849998474 4.5659999847
 3541.0778809 5.0000000000 13.279999733 0.0040000002 0.2091149241 2.5769999027 50.250000000 82.563003540 3.3199999332 104.55000305 7.2529997826 4.5510001183
 3541.2302246 6.0000000000 13.324000359 0.0049967999 0.2135557234 2.5520000458 51.094001770 83.188003540 3.2269999981 104.17500305 6.8590002060 4.5549998283
 3541.3828125 6.0000000000 13.529000282 0.0109903850 0.2114534080 2.5510001183 52.250000000 84.000000000 3.1989998817 103.92500305 6.4190001488 4.6880002022
 3541.5351563 6.0000000000 13.600000381 0.0229807701 0.2034428567 2.5680000782 49.750000000 84.375007629 3.2170000076 103.92500305 6.4130001068 4.8359999657
 3541.6875000 6.0000000000 13.602000237 0.0249967948 0.2014531791 2.5789999962 46.404998779 83.750999451 3.1519999504 104.67500305 6.3509998322 4.8629999161
 3541.8398438 6.0000000000 13.602000237 0.0210127998 0.1986190975 2.5659999847 46.094001770 84.000000000 3.0629999638 105.92500305 6.1820001602 4.7340002060
 3541.9924316 6.0000000000 13.600999832 0.0160080139 0.2074258327 2.5520000458 48.594001770 84.000000000 3.0120000839 103.17500305 6.5050001144 4.6170001030
 3542.1447754 6.0000000000 13.595000267 0.0209919866 0.2287058681 2.5529999733 50.187999725 83.188003540 3.0550000668 102.80000305 6.5989999771 4.4340000153
