# LAS format log file from PETREL
# Project units are specified as depth units
#==================================================================
~Version information
VERS.   2.0:
WRAP.   NO:
#==================================================================
~Well
STRT .m      1809.0520020 :
STOP .m      4407.6245117 :
STEP .m     0.00000000 :
NULL .        -999.250000 :
COMP.           : COMPANY
WELL.  35/3-2   : WELL
FLD.            : FIELD
LOC.            : LOCATION
SRVC.           : SERVICE COMPANY
DATE.  2018-09-11 14:48:58   : Log Export Date {yyyy-MM-dd HH:mm:ss}
PROV.           : PROVINCE
UWI.   35/3-2   : UNIQUE WELL ID
API.            : API NUMBER
#==================================================================
~Curve
DEPT .m                   : DEPTH
Lithology_geolink ._      : Lithology_geolink
CALI .in                  : CALI
DRHO .g/cm3               : DRHO
NPHI .m3/m3               : NPHI
RHOB .g/cm3               : RHOB
GR .gAPI                  : GR
DTC .us/ft                : DTC
RDEP .ohm.m               : RDEP
SP .mV                    : SP
RSHA .ohm.m               : RSHA
RMED .ohm.m               : RMED
~Parameter
#==================================================================
~Ascii
 1809.0520020 6.0000000000 9.6400003433  -999.250000 0.0179611687 2.0299615860 61.064601898 137.75059509 1.0709887743 49.000000000 1.1388766766 0.9899695516
 1809.2044678 7.0000000000 9.6409997940  -999.250000 0.0128781889 2.0059928894 62.053993225 138.12080383 1.0639735460 48.998497009 1.0619399548 0.9710216522
 1809.3568115 7.0000000000 9.6429996490  -999.250000 0.0020161329 2.0029857159 58.309593201 136.37339783 1.0529695749 48.376804352 1.0373525620 0.9800384641
 1809.5092773 7.0000000000 9.6440000534  -999.250000 -0.002382981 1.9938942194 56.180343628 135.37409973 1.0339735746 49.496097565 1.2568870783 1.0040647984
 1809.6616211 7.0000000000 9.6450004578  -999.250000 -0.000275092 1.9499936104 52.999298096 134.99859619 1.0230079889 47.872596741 1.2103029490 1.0309823751
 1809.8140869 7.0000000000 9.6470003128  -999.250000 0.0062295673 1.9459975958 52.567276001 134.13040161 1.0280144215 46.374698639 1.3979864120 1.0199351311
 1809.9664307 7.0000000000 9.6479997635  -999.250000 0.0156673025 1.9450080395 54.352115631 136.37660217 1.0340032578 46.252204895 0.9767964482 0.9930015802
 1810.1188965 7.0000000000 9.6499996185  -999.250000 0.0150610097 1.9500048161 59.412002563 137.37590027 1.0359735489 47.628303528 0.8500264287 0.9939736128
 1810.2712402 7.0000000000 9.6510000229  -999.250000 0.0097285584 1.9520015717 61.902843475 137.74739075 1.0249775648 48.999797821 0.8609935641 0.9829935431
 1810.4237061 7.0000000000 9.6520004272  -999.250000 0.0099995518 1.9529975653 59.928615570 136.12080383 1.0109688044 48.872299194 0.8573170304 0.9789927602
 1810.5760498 7.0000000000 9.6540002823  -999.250000 0.0272922441 1.9519968033 56.030345917 134.37399292 0.9980048537 47.747196198 0.9890849590 0.9759711623
 1810.7283936 7.0000000000 9.6540002823  -999.250000 0.0457655862 1.9499920607 55.629909515 133.75059509 1.0010192394 46.002002716 1.0422276258 0.9580240250
 1810.8808594 7.0000000000 9.6540002823  -999.250000 0.0416966043 1.9449063540 58.692050934 134.12980652 1.0130360126 47.251800537 1.1840504408 0.9729567766
 1811.0332031 7.0000000000 9.6540002823  -999.250000 0.0249902084 1.9059358835 60.373298645 136.12559509 1.0280191898 47.998996735 1.2044856548 0.9550592899
 1811.1856689 7.0000000000 9.6529998779  -999.250000 0.0071585574 1.8659904003 59.315624237 136.49760437 1.0400288105 47.374698639 0.8841008544 0.9920240045
 1811.3380127 7.0000000000 9.6529998779  -999.250000 0.0180437248 1.8619967699 60.406047821 135.49559021 1.0520176888 47.251602173 0.9261442423 1.0020561218
 1811.4904785 7.0000000000 9.6529998779  -999.250000 0.0565482378 1.8599399328 60.440174103 132.74519348 1.0630408525 48.254203796 1.0162642002 1.0370023251
 1811.6428223 7.0000000000 9.6520004272  -999.250000 0.0719829872 1.8349599838 61.343502045 130.75039673 1.0800273418 49.995994568 1.1260401011 1.0380096436
 1811.7952881 7.0000000000 9.6520004272  -999.250000 0.0548475608 1.8099279404 61.031898499 130.99940491 1.0970336199 47.502403259 1.1510120630 1.0440047979
 1811.9476318 7.0000000000 9.6520004272  -999.250000 0.0400056690 1.7799726725 61.406047821 130.75059509 1.1110095978 48.499198914 1.1558077335 1.0460096598
 1812.1000977 7.0000000000 9.6499996185  -999.250000 0.0257328544 1.7630336285 61.429065704 131.12590027 1.1170120239 47.998497009 1.0362066031 1.0519616604
 1812.2524414 7.0000000000 9.6459999084  -999.250000 0.0116625484 1.7770768404 57.722808838 131.50260925 1.1219999790 47.377403259 1.1219855547 1.0359855890
 1812.4049072 7.0000000000 9.6409997940  -999.250000 0.0069175740 1.8250864744 60.100006104 133.12950134 1.1220023632 48.873798370 1.1130312681 1.0270023346
 1812.5572510 7.0000000000 9.6359996796  -999.250000 0.0298831258 1.8609582186 62.604469299 134.99739075 1.1230000257 48.376602173 1.1259231567 1.0279984474
 1812.7095947 7.0000000000 9.6319999695  -999.250000 0.0703825727 1.8349263668 69.120590210 133.37559509 1.1230064631 49.376804352 1.0777820349 1.0270320177
 1812.8620605 7.0000000000 9.6269998550  -999.250000 0.0895793438 1.7889928818 66.365089417 133.74128723 1.1269975901 50.500000000 0.9419735670 1.0470072031
 1813.0144043 7.0000000000 9.6219997406  -999.250000 0.0908470228 1.7860336304 62.243190765 130.12089539 1.1260112524 50.496795654 0.9313493371 1.0499743223
 1813.1668701 7.0000000000 9.6180000305  -999.250000 0.0740869045 1.8070720434 57.998123169 127.56210327 1.1330047846 48.497299194 1.1489160061 1.0340144634
 1813.3192139 7.0000000000 9.6129999161  -999.250000 0.0583378524 1.8370047808 57.223258972 127.18730164 1.1350047588 47.375000000 1.1140832901 1.0400367975
 1813.4716797 7.0000000000 9.6099996567  -999.250000 0.0578806736 1.8399039507 59.879356384 126.75299835 1.1379976273 47.379203796 1.1660432816 1.0630984306
 1813.6240234 7.0000000000 9.6090002060  -999.250000 0.0722952932 1.7999646664 61.695911407 128.00660706 1.1369951963 49.122997284 1.1842195988 1.1039711237
 1813.7764893 7.0000000000 9.6090002060  -999.250000 0.0865172371 1.7780264616 66.616592407 132.13130188 1.1339999437 47.875598907 1.3205076456 1.0860071182
 1813.9288330 7.0000000000 9.6090002060  -999.250000 0.0819809735 1.7890192270 63.126502991 134.75360107 1.1339902878 48.124599457 1.1155561209 1.0889294147
 1814.0812988 7.0000000000 9.6090002060  -999.250000 0.0670838952 1.8009231091 64.062179565 136.99279785 1.1279735565 47.879802704 0.8393675089 1.0450719595
 1814.2336426 7.0000000000 9.6079998016  -999.250000 0.0625009760 1.7689583302 63.718799591 133.99839783 1.1169855595 49.875000000 0.9918477535 1.0750304461
 1814.3861084 7.0000000000 9.6079998016  -999.250000 0.0603035130 1.7430480719 63.600231171 132.99459839 1.1079688072 49.876502991 0.8969471455 1.0939471722
 1814.5384521 7.0000000000 9.6079998016  -999.250000 0.0625863224 1.7630977631 66.183799744 130.74839783 1.0949823856 50.496994019 0.8751298189 1.0719808340
 1814.6907959 7.0000000000 9.6070003510  -999.250000 0.0736832842 1.8240303993 63.568809509 129.75320435 1.0839840174 48.626804352 0.9562948346 1.0599663258
 1814.8432617 7.0000000000 9.6070003510  -999.250000 0.0844527557 1.8429808617 67.179374695 131.74850464 1.0739735365 49.751201630 1.1395027637 1.0389856100
 1814.9956055 7.0000000000 9.6070003510  -999.250000 0.0922512636 1.8349823952 63.594001770 131.12699890 1.0629743338 50.247795105 0.9331586957 1.0329823494
 1815.1480713 7.0000000000 9.6070003510  -999.250000 0.0998178869 1.8239471912 63.589946747 132.37890625 1.0469688177 48.873798370 1.0327637196 1.0219471455
 1815.3004150 7.0000000000 9.6059999466  -999.250000 0.0965778232 1.8019632101 61.906951904 134.00480652 1.0339744091 48.375801086 1.3495192528 1.0000224113
 1815.4528809 7.0000000000 9.6070003510  -999.250000 0.0718496814 1.7789808512 62.497150421 137.00180054 1.0179591179 48.875598907 1.0499182940 1.0139664412
 1815.6052246 7.0000000000 9.6110000610  -999.250000 0.0458624735 1.7710064650 61.314102173 137.75120544 1.0009888411 49.124797821 1.0160015821 0.9999904037
 1815.7576904 7.0000000000 9.6149997711  -999.250000 0.0372137837 1.7750239372 62.001274109 138.50239563 0.9939976335 49.003303528 1.0172834396 0.9939832091
 1815.9100342 7.0000000000 9.6180000305  -999.250000 0.0585885011 1.7850143909 62.532501221 139.49679565 0.9930031896 50.375202179 1.1348621845 0.9870048165
 1816.0625000 7.0000000000 9.6219997406  -999.250000 0.0843187794 1.7940216064 63.465400696 137.49519348 0.9950144291 50.496997833 1.0488030910 0.9900072217
 1816.2148438 7.0000000000 9.6260004044  -999.250000 0.0787734464 1.8030047417 61.964092255 135.49679565 1.0010112524 49.251003265 0.9671330452 0.9930095673
 1816.3673096 7.0000000000 9.6289997101  -999.250000 0.0488180593 1.8059687614 58.906749725 133.50000000 1.0080288649 49.875900269 1.0500671864 0.9990528822
 1816.5196533 7.0000000000 9.6330003738  -999.250000 0.0156631414 1.7929840088 59.221557617 133.49719238 1.0200223923 50.248798370 1.0780223608 1.0210320950
 1816.6719971 7.0000000000 9.6370000839  -999.250000 -0.015574916 1.7830191851 60.817401886 131.75100708 1.0340256691 49.499000549 1.0922977924 1.0410096645
