# LAS format log file from PETREL
# Project units are specified as depth units
#==================================================================
~Version information
VERS.   2.0:
WRAP.   NO:
#==================================================================
~Well
STRT .m      1809.0520020 :
STOP .m      4407.6245117 :
STEP .m     0.00000000 :
NULL .        -999.250000 :
COMP.           : COMPANY
WELL.  35/3-2   : WELL
FLD.            : FIELD
LOC.            : LOCATION
SRVC.           : SERVICE COMPANY
DATE.  2018-09-11 14:48:58   : Log Export Date {yyyy-MM-dd HH:mm:ss}
PROV.           : PROVINCE
UWI.   35/3-2   : UNIQUE WELL ID
API.            : API NUMBER
#==================================================================
~Curve
DEPT .m                   : DEPTH
Lithology_geolink ._      : Lithology_geolink
CALI .in                  : CALI
DRHO .g/cm3               : DRHO
NPHI .m3/m3               : NPHI
RHOB .g/cm3               : RHOB
GR .gAPI                  : GR
DTC .us/ft                : DTC
RDEP .ohm.m               : RDEP
SP .mV                    : SP
RSHA .ohm.m               : RSHA
RMED .ohm.m               : RMED
~Parameter
#==================================================================
~Ascii
# ...
 3192.5393066 6.0000000000 14.779999733 0.0359999985 0.2789800167 2.5319919586 51.753154755 94.178390503 2.1431872845 100.17520142 2.3225736618 2.5058493614
 3192.6916504 6.0000000000 14.796999931 0.0280000009 0.2814300060 2.5269391537 53.720703125 88.192108154 2.2599711418 100.30060577 1.4372131824 2.4122436047
 3192.8442383 6.0000000000 14.704000473 0.0170000009 0.2915999889 2.4889552593 54.770198822 90.751403809 2.2419807911 100.67780304 3.4383630753 2.5634078979
 3192.9965820 6.0000000000 14.906999588 0.0160000008 0.3025099933 2.4750175476 51.401592255 91.189308167 2.2359230518 101.54419708 3.2378077507 2.3789341450
 3193.1489258 6.0000000000 14.942001343 0.0240000002 0.3085100055 2.4860370159 48.653495789 91.999000549 2.1879327297 97.922195435 1.8709710836 2.3380129337
 3193.3012695 6.0000000000 14.863999367 0.0230000000 0.2942599952 2.5089857578 47.100662231 91.373397827 2.1458156109 96.170394897 1.2323750257 2.3459968567
 3193.4536133 6.0000000000 15.168000221 0.0240000002 0.2713499963 2.4999341965 51.253005981 90.375297546 2.0310318470 93.310417175 2.7132177353 2.3438894749
 3193.6062012 6.0000000000 15.380000114 0.0340000018 0.2568399906 2.4588530064 53.128059387 90.562400818 2.0509936810 99.799606323 3.4713118076 2.2752592564
 3193.7585449 6.0000000000 15.089000702 0.0350000001 0.2812500000 2.4129920006 54.074562073 90.373703003 2.0490064621 99.674804688 3.2556762695 2.3560431004
 3193.9108887 6.0000000000 14.836000443 0.0610000007 0.3104799986 2.4079887867 50.061096191 90.188896179 2.0529904366 99.549804688 2.4283268452 2.3831648827
 3194.0632324 6.0000000000 14.859000206 0.0439999998 0.3316899836 2.4010031223 48.874347687 90.751602173 2.0468814373 99.425003052 0.7637756467 2.4857532978
 3194.2158203 6.0000000000 14.826998711 0.0320000015 0.3299300075 2.4030225277 48.470104218 91.747589111 1.9727216959 99.425003052 1.2496335506 2.3319199085
 3194.3681641 6.0000000000 14.755999565 0.0030000000 0.3128199875 2.4100658894 48.807392120 90.999595642 1.8859438896 99.425201416 2.0681264400 2.3068027496
 3194.5205078 6.0000000000 14.807999611 0.0250000004 0.2906999886 2.4510946274 45.313701630 90.754203796 1.8510096073 99.550407410 0.9038365483 2.1837773323
 3194.6728516 6.0000000000 14.913000107 0.0799999982 0.2700000107 2.5100016594 45.752155304 93.376907349 1.8570624590 99.800804138 2.6712212563 2.0449342728
 3194.8254395 6.0000000000 15.055999756 0.0939999968 0.2775599957 2.5108687878 47.114501953 94.566200256 1.8958656788 100.30319977 2.8030576706 2.0041310787
 3194.9777832 6.0000000000 14.885999680 0.0689999983 0.2848600149 2.4698846340 53.502754211 95.565605164 1.8539679050 101.29859924 0.9520096183 2.0449872017
 3195.1301270 6.0000000000 14.845000267 0.0250000004 0.3100099862 2.3979182243 55.224208832 97.188003540 1.8338893652 100.41398621 0.9580865502 2.0371217728
 3195.2824707 6.0000000000 14.878000259 0.0030000000 0.3318899870 2.3469517231 58.470104218 97.187004089 1.7649807930 93.562423706 1.0124534369 2.1129214764
 3195.4348145 6.0000000000 14.942001343 -0.009000000 0.3567499816 2.3169727325 59.158699036 96.562408447 1.7529327869 101.29940033 1.2949695587 2.0639791489
 3195.5874023 7.0000000000 14.956999779 -0.017000001 0.3757300079 2.3000192642 60.840484619 96.192817688 1.7109695673 100.92400360 1.2754712105 2.0508174896
 3195.7397461 7.0000000000 14.925999641 -0.007000000 0.3838600218 2.3120625019 58.646804810 99.197494507 1.6921266317 100.30020142 0.9455673099 1.9369727373
 3195.8920898 7.0000000000 14.895999908 0.0010000000 0.3757300079 2.3510961533 56.652793884 101.37209320 1.7709407806 100.42400360 0.6762644053 1.9199951887
 3196.0444336 6.0000000000 14.940999985 0.0199999996 0.3427599967 2.4110946655 54.655849457 99.558898926 1.7339646816 99.799598694 0.8415929675 1.9170273542
 3196.1970215 6.0000000000 14.810999870 0.0399999991 0.3213299811 2.4700767994 54.562896729 97.000602722 1.7121407986 99.550003052 1.2124495506 1.9340608120
 3196.3493652 6.0000000000 14.958000183 0.0439999998 0.3162699938 2.4940257072 54.532451630 97.188606262 1.7559903860 99.550804138 1.6651843786 1.9530817270
 3196.5017090 6.0000000000 14.813000679 0.0399999991 0.3183900118 2.5099840164 55.438652039 97.561401367 1.7500721216 100.05000305 2.4013190269 2.0040848255
 3196.6540527 6.0000000000 14.739999771 0.0160000008 0.3012799919 2.4999775887 55.841796875 96.563308716 1.7951474190 100.05120850 1.3538669348 2.0570111275
 3196.8066406 6.0000000000 14.945999146 0.0120000001 0.2801899910 2.4859392643 54.470203400 96.755195618 1.8869647980 100.80120087 1.2754608393 2.0640637875
 3196.9589844 6.0000000000 14.890999794 0.0030000000 0.2793599963 2.4669775963 54.845302582 98.373100281 1.8759407997 101.17359924 2.6646537781 2.0838992596
 3197.1113281 6.0000000000 14.826998711 0.0049999999 0.2853499949 2.4529583454 55.653144836 97.189308167 1.8390176296 100.29058838 2.4464020729 2.0212419033
 3197.2636719 6.0000000000 14.756999969 0.0130000003 0.2996200025 2.4270031452 53.875148773 97.999290466 1.8499007225 94.425201416 0.8288926482 2.1720960140
 3197.4162598 6.0000000000 14.920999527 0.0560000017 0.2973900139 2.4290671349 53.957401276 97.557998657 1.7878303528 94.565605164 1.3864911795 2.2322337627
 3197.5686035 6.0000000000 15.097999573 0.0920000002 0.2987999916 2.4500336647 50.348995209 96.008003235 1.7351266146 99.425201416 1.8511281013 2.3048350811
 3197.7209473 6.0000000000 15.168000221 0.0839999989 0.3177700043 2.4709792137 53.457206726 100.98940277 1.8141425848 99.551406860 1.9298717976 2.2016458511
 3197.8732910 6.0000000000 15.310999870 0.0379999988 0.3545199931 2.4579887390 51.096103668 98.749099731 1.9029871225 100.42500305 1.2262227535 1.9809551239
 3198.0256348 6.0000000000 15.428000450 0.0099999998 0.3685500026 2.4510064125 52.403495789 98.185096741 1.8950624466 100.42560577 0.7432884574 1.9530512094
 3198.1782227 6.0000000000 15.012999535 0.0020000001 0.3390599787 2.4550318718 50.841503143 96.368003845 1.9338784218 100.79840088 1.5501695871 1.9856911898
 3198.3305664 6.0000000000 14.868000031 0.0049999999 0.2956100106 2.4649982452 50.059894562 94.183799744 1.8960129023 100.29980469 2.8494744301 2.2012388706
 3198.4829102 6.0000000000 14.873000145 -0.003000000 0.2713299990 2.4640192986 48.126453400 91.565917969 1.9040962458 100.17480469 3.1452660561 2.3501346111
 3198.6352539 6.0000000000 14.876999855 0.0030000000 0.2790200114 2.4760625362 49.034603119 93.374397278 1.9641586542 100.05040741 3.3109343052 2.4339392185
 3198.7878418 6.0000000000 14.898000717 0.0250000004 0.2730199993 2.5151088238 51.290798187 92.998596191 2.0630478859 100.29759979 3.2702527046 2.3960959911
 3198.9401855 6.0000000000 14.935001373 0.0410000011 0.2724799812 2.5489871502 54.343753815 92.565307617 2.0780594349 99.549400330 3.3487627506 2.4260241985
 3199.0925293 6.0000000000 14.944999695 0.0230000000 0.2713100016 2.5409662724 54.189697266 93.998603821 2.1149694920 99.177207947 3.2002146244 2.4410128593
 3199.2448730 6.0000000000 14.958999634 0.0089999996 0.2755100131 2.5199968815 54.621894836 93.749702454 2.0959711075 100.54219055 2.7119903564 2.4490687847
 3199.3974609 6.0000000000 15.052000046 0.0260000005 0.2892600000 2.5179967880 52.680400848 93.563003540 2.0780065060 95.674606323 3.3297615051 2.4919586182
 3199.5498047 6.0000000000 15.065999985 0.0340000018 0.2862400115 2.5169646740 50.310001373 93.563705444 2.0799374580 95.556015015 3.5670030117 2.4791460037
 3199.7021484 6.0000000000 15.089000702 0.0260000005 0.2883200049 2.4949774742 48.444198608 94.003196716 2.0410430431 99.300201416 3.5683557987 2.5697131157
 3199.8544922 6.0000000000 15.082000732 0.0179999992 0.2828100026 2.4809999466 49.812446594 94.749702454 2.0678575039 99.425407410 3.1669454575 2.3912868500
 3200.0068359 5.0000000000 15.064999580 0.0219999999 0.2883700132 2.4810335636 49.466598511 94.563705444 1.9790464640 99.674804688 3.1331570148 2.5695159435
 3200.1594238 5.0000000000 15.057000160 0.0359999985 0.2894800007 2.5019841194 47.957199097 94.998603821 2.0077950954 99.550003052 3.2297327518 2.2684094906
