# LAS format log file from PETREL
# Project units are specified as depth units
#==================================================================
~Version information
VERS.   2.0:
WRAP.   NO:
#==================================================================
~Well
STRT .m      1809.0520020 :
STOP .m      4407.6245117 :
STEP .m     0.00000000 :
NULL .        -999.250000 :
COMP.           : COMPANY
WELL.  35/3-2   : WELL
FLD.            : FIELD
LOC.            : LOCATION
SRVC.           : SERVICE COMPANY
DATE.  2018-09-11 14:48:58   : Log Export Date {yyyy-MM-dd HH:mm:ss}
PROV.           : PROVINCE
UWI.   35/3-2   : UNIQUE WELL ID
API.            : API NUMBER
#==================================================================
~Curve
DEPT .m                   : DEPTH
Lithology_geolink ._      : Lithology_geolink
CALI .in                  : CALI
DRHO .g/cm3               : DRHO
NPHI .m3/m3               : NPHI
RHOB .g/cm3               : RHOB
GR .gAPI                  : GR
DTC .us/ft                : DTC
RDEP .ohm.m               : RDEP
SP .mV                    : SP
RSHA .ohm.m               : RSHA
RMED .ohm.m               : RMED
~Parameter
#==================================================================
~Ascii
# ...
 3363.5319824 7.0000000000 14.628000259 0.0790176317 0.3066071272 2.2780001163 55.280998230 87.188003540 2.3610000610 103.67500305 1.2460000515 3.2639999390
 3363.6843262 7.0000000000 14.642000198 0.0710128248 0.3205276728 2.2690000534 53.062999725 87.563003540 2.5139999390 104.05000305 0.9240000248 3.2479999065
 3363.8366699 7.0000000000 14.669999123 0.0729967952 0.3324109614 2.2669999599 52.812999725 87.563003540 2.6050000191 102.05000305 1.0410000086 2.8729999065
 3363.9890137 6.0000000000 14.425999641 0.0530320518 0.3384603262 2.2690000534 50.969001770 89.188003540 2.8010001183 98.425003052 0.9390000105 3.1270000935
 3364.1413574 6.0000000000 13.807000160 0.0350576006 0.3354796171 2.2980000973 50.062999725 86.749992371 2.6860001087 101.55000305 0.7170000076 3.1540000439
 3364.2939453 6.0000000000 13.366999626 0.0409903862 0.3248869777 2.3699998856 49.437999725 82.188003540 2.5209999084 100.42500305 0.9509999752 3.9939999580
 3364.4462891 6.0000000000 13.352000237 0.0529807694 0.2803514600 2.4010000229 46.311000824 79.757003784 2.9470000267 101.80000305 2.5060000420 5.0960001945
 3364.5986328 6.0000000000 13.706000328 0.0549967960 0.2419415414 2.3410000801 45.905998230 82.000000000 3.9470000267 102.80000305 5.5199999809 3.3380000591
 3364.7509766 6.0000000000 14.289999962 0.0350640006 0.2380821854 2.2639999390 43.687999725 85.000000000 4.6760001183 102.67500305 1.3949999809 3.1449999809
 3364.9035645 6.0000000000 14.445000648 0.0290096141 0.2762487233 2.2699999809 42.937999725 85.000000000 4.9609999657 102.67500305 0.4510000050 3.4409999847
 3365.0559082 16.000000000 14.340000153 0.0579535253 0.3096165359 2.3929998875 36.651000977 78.712997437 4.7569999695 102.67500305 0.6140000224 4.7579998970
 3365.2082520 16.000000000 14.428999901 0.1388701946 0.3139531016 2.5829999447 34.969001770 67.188003540 4.5980000496 102.67500305 0.8140000105 7.3200001717
 3365.3605957 16.000000000 14.336999893 0.1778752059 0.3115577400 2.6459999084 31.218999863 56.594001770 3.8199999332 102.42500305 2.4849998951 15.171999931
 3365.5131836 16.000000000 14.060000420 0.1420577019 0.3088443577 2.5169999599 39.530998230 64.750000000 3.4360001087 102.05000305 5.4219999313 61.719001770
 3365.6655273 16.000000000 14.053000450 0.0890849382 0.3074821532 2.3399999142 41.562999725 72.188003540 3.5350000858 101.42500305 3.6150000095 20.843999863
 3365.8178711 5.0000000000 14.335000038 0.0560528859 0.2992731929 2.2460000515 47.312999725 80.187995911 3.5160000324 102.17500305 1.1640000343 4.2420001030
 3365.9702148 5.0000000000 14.127999306 0.0679807737 0.2934592962 2.2679998875 45.405998230 89.000000000 2.5859999657 101.55000305 0.7319999933 2.9079999924
 3366.1228027 5.0000000000 13.729999542 0.0999488011 0.2980426550 2.3410000801 50.469001770 89.563003540 2.2750000954 101.05000305 0.5799999833 3.0590000153
 3366.2751465 5.0000000000 13.647999763 0.1269567311 0.2994177938 2.3949999809 50.844001770 88.188003540 2.2460000515 102.80000305 0.6010000110 3.1930000782
 3366.4274902 6.0000000000 13.661999702 0.1270000041 0.2913130224 2.4100000858 52.993000031 88.369003296 2.2320001125 102.30000305 0.5360000134 3.1800000668
 3366.5798340 6.0000000000 13.663999557 0.1170160249 0.2663600147 2.4030001163 50.937999725 86.375000000 2.2049999237 102.80000305 0.8799999952 3.1840000153
 3366.7321777 6.0000000000 13.677000046 0.1060351953 0.2486766279 2.3810000420 50.750000000 86.375000000 2.2049999237 102.42500305 1.5759999752 3.1819999218
 3366.8847656 6.0000000000 14.031000137 0.0750496835 0.2432985455 2.3619999886 49.344001770 86.188003540 2.3029999733 102.17500305 1.7020000219 3.1889998913
 3367.0371094 6.0000000000 13.897000313 0.0350641012 0.2508977652 2.3819999695 46.375999451 83.198005676 2.3050000668 102.05000305 1.0880000591 3.4089999199
 3367.1894531 6.0000000000 13.380999565 0.0060464744 0.2653967440 2.4649999142 46.719001770 86.563011169 2.3220000267 100.55000305 0.7889999747 3.5020000935
 3367.3417969 6.0000000000 13.183999062 -0.002971200 0.2775211334 2.5599999428 45.125000000 87.188003540 2.4979999065 100.30000305 0.7379999757 2.8220000267
 3367.4943848 6.0000000000 13.168999672 0.0039887824 0.2672266066 2.5950000286 47.094001770 86.563011169 2.5230000019 100.80000305 0.9049999714 2.6050000191
 3367.6467285 6.0000000000 13.177000999 0.0099903848 0.2331047505 2.5940001011 44.969001770 87.563003540 2.5880000591 102.30000305 0.7360000014 2.4820001125
 3367.7990723 6.0000000000 13.173000336 0.0109983971 0.1976568252 2.5920000076 45.250000000 85.000000000 2.5999999046 101.92500305 0.5939999819 3.2360000610
 3367.9514160 5.0000000000 13.166000366 0.0060160002 0.1831065118 2.5899999142 45.000000000 80.750000000 2.6719999313 102.42500305 1.8780000210 4.0199999809
 3368.1040039 5.0000000000 13.163998604 0.0119903851 0.1824210286 2.5989999771 42.530998230 77.188003540 2.7520000935 102.92500305 8.3959999084 4.5349998474
 3368.2563477 5.0000000000 13.163998604 0.0169919878 0.1823700666 2.6080000401 40.030998230 77.375000000 3.1310000420 97.300003052 7.4819998741 4.1950001717
 3368.4086914 5.0000000000 13.163998604 0.0080144238 0.1810421348 2.6089999676 38.280998230 78.190002441 3.3750000000 100.42500305 7.0110001564 4.0469999313
 3368.5610352 5.0000000000 13.163998604 -0.003980769 0.1814693063 2.5959999561 38.187999725 79.000000000 3.4200000763 100.17500305 6.3829998970 4.1090002060
 3368.7133789 5.0000000000 13.170999527 -0.004000000 0.1850185990 2.5880000591 39.405998230 79.188003540 3.4630000591 101.80000305 6.3880000114 4.0469999313
 3368.8659668 5.0000000000 13.170999527 0.0039871796 0.1839217693 2.5950000286 38.280998230 79.000000000 3.3750000000 102.80000305 6.8109998703 3.9690001011
 3369.0183105 5.0000000000 13.156000137 0.0139839752 0.1771908104 2.6119999886 38.909000397 79.189002991 3.3180000782 102.67500305 6.0570001602 3.9340000153
 3369.1706543 5.0000000000 13.143000603 0.0209887810 0.1669863611 2.6180000305 39.687999725 79.750000000 3.2249999046 102.55000305 5.8790001869 3.9630000591
 3369.3229980 5.0000000000 13.137000084 0.0249872003 0.1634812057 2.6170001030 40.844001770 78.188003540 3.2070000172 101.92500305 6.8499999046 3.9549999237
 3369.4755859 5.0000000000 13.137000084 0.0250000004 0.1663154215 2.6140000820 39.562999725 78.750000000 3.1909999847 101.92500305 6.4010000229 3.9730000496
 3369.6279297 5.0000000000 13.140000343 0.0100240381 0.1697245240 2.6050000191 40.655998230 78.563003540 3.2790000439 101.42500305 6.1859998703 3.9800000191
 3369.7802734 5.0000000000 13.147000313 -0.000982372 0.1695602685 2.5980000496 38.500000000 78.188003540 3.3199999332 99.550003052 7.0170001984 3.9730000496
 3369.9326172 5.0000000000 13.147999763 -0.001000000 0.1698889434 2.5999999046 41.312999725 77.750000000 3.4119999409 100.92500305 5.8819999695 4.0980000496
 3370.0852051 5.0000000000 13.149000168 -0.001000000 0.1788156778 2.6019999981 38.219001770 77.188003540 3.3870000839 101.55000305 6.5130000114 4.3590002060
 3370.2375488 5.0000000000 13.147999763 -0.001000000 0.1908207387 2.5950000286 41.155998230 76.749992371 3.4219999313 101.80000305 7.0430002213 4.6290001869
 3370.3898926 5.0000000000 13.142000198 -0.004993590 0.2018722892 2.5780000687 38.639999390 77.564002991 3.4409999847 101.80000305 7.3819999695 4.5890002251
 3370.5422363 5.0000000000 13.137000084 0.0039855773 0.2069518715 2.5799999237 43.250000000 78.188003540 3.3980000019 101.92500305 8.1949996948 4.4299998283
 3370.6945801 5.0000000000 13.133999825 0.0139680002 0.2047172040 2.5969998837 43.687999725 79.563003540 3.4100000858 101.67500305 6.7449998856 4.3200001717
 3370.8471680 5.0000000000 13.145999908 0.0369631425 0.1981205940 2.6240000725 48.312999725 79.188003540 3.4000000954 101.55000305 6.6820001602 4.3090000153
 3370.9995117 5.0000000000 13.156998634 0.0469839722 0.1931479573 2.6440000534 46.659000397 79.375007629 3.4240000248 100.92500305 6.8590002060 4.1989998817
 3371.1518555 5.0000000000 13.160000801 0.0450032055 0.2028444260 2.6410000324 47.530998230 79.375007629 3.4489998817 101.05000305 7.0089998245 4.1479997635
