# LAS format log file from PETREL
# Project units are specified as depth units
#==================================================================
~Version information
VERS.   2.0:
WRAP.   NO:
#==================================================================
~Well
STRT .m      1809.0520020 :
STOP .m      4407.6245117 :
STEP .m     0.00000000 :
NULL .        -999.250000 :
COMP.           : COMPANY
WELL.  35/3-2   : WELL
FLD.            : FIELD
LOC.            : LOCATION
SRVC.           : SERVICE COMPANY
DATE.  2018-09-11 14:48:58   : Log Export Date {yyyy-MM-dd HH:mm:ss}
PROV.           : PROVINCE
UWI.   35/3-2   : UNIQUE WELL ID
API.            : API NUMBER
#==================================================================
~Curve
DEPT .m                   : DEPTH
Lithology_geolink ._      : Lithology_geolink
CALI .in                  : CALI
DRHO .g/cm3               : DRHO
NPHI .m3/m3               : NPHI
RHOB .g/cm3               : RHOB
GR .gAPI                  : GR
DTC .us/ft                : DTC
RDEP .ohm.m               : RDEP
SP .mV                    : SP
RSHA .ohm.m               : RSHA
RMED .ohm.m               : RMED
~Parameter
#==================================================================
~Ascii
# ...
 2151.0375977 5.0000000000  -999.250000  -999.250000  -999.250000  -999.250000 43.592750549 116.01021576 1.5360704660 61.125400543 0.7270016074 1.2829823494
 2151.1899414 5.0000000000  -999.250000  -999.250000  -999.250000  -999.250000 42.812999725 122.37760162 1.5800000429 61.376201630 0.7279999852 1.2720208168
 2151.3422852 5.0000000000  -999.250000  -999.250000  -999.250000  -999.250000 37.062999725 124.00511169 1.5970000029 62.125000000 0.6940000057 1.2850416899
 2151.4948730 5.0000000000  -999.250000  -999.250000  -999.250000  -999.250000 35.592800140 127.13860321 1.5960223675 62.122200012 0.6610640883 1.3113136292
 2151.6472168 2.0000000000  -999.250000  -999.250000  -999.250000  -999.250000 34.843502045 111.72915649 1.6099567413 61.248397827 0.7015432715 1.4090000391
 2151.7995605 2.0000000000  -999.250000  -999.250000  -999.250000  -999.250000 34.532100677 98.764122009 1.5829471350 60.249599457 1.0396959782 1.4089664221
 2151.9519043 2.0000000000  -999.250000  -999.250000  -999.250000  -999.250000 35.219001770 107.58193207 1.5499999523 60.000400543 0.8500000238 1.3878958225
 2152.1044922 2.0000000000  -999.250000  -999.250000  -999.250000  -999.250000 36.942405701 119.36420441 1.5920256376 60.250000000 0.7580528855 1.3226735592
 2152.2568359 2.0000000000  -999.250000  -999.250000  -999.250000  -999.250000 39.693107605 116.00891876 1.6080818176 60.250602722 0.7909166813 1.2209230661
 2152.4091797 2.0000000000  -999.250000  -999.250000  -999.250000  -999.250000 42.869400024 121.56591797 1.6590496302 60.625400543 0.7389424443 1.1730768681
 2152.5615234 2.0000000000  -999.250000  -999.250000  -999.250000  -999.250000 39.375000000 123.36829376 1.6900000572 60.875400543 0.7030000091 1.2211089134
 2152.7138672 2.0000000000  -999.250000  -999.250000  -999.250000  -999.250000 40.812999725 119.16456604 1.6480000019 61.125000000 0.6759999990 1.2891314030
 2152.8664551 2.0000000000  -999.250000  -999.250000  -999.250000  -999.250000 39.322563171 104.57640076 1.6000064611 61.125801086 0.6060849428 1.3713904619
 2153.0187988 2.0000000000  -999.250000  -999.250000  -999.250000  -999.250000 45.280399323 108.75901794 1.6040447950 61.373596191 0.6591087580 1.4928077459
 2153.1711426 2.0000000000  -999.250000  -999.250000  -999.250000  -999.250000 44.905998230 114.37760925 1.6319999695 60.498195648 0.7269999981 1.3730015755
 2153.3234863 2.0000000000  -999.250000  -999.250000  -999.250000  -999.250000 42.905998230 116.00761414 1.6540000439 59.375000000 0.7440000176 1.3738781214
 2153.4760742 2.0000000000  -999.250000  -999.250000  -999.250000  -999.250000 37.628005981 120.75000000 1.6609823704 59.376598358 0.6729919910 1.2979040146
 2153.6284180 2.0000000000  -999.250000  -999.250000  -999.250000  -999.250000 39.503456116 120.73597717 1.6499470472 59.875801086 0.6679999828 1.2679903507
 2153.7807617 5.0000000000  -999.250000  -999.250000  -999.250000  -999.250000 41.659099579 112.00511169 1.6169631481 60.373798370 0.6680127978 1.2620128393
 2153.9331055 5.0000000000  -999.250000  -999.250000  -999.250000  -999.250000 43.594001770 115.19570923 1.5939999819 59.627002716 0.6759999990 1.2701650858
 2154.0856934 5.0000000000  -999.250000  -999.250000  -999.250000  -999.250000 44.311046600 119.97879791 1.5629711151 60.874198914 0.6900817156 1.3730159998
 2154.2380371 5.0000000000  -999.250000  -999.250000  -999.250000  -999.250000 43.099811554 113.38040924 1.5450352430 60.625801086 0.7410737276 1.3779535294
 2154.3903809 5.0000000000  -999.250000  -999.250000  -999.250000  -999.250000 46.715049744 116.74398041 1.5669744015 61.124599457 0.7875216007 1.3489166498
 2154.5427246 5.0000000000  -999.250000  -999.250000  -999.250000  -999.250000 44.250000000 113.00440216 1.5509999990 60.874198914 1.1130000353 1.2969599962
 2154.6950684 5.0000000000  -999.250000  -999.250000  -999.250000  -999.250000 46.375000000 115.75099945 1.5379999876 60.375400543 0.9909999967 1.2720495462
 2154.8476563 5.0000000000  -999.250000  -999.250000  -999.250000  -999.250000 43.971157074 116.37690735 1.5169214010 60.626602173 0.9489983916 1.3029919863
 2155.0000000 6.0000000000  -999.250000  -999.250000  -999.250000  -999.250000 45.316249847 117.56851196 1.4679712057 61.625801086 0.9476495981 1.2980064154
 2155.1523438 6.0000000000  -999.250000  -999.250000  -999.250000  -999.250000 47.344001770 120.99739838 1.4500000477 62.124397278 0.7289999723 1.3019727468
 2155.3046875 6.0000000000  -999.250000  -999.250000  -999.250000  -999.250000 48.375000000 119.36830139 1.4459999800 61.751602173 0.6219999790 1.2850384712
 2155.4572754 6.0000000000  -999.250000  -999.250000  -999.250000  -999.250000 50.095806122 115.18659210 1.4199678898 62.753997803 0.6240593195 1.3090096712
 2155.6096191 6.0000000000  -999.250000  -999.250000  -999.250000  -999.250000 51.217849731 114.74839783 1.3999807835 64.000000000 0.6611520052 1.3119744062
 2155.7619629 6.0000000000  -999.250000  -999.250000  -999.250000  -999.250000 50.500000000 113.75230408 1.3880000114 64.000801086 0.7559999824 1.2959823608
 2155.9143066 6.0000000000  -999.250000  -999.250000  -999.250000  -999.250000 48.000000000 115.19120026 1.3650000095 64.499595642 1.2309999466 1.2849870920
 2156.0668945 6.0000000000  -999.250000  -999.250000  -999.250000  -999.250000 44.154495239 117.18340302 1.3499840498 64.250801086 0.8781731129 1.2769135237
 2156.2192383 6.0000000000  -999.250000  -999.250000  -999.250000  -999.250000 43.216197968 115.75130463 1.3399647474 64.502807617 0.9859551191 1.2499952316
 2156.3715820 6.0000000000  -999.250000  -999.250000  -999.250000  -999.250000 41.473052979 116.56912231 1.3179935217 66.244590759 0.9580720067 1.2469887733
 2156.5239258 6.0000000000  -999.250000  -999.250000  -999.250000  -999.250000 44.000000000 120.37239838 1.3140000105 62.872398376 1.0030000210 1.2399696112
 2156.6765137 6.0000000000  -999.250000  -999.250000  -999.250000  -999.250000 44.319507599 118.76159668 1.3129999638 61.254398346 1.0184016228 1.2209455967
 2156.8288574 5.0000000000  -999.250000  -999.250000  -999.250000  -999.250000 48.372245789 122.37339783 1.3130031824 62.624797821 0.8318381310 1.2040032148
 2156.9812012 5.0000000000  -999.250000  -999.250000  -999.250000  -999.250000 46.656749725 121.37470245 1.3150064945 62.501804352 0.7311602831 1.2060079575
 2157.1335449 5.0000000000  -999.250000  -999.250000  -999.250000  -999.250000 47.125000000 121.18379974 1.3189903498 63.625400543 0.8307355642 1.2110400200
 2157.2858887 5.0000000000  -999.250000  -999.250000  -999.250000  -999.250000 44.250000000 118.55889893 1.3129903078 63.874195099 0.6658573747 1.2360175848
 2157.4384766 5.0000000000  -999.250000  -999.250000  -999.250000  -999.250000 43.410354614 116.00180054 1.3070448637 63.376602173 0.5775792003 1.2470735312
 2157.5908203 5.0000000000  -999.250000  -999.250000  -999.250000  -999.250000 46.125450134 116.56240845 1.3210288286 63.875396729 0.7584647536 1.2699726820
 2157.7431641 5.0000000000  -999.250000  -999.250000  -999.250000  -999.250000 46.405998230 116.18890381 1.3390240669 64.124595642 1.0474599600 1.2529776096
 2157.8955078 5.0000000000  -999.250000  -999.250000  -999.250000  -999.250000 48.250000000 116.75159454 1.3540176153 63.870990753 0.7109535336 1.2390096188
 2158.0480957 5.0000000000  -999.250000  -999.250000  -999.250000  -999.250000 47.123146057 117.74620056 1.3650383949 61.378200531 0.6823487878 1.2450127602
 2158.2004395 5.0000000000  -999.250000  -999.250000  -999.250000  -999.250000 45.969402313 116.56651306 1.3770223856 62.374198914 0.7912019491 1.2489935160
 2158.3527832 5.0000000000  -999.250000  -999.250000  -999.250000  -999.250000 46.214500427 118.74839783 1.3910176754 61.875400543 0.9170705080 1.2450368404
 2158.5051270 5.0000000000  -999.250000  -999.250000  -999.250000  -999.250000 43.405998230 117.74879456 1.4020208120 62.127002716 0.9605336785 1.2680159807
 2158.6577148 5.0000000000  -999.250000  -999.250000  -999.250000  -999.250000 42.059143066 117.00440216 1.4150511026 63.374202728 0.6698848009 1.2779488564
