# LAS format log file from PETREL
# Project units are specified as depth units
#==================================================================
~Version information
VERS.   2.0:
WRAP.   NO:
#==================================================================
~Well
STRT .m      1003.2490234 :
STOP .m      2879.9025879 :
STEP .m     0.00000000 :
NULL .        -999.250000 :
COMP.           : COMPANY
WELL.  35/9-2   : WELL
FLD.            : FIELD
LOC.            : LOCATION
SRVC.           : SERVICE COMPANY
DATE.  2018-09-11 14:49:01   : Log Export Date {yyyy-MM-dd HH:mm:ss}
PROV.           : PROVINCE
UWI.   35/9-2   : UNIQUE WELL ID
API.            : API NUMBER
#==================================================================
~Curve
DEPT .m                   : DEPTH
Lithology_geolink ._      : Lithology_geolink
DCAL .in                  : DCAL
CALI .in                  : CALI
BS .in                    : BS
DRHO .g/cm3               : DRHO
SGR .gAPI                 : SGR
NPHI .m3/m3               : NPHI
RHOB .g/cm3               : RHOB
GR .gAPI                  : GR
DTC .us/ft                : DTC
DTS .us/ft                : DTS
RDEP .ohm.m               : RDEP
SP .mV                    : SP
RSHA .ohm.m               : RSHA
RMIC .ohm.m               : RMIC
RMED .ohm.m               : RMED
~Parameter
#==================================================================
~Ascii
# ...
 2751.2770996 5.0000000000 -0.033260349 8.4667396545 8.5000000000 0.0089875879 103.53478241 0.2267556041 2.5413169861 106.02368164  -999.250000  -999.250000 8.6078453064 17.340339661  -999.250000  -999.250000 9.4775962830
 2751.4294434 5.0000000000 -0.042716030 8.4572839737 8.5000000000 0.0094693964 100.44506073 0.2242816985 2.5340149403 99.409698486  -999.250000  -999.250000 8.7458448410 9.6634740829  -999.250000  -999.250000 9.4661941528
 2751.5817871 5.0000000000 -0.062396999 8.4376029968 8.5000000000 0.0071466770 101.55264282 0.2211308032 2.5240650177 102.11428070  -999.250000  -999.250000 8.8874197006 -0.556559086  -999.250000  -999.250000 9.7110204697
 2751.7341309 5.0000000000 -0.079840653 8.4201593399 8.5000000000 0.0044469959 108.15737152 0.2161813974 2.5362870693 102.22476959  -999.250000  -999.250000 8.9897651672 -17.05326080  -999.250000  -999.250000 10.274749756
 2751.8867188 5.0000000000 -0.068587303 8.4314126968 8.5000000000 0.0028655110 107.10678101 0.2130557001 2.5444970131 101.26573944  -999.250000  -999.250000 9.1232280731 -36.68022156  -999.250000  -999.250000 11.175660133
 2752.0390625 5.0000000000 -0.051166531 8.4488334656 8.5000000000 0.0053839800 106.09625244 0.2102959007 2.5423541069 99.718315125  -999.250000  -999.250000 9.3721809387 -10.28876972  -999.250000  -999.250000 11.772760391
 2752.1914063 5.0000000000 -0.062395103 8.4376049042 8.5000000000 0.0066599818 105.53267670 0.2074248940 2.5421330929 98.577911377  -999.250000  -999.250000 9.8047857285 33.561191559  -999.250000  -999.250000 11.778369904
 2752.3437500 5.0000000000 -0.064435959 8.4355640411 8.5000000000 0.0042009829 104.38885498 0.2068699002 2.5383660793 101.30989838  -999.250000  -999.250000 10.434969902 46.413089752  -999.250000  -999.250000 11.823129654
 2752.4963379 6.0000000000 -0.051155094 8.4488449097 8.5000000000 0.0002544438 104.10294342 0.2112627029 2.5352599621 109.54235077  -999.250000  -999.250000 10.834039688 44.719619751  -999.250000  -999.250000 12.032690048
 2752.6486816 6.0000000000 -0.046999935 8.4530000687 8.5000000000 -0.000772604 102.58423615 0.2158229947 2.5402379036 111.98932648  -999.250000  -999.250000 10.369700432 41.187690735  -999.250000  -999.250000 12.066060066
 2752.8010254 6.0000000000 -0.046999935 8.4530000687 8.5000000000 -0.002362734 100.32027435 0.2104676962 2.5357758999 112.86112213  -999.250000  -999.250000 9.0795907974 35.845008850  -999.250000  -999.250000 11.991920471
 2752.9533691 6.0000000000 -0.062399853 8.4376001358 8.5000000000 -0.001882726 97.739379883 0.2001335025 2.5377709866 103.46343994  -999.250000  -999.250000 7.5787878036 28.707899094  -999.250000  -999.250000 12.349439621
 2753.1059570 5.0000000000 -0.079842575 8.4201574326 8.5000000000 0.0023504579 98.761459351 0.1981298029 2.5362489223 100.43538666  -999.250000  -999.250000 6.3420281410 19.568199158  -999.250000  -999.250000 12.420310020
 2753.2583008 5.0000000000 -0.115196198 8.3848037720 8.5000000000 0.0196363106 100.28298187 0.2136065960 2.5644810200 100.30431366  -999.250000  -999.250000 5.5672597885 7.7704339027  -999.250000  -999.250000 9.2524261475
 2753.4106445 5.0000000000 -0.150545105 8.3494548798 8.5000000000 0.0381895006 98.192993164 0.2305849046 2.5962529182 99.245788574  -999.250000  -999.250000 5.2223138809 -10.45230007  -999.250000  -999.250000 5.1913809776
 2753.5629883 5.0000000000 -0.159000397 8.3409996033 8.5000000000 0.0353394784 95.868797302 0.2284204066 2.5577750206 95.135787964  -999.250000  -999.250000 5.0305209160 -47.62770081  -999.250000  -999.250000 3.4063870907
 2753.7153320 2.0000000000 -0.206047103 8.2939529419 8.5000000000 0.0175048001 89.440979004 0.2104866058 2.4785621166 84.303291321  -999.250000  -999.250000 4.7481961250 7.1755352020  -999.250000  -999.250000 3.2274379730
 2753.8679199 2.0000000000 -0.275146514 8.2248544693 8.5000000000 0.0049405219 77.776290894 0.1946402043 2.4421141148 75.305671692  -999.250000  -999.250000 4.3256669044 96.360801697  -999.250000  -999.250000 3.7017819881
 2754.0202637 2.0000000000 -0.305721313 8.1942787170 8.5000000000 0.0104344599 74.577369690 0.1953614950 2.4759180546 72.865158081  -999.250000  -999.250000 3.8809080124 117.98789978  -999.250000  -999.250000 4.2466201782
 2754.1726074 2.0000000000 -0.310000390 8.1899995804 8.5000000000 0.0189153999 77.643325806 0.2023611963 2.4887590408 74.158012390  -999.250000  -999.250000 3.5283470154 120.63020325  -999.250000  -999.250000 4.8017749786
 2754.3249512 2.0000000000 -0.294181794 8.2058181763 8.5000000000 0.0223063007 81.278587341 0.1995067000 2.4703550339 77.374725342  -999.250000  -999.250000 3.2837839127 124.91790009  -999.250000  -999.250000 5.2756829262
 2754.4775391 2.0000000000 -0.260857612 8.2391424179 8.5000000000 0.0244385209 80.796974182 0.1835632026 2.4872660637 77.231758118  -999.250000  -999.250000 3.1215050220 126.19380951  -999.250000  -999.250000 4.8371939659
 2754.6298828 1.0000000000 -0.239168197 8.2608318329 8.5000000000 0.0216718204 78.272819519 0.1691309959 2.4987719059 73.325508118  -999.250000  -999.250000 3.0570750237 126.66599274  -999.250000  -999.250000 3.4943010807
 2754.7822266 1.0000000000 -0.250391990 8.2496080399 8.5000000000 0.0133254202 74.277175903 0.1743407995 2.4580469131 66.216171265  -999.250000  -999.250000 3.0886960030 127.24129486  -999.250000  -999.250000 2.5164968967
 2754.9345703 1.0000000000 -0.283653289 8.2163467407 8.5000000000 0.0064052581 68.176658630 0.1956758946 2.3914399147 62.364070892  -999.250000  -999.250000 3.1231310368 127.15969849  -999.250000  -999.250000 2.2014670372
 2755.0871582 1.0000000000 -0.305730790 8.1942691803 8.5000000000 0.0058903568 66.872230530 0.2071724981 2.3590230942 62.389034271  -999.250000  -999.250000 3.0686740875 126.83430481  -999.250000  -999.250000 2.2920639515
 2755.2395020 1.0000000000 -0.310000390 8.1899995804 8.5000000000 0.0096288985 68.670440674 0.1986044943 2.3745288849 61.887874603  -999.250000  -999.250000 2.8847370148 126.85400391  -999.250000  -999.250000 2.6743218899
 2755.3918457 1.0000000000 -0.310000390 8.1899995804 8.5000000000 0.0061973748 69.405639648 0.1830433011 2.3847360611 65.213386536  -999.250000  -999.250000 2.7139999866 126.55590820  -999.250000  -999.250000 3.3121600151
 2755.5441895 1.0000000000 -0.310000390 8.1899995804 8.5000000000 0.0005208388 73.356193542 0.1754806936 2.3954811096 74.593505859  -999.250000  -999.250000 2.7651789188 126.21660614  -999.250000  -999.250000 3.7675099373
 2755.6967773 1.0000000000 -0.294178993 8.2058210373 8.5000000000 0.0014405550 80.267242432 0.1818027049 2.4403440952 81.269790649  -999.250000  -999.250000 2.9719760418 127.05460358  -999.250000  -999.250000 3.5395669937
 2755.8491211 1.0000000000 -0.260852814 8.2391471863 8.5000000000 0.0035510201 82.156417847 0.1923892051 2.4564280510 80.245704651  -999.250000  -999.250000 3.1416940689 127.71309662  -999.250000  -999.250000 3.0808539391
 2756.0014648 2.0000000000 -0.239166319 8.2608337402 8.5000000000 0.0002552034 78.051429749 0.1976045966 2.4085919857 72.929519653  -999.250000  -999.250000 3.1442160606 127.58450317  -999.250000  -999.250000 2.8413019180
 2756.1538086 2.0000000000 -0.250393897 8.2496061325 8.5000000000 -0.004818494 76.322288513 0.1917538941 2.3708329201 71.946807861  -999.250000  -999.250000 2.9183869362 127.18799591  -999.250000  -999.250000 2.9210259914
 2756.3061523 2.0000000000 -0.267839402 8.2321605682 8.5000000000 -0.004277437 79.292900085 0.1832893938 2.3797800541 75.080474854  -999.250000  -999.250000 2.5944828987 126.83439636  -999.250000  -999.250000 2.9967679977
 2756.4587402 2.0000000000 -0.272000313 8.2279996872 8.5000000000 -0.001257324 81.478805542 0.1820195019 2.3988509178 83.343269348  -999.250000  -999.250000 2.3701701164 127.37471008  -999.250000  -999.250000 2.6510660648
 2756.6110840 2.0000000000 -0.287809402 8.2121906281 8.5000000000 -0.000528683 77.717628479 0.1871652007 2.3794729710 82.064414978  -999.250000  -999.250000 2.3065400124 128.08099365  -999.250000  -999.250000 2.2115960121
 2756.7634277 2.0000000000 -0.289910287 8.2100896835 8.5000000000 -0.002551303 70.592681885 0.1907725036 2.3448040485 77.931373596  -999.250000  -999.250000 2.3304560184 128.14599609  -999.250000  -999.250000 1.9932570457
