# LAS format log file from PETREL
# Project units are specified as depth units
#==================================================================
~Version information
VERS.   2.0:
WRAP.   NO:
#==================================================================
~Well
STRT .m      1110.2340088 :
STOP .m      3322.9296875 :
STEP .m     0.00000000 :
NULL .        -999.250000 :
COMP.           : COMPANY
WELL.  35/9-9   : WELL
FLD.            : FIELD
LOC.            : LOCATION
SRVC.           : SERVICE COMPANY
DATE.  2018-09-11 14:49:02   : Log Export Date {yyyy-MM-dd HH:mm:ss}
PROV.           : PROVINCE
UWI.   35/9-9   : UNIQUE WELL ID
API.            : API NUMBER
#==================================================================
~Curve
DEPT .m                   : DEPTH
Lithology_geolink ._      : Lithology_geolink
CALI .in                  : CALI
BS .in                    : BS
ROP .m/h                  : ROP
DRHO .g/cm3               : DRHO
NPHI .m3/m3               : NPHI
RHOB .g/cm3               : RHOB
PEF .b/e                  : PEF
GR .gAPI                  : GR
DTC .us/ft                : DTC
DTS .us/ft                : DTS
RDEP .ohm.m               : RDEP
RMED .ohm.m               : RMED
~Parameter
#==================================================================
~Ascii
# ...
 2002.0787354 13.000000000 12.386099815 12.250000954 119.69029236 0.0640999973 0.2595249712 2.4877998829 4.3835000992 86.484451294 93.169311523  -999.250000 2.1470999718 2.1366415024
 2002.2312012 13.000000000 12.414500237 12.250000954 124.18833160 0.0746999979 0.2511067390 2.4925000668 4.2059001923 85.865798950 94.232742310  -999.250000 2.1545000076 2.1156167984
 2002.3835449 13.000000000 12.422900200 12.250000954 121.32054138 0.0776000097 0.2499019206 2.4730000496 3.8601000309 83.711357117 95.200958252  -999.250000 2.2332999706 2.1968696117
 2002.5360107 13.000000000 12.427300453 12.250000954 115.26116180 0.0776000097 0.2543964088 2.4797000885 3.7321000099 81.250671387 95.191810608  -999.250000 2.2270998955 2.1825115681
 2002.6883545 13.000000000 12.386099815 12.250000954 119.65715027 0.0762000009 0.2427093685 2.4772000313 3.7578999996 80.212532043 95.006546021  -999.250000 2.0585999489 2.0330200195
 2002.8408203 13.000000000 12.392000198 12.250000954 110.29396057 0.0688999966 0.2427999228 2.4756000042 3.8046998978 80.082206726 94.607322693  -999.250000 1.9743000269 1.9533637762
 2002.9931641 13.000000000 12.371898651 12.250000954 110.36154938 0.0689999983 0.2492947876 2.4619998932 3.8533999920 78.217498779 94.191932678  -999.250000 1.9549000263 1.9400106668
 2003.1456299 13.000000000 12.347800255 12.250000954 108.56659698 0.0636000037 0.2556999922 2.4542000294 3.7560000420 76.457710266 94.877647400  -999.250000 1.9993000031 1.9926577806
 2003.2979736 13.000000000 12.449799538 12.250000954 114.74868011 0.0856999978 0.2511000037 2.4935998917 3.8087999821 78.860366821 95.651084900  -999.250000 2.0371000767 2.0169804096
 2003.4504395 13.000000000 12.433099747 12.250000954 114.85039520 0.0869000033 0.2456000000 2.5088000298 3.8229999542 82.863998413 95.912193298  -999.250000 2.0172998905 1.9870239496
 2003.6027832 13.000000000 12.408598900 12.250000954 108.82775879 0.0860000029 0.2391999960 2.5064001083 3.8392999172 85.013374329 95.003829956  -999.250000 1.9611999989 1.9314445257
 2003.7552490 13.000000000 12.463500023 12.250000954 113.02297974 0.0759999976 0.2354000062 2.4914000034 3.8503000736 85.491821289 93.764190674  -999.250000 2.0048999786 1.9855566025
 2003.9075928 13.000000000 12.443900108 12.250000954 120.38320160 0.0833000019 0.2217999995 2.5088000298 3.7732000351 83.505691528 92.561058044  -999.250000 2.0739998817 2.0541448593
 2004.0599365 13.000000000 12.452099800 12.250000954 113.85171509 0.0931999981 0.2094999999 2.5127000809 3.8819999695 79.890800476 90.749214172  -999.250000 2.1617999077 2.1427578926
 2004.2124023 13.000000000 12.466500282 12.250000954 108.87927246 0.0848999992 0.2080000043 2.4830000401 3.7051000595 79.322647095 90.089729309  -999.250000 2.2730998993 2.2480156422
 2004.3647461 13.000000000 12.450799942 12.250000954 124.03379059 0.0715000033 0.2133000046 2.4428999424 3.5948998928 81.500907898 90.731964111  -999.250000 2.3433001041 2.3086030483
 2004.5172119 13.000000000 12.450099945 12.250000954 113.82579041 0.0640000030 0.2238000035 2.4361000061 3.5653998852 80.493110657 91.649803162  -999.250000 2.3991000652 2.3494672775
 2004.6695557 13.000000000 12.447400093 12.250000954 109.83103943 0.0696000010 0.2291000038 2.4511001110 3.7197999954 77.650558472 93.777900696  -999.250000 2.3968999386 2.3463048935
 2004.8220215 13.000000000 12.438699722 12.250000954 110.57775879 0.0694999993 0.2441000044 2.4547998905 3.8380999565 78.896797180 96.703201294  -999.250000 2.2957999706 2.2777550220
 2004.9743652 13.000000000 12.431200027 12.250000954 109.46488953 0.0588000007 0.2576999962 2.4718000889 3.6647000313 83.076049805 97.183601379  -999.250000 2.1175999641 2.1353142262
 2005.1268311 13.000000000 12.454700470 12.250000954 111.87663269 0.0447000004 0.2630999982 2.4558000565 3.6066000462 87.757957458 97.736801147  -999.250000 1.9308999777 1.9442529678
 2005.2791748 13.000000000 12.472399712 12.250000954 108.91961670 0.0434999987 0.2621999979 2.4798998833 3.4245998859 92.200637817 97.713600159  -999.250000 1.8540999889 1.8486765623
 2005.4316406 13.000000000 12.455699921 12.250000954 102.44882202 0.0524000004 0.2712000012 2.4818000793 3.5099000931 92.699302673 97.529899597  -999.250000 1.8149000406 1.7948430777
 2005.5839844 13.000000000 12.503700256 12.250000954 108.30314636 0.0553999990 0.2763999999 2.4937996864 3.4198000431 88.840797424 98.241989136  -999.250000 1.8207000494 1.7821100950
 2005.7364502 13.000000000 12.387100220 12.250000954 107.73294830 0.0491000041 0.2725999951 2.4900999069 3.4711999893 84.886566162 97.531196594  -999.250000 1.8203999996 1.7674118280
 2005.8887939 13.000000000 12.469400406 12.250000954 102.61351776 0.0564999990 0.2572000027 2.4841001034 3.4967000484 84.988014221 95.749198914  -999.250000 1.8011000156 1.7713967562
 2006.0411377 13.000000000 12.481199265 12.250000954 105.05216980 0.0653999969 0.2404000014 2.4828000069 3.6846001148 90.171783447 92.329399109  -999.250000 1.7743999958 1.7470390797
 2006.1936035 13.000000000 12.494899750 12.250000954 111.02034760 0.0762000009 0.2255000025 2.4900999069 4.0267000198 94.750335693 88.653198242  -999.250000 1.8133000135 1.7817721367
 2006.3459473 13.000000000 12.393899918 12.250000954 108.72933960 0.0615000017 0.2159000039 2.4842998981 4.1898999214 91.587882996 87.507400513  -999.250000 1.9989999533 1.9792832136
 2006.4984131 13.000000000 12.450799942 12.250000954 106.45340729 0.0680999979 0.2044000030 2.4979999065 4.1550998688 82.346305847 87.047004700  -999.250000 2.2795999050 2.2406907082
 2006.6507568 13.000000000 12.453701019 12.250000954 107.84678650 0.0724000037 0.2012999952 2.4856998920 3.9851999283 75.297492981 88.613906860  -999.250000 2.4755001068 2.4245054722
 2006.8032227 13.000000000 12.457698822 12.250000954 102.55348206 0.0794999972 0.2099999934 2.4872000217 3.8427999020 70.893325806 91.726898193  -999.250000 2.5659000874 2.5104312897
 2006.9555664 13.000000000 12.452699661 12.250000954 105.89830017 0.0614000000 0.2326000035 2.4556000233 3.6877000332 67.295280457 95.071998596  -999.250000 2.4337999821 2.4250683784
 2007.1080322 13.000000000 12.467100143 12.250000954 107.94750977 0.0562000014 0.2493000031 2.4674000740 3.4331998825 70.375930786 96.728401184  -999.250000 2.2170000076 2.2253599167
 2007.2603760 13.000000000 12.477299690 12.250000954 100.44652557 0.0458000004 0.2535000145 2.4553000927 3.3752999306 78.113899231 97.027900696  -999.250000 1.9544999599 1.9736018181
 2007.4128418 13.000000000 12.448800087 12.250000954 104.65453339 0.0496999994 0.2477000058 2.4626998901 3.4551999569 81.707527161 97.054191589  -999.250000 1.8753999472 1.8563936949
 2007.5651855 13.000000000 12.447501183 12.250000954 111.06299591 0.0346000008 0.2567999959 2.4337000847 3.5320000648 83.083602905 96.538002014  -999.250000 1.8444999456 1.8360161781
 2007.7176514 13.000000000 12.446900368 12.250000954 110.50460052 0.0318000019 0.2533999979 2.4316999912 3.5151000023 87.119163513 95.524101257  -999.250000 1.8336000443 1.8030264378
 2007.8699951 13.000000000 12.541000366 12.250000954 113.99409485 0.0373000018 0.2558999956 2.4437003136 3.7207999229 93.349899292 94.900299072  -999.250000 1.7967000008 1.7595348358
 2008.0223389 13.000000000 12.473299980 12.250000954 115.25327301 0.0636999980 0.2522999942 2.4709000587 3.8898999691 97.198234558 94.228294373  -999.250000 1.7630000114 1.7348395586
 2008.1748047 13.000000000 12.466199875 12.250000954 116.06562042 0.0725999996 0.2478999943 2.4646000862 3.9289999008 94.429527283 93.816108704  -999.250000 1.8273999691 1.7877575159
 2008.3271484 13.000000000 12.452699661 12.250000954 124.92881012 0.0780000016 0.2502999902 2.4639999866 3.8045001030 90.674316406 94.960296631  -999.250000 1.9725999832 1.9270765781
 2008.4796143 13.000000000 12.446900368 12.250000954 127.26542664 0.0673000067 0.2450000048 2.4600000381 3.7242999077 91.667198181 96.448898315  -999.250000 1.9694000483 1.9492824078
 2008.6319580 13.000000000 12.411599159 12.250000954 121.38320923 0.0526000001 0.2456000000 2.4518001080 3.6421999931 92.384544373 96.020103455  -999.250000 1.8907999992 1.8765166998
