# LAS format log file from PETREL
# Project units are specified as depth units
#==================================================================
~Version information
VERS.   2.0:
WRAP.   NO:
#==================================================================
~Well
STRT .m      1110.2340088 :
STOP .m      3322.9296875 :
STEP .m     0.00000000 :
NULL .        -999.250000 :
COMP.           : COMPANY
WELL.  35/9-9   : WELL
FLD.            : FIELD
LOC.            : LOCATION
SRVC.           : SERVICE COMPANY
DATE.  2018-09-11 14:49:02   : Log Export Date {yyyy-MM-dd HH:mm:ss}
PROV.           : PROVINCE
UWI.   35/9-9   : UNIQUE WELL ID
API.            : API NUMBER
#==================================================================
~Curve
DEPT .m                   : DEPTH
Lithology_geolink ._      : Lithology_geolink
CALI .in                  : CALI
BS .in                    : BS
ROP .m/h                  : ROP
DRHO .g/cm3               : DRHO
NPHI .m3/m3               : NPHI
RHOB .g/cm3               : RHOB
PEF .b/e                  : PEF
GR .gAPI                  : GR
DTC .us/ft                : DTC
DTS .us/ft                : DTS
RDEP .ohm.m               : RDEP
RMED .ohm.m               : RMED
~Parameter
#==================================================================
~Ascii
# ...
 2739.6948242 2.0000000000 8.5431003571 8.5000000000 21.475393295 0.1221000031 0.0781000033 2.6830000877 4.4121999741 49.485698700 59.309101105 94.172805786 70.838752747 61.777000427
 2739.8474121 2.0000000000 8.5242004395 8.5000000000 21.203413010 0.1108999997 0.0744000003 2.6654999256 4.5152001381 47.817199707 59.636505127 91.694999695 63.594066620 46.362598419
 2739.9997559 2.0000000000 8.5255002975 8.5000000000 21.281167984 0.1046999991 0.0713000000 2.6607999802 4.5585999489 47.363399506 57.013801575 88.491500854 48.216945648 42.420501709
 2740.1520996 2.0000000000 8.5204000473 8.5000000000 21.171260834 0.0956000015 0.0702999979 2.6412999630 4.6293997765 47.123600006 57.746799469 87.687103271 41.511417389 36.381099701
 2740.3044434 2.0000000000 8.5363998413 8.5000000000 21.272310257 0.0922000036 0.0647000000 2.6298999786 4.6739997864 49.387699127 58.520000458 88.157501221 38.405456543 32.286399841
 2740.4570313 2.0000000000 8.5296001434 8.5000000000 21.657808304 0.0965000018 0.0582000017 2.6247000694 4.7319998741 49.152698517 58.728397369 91.734802246 36.810241699 31.831499100
 2740.6093750 2.0000000000 8.5243997574 8.5000000000 22.483596802 0.1085999981 0.0571999997 2.6319999695 4.7364001274 50.817901611 59.885601044 93.436798096 33.371559143 30.754400253
 2740.7617188 2.0000000000 8.5389995575 8.5000000000 23.208333969 0.1132000014 0.0588999987 2.6236999035 4.7060999870 49.899501801 61.537601471 98.771202087 37.136531830 29.453899384
 2740.9140625 2.0000000000 8.5441999435 8.5000000000 24.980314255 0.1152999997 0.0628999993 2.6170001030 4.6989002228 50.646598816 61.930099487 106.13099670 31.710836411 32.273601532
 2741.0664063 2.0000000000 8.5558004379 8.5000000000 27.021654129 0.1195999980 0.0723000020 2.6106998920 4.6826000214 50.681701660 62.744098663 112.48220825 55.437374115 33.650901794
 2741.2189941 2.0000000000 8.5827999115 8.5000000000 30.018045425 0.1272999942 0.0881000012 2.6010999680 4.6781997681 51.043899536 66.635597229 116.31719971 35.686336517 38.063499451
 2741.3713379 2.0000000000 8.6110000610 8.5000000000 31.547897339 0.1349000037 0.1010000035 2.5848000050 4.7258000374 53.392200470 70.509399414 119.41179657 20.705417633 23.170900345
 2741.5236816 2.0000000000 8.6642999649 8.5000000000 35.495407104 0.1360999942 0.1067999974 2.5599000454 4.6901001930 53.852298737 72.573600769 120.80290222 15.605797768 15.518500328
 2741.6760254 2.0000000000 8.6702003479 8.5000000000 38.309383392 0.1367000043 0.1181999967 2.5406999588 4.6023001671 57.870700836 73.060897827 121.73300171 14.485216141 14.778800011
 2741.8286133 4.0000000000 8.6900997162 8.5000000000 42.099735260 0.1407999992 0.1212000027 2.5438001156 4.5204000473 61.709999084 72.333702087 122.57170105 15.816942215 14.788499832
 2741.9809570 4.0000000000 8.6419000626 8.5000000000 49.013450623 0.1412999928 0.1407999992 2.5597999096 4.5013999939 69.980003357 70.123802185 121.38369751 19.898927689 16.235700607
 2742.1333008 4.0000000000 8.5900001526 8.5000000000 53.502948761 0.1437000036 0.1509999931 2.5810000896 4.4309000969 75.719299316 69.491996765 119.55360413 12.394128799 18.908199310
 2742.2856445 5.0000000000 8.6111001968 8.5000000000 62.924873352 0.1414999962 0.1658000052 2.5769000053 4.3818001747 80.444602966 71.326301575 119.36830139 22.428197861 21.269500732
 2742.4382324 5.0000000000 8.6304998398 8.5000000000 70.425193787 0.1539999992 0.1729999930 2.5762000084 4.3084998131 81.821998596 74.099098206 120.54540253 13.719686508 8.6017999649
 2742.5905762 5.0000000000 8.6737003326 8.5000000000 76.616142273 0.1561000049 0.1607999951 2.5732998848 4.4520001411 80.850196838 76.039710999 123.29920197 18.199192047 22.510799408
 2742.7429199 5.0000000000 8.6956996918 8.5000000000 84.787406921 0.1552000195 0.1897999942 2.5725998878 4.5995001793 80.722702026 77.361801147 129.91479492 17.144569397 14.991399765
 2742.8952637 5.0000000000 8.5889997482 8.5000000000 83.724739075 0.1392000020 0.2141000032 2.5631000996 4.7182998657 81.527397156 77.572502136 133.24729919 22.610940933 21.465599060
 2743.0476074 5.0000000000 8.5670995712 8.5000000000 86.343833923 0.1282999963 0.2247000039 2.5562000275 4.6668000221 84.372497559 77.872200012 134.85299683 24.002878189 22.631099701
 2743.2001953 5.0000000000 8.5631999969 8.5000000000 79.693572998 0.1230000034 0.2428999990 2.5529999733 4.6002001762 87.757896423 76.969398499 135.29319763 21.431444168 25.209600449
 2743.3525391 6.0000000000 8.5666999817 8.5000000000 80.032478333 0.1268000007 0.2748999894 2.5515999794 4.6543998718 90.963798523 76.907501221 135.54769897 21.712404251 22.319299698
 2743.5048828 6.0000000000 8.5638999939 8.5000000000 82.301513672 0.1233000010 0.2513000071 2.5429999828 4.6617999077 92.056396484 77.402503967 136.30110168 24.579141617 24.510000229
 2743.6572266 6.0000000000 8.5669002533 8.5000000000 84.829071045 0.1234999970 0.2558000088 2.5406000614 4.6229000092 91.349800110 77.750999451 134.51130676 23.545198441 25.096700668
 2743.8098145 6.0000000000 8.5745000839 8.5000000000 83.421257019 0.1253000051 0.2556000054 2.5432999134 4.6152000427 91.315399170 78.082199097 134.53959656 22.859542847 24.656499863
 2743.9621582 6.0000000000 8.5810003281 8.5000000000 82.013450623 0.1304937601 0.2633000016 2.5522999763 4.6426000595 92.204696655 77.422897339 134.62019348 23.123954773 22.935899734
 2744.1145020 6.0000000000 8.5651998520 8.5000000000 84.495079041 0.1265969574 0.2619999945 2.5504000187 4.6800999641 92.207603455 77.625190735 134.49220276 24.338876724 24.719400406
 2744.2668457 6.0000000000 8.5734996796 8.5000000000 80.729331970 0.1246967986 0.2639999986 2.5513999462 4.6777000427 90.335197449 77.956100464 133.99589539 22.521247864 24.019399643
 2744.4194336 6.0000000000 8.5727996826 8.5000000000 86.182418823 0.1226974353 0.2612999976 2.5527999401 4.6788001060 89.780601501 78.440299988 133.43240356 25.162248611 26.825899124
 2744.5717773 6.0000000000 8.5635004044 8.5000000000 76.028221130 0.1218950301 0.2621000111 2.5611999035 4.6591000557 89.339698792 77.996391296 134.14520264 23.590497971 23.486900330
 2744.7241211 6.0000000000 8.5355997086 8.5000000000 72.735565186 0.1187913418 0.2531999946 2.5643999577 4.6761999130 88.741401672 77.341903687 133.72470093 24.457067490 25.340200424
 2744.8764648 6.0000000000 8.5389995575 8.5000000000 61.508861542 0.1133937463 0.2417999953 2.5625000000 4.6213002205 87.018302917 77.368896484 133.88009644 21.759363174 24.992099762
 2745.0290527 6.0000000000 8.5366001129 8.5000000000 54.090549469 0.1094910353 0.2509000003 2.5571000576 4.5666999817 87.652999878 78.644401550 134.84609985 22.055551529 23.117399216
 2745.1813965 6.0000000000 8.5411996841 8.5000000000 47.550525665 0.1067019254 0.2520000041 2.5508000851 4.5065999031 88.540100098 78.440399170 134.91050720 24.251558304 26.492099762
 2745.3337402 6.0000000000 8.5434999466 8.5000000000 42.615158081 0.1079024076 0.2678999901 2.5457003117 4.5528998375 89.900398254 77.881103516 134.21549988 23.978540421 25.975299835
 2745.4860840 6.0000000000 8.5487003326 8.5000000000 41.123359680 0.1094033644 0.2596000135 2.5376999378 4.6086001396 89.426200867 77.612899780 133.54389954 25.870811462 25.424600601
 2745.6384277 6.0000000000 8.5557003021 8.5000000000 40.434383392 0.1115083322 0.2459000051 2.5350999832 4.6167998314 88.696502686 76.974403381 133.31759644 24.818866730 24.164800644
 2745.7910156 6.0000000000 8.5545997620 8.5000000000 40.281822205 0.1167111993 0.2563000023 2.5352001190 4.6370000839 88.605003357 77.580299377 134.42080688 24.301324844 24.734699249
 2745.9433594 6.0000000000 8.5537004471 8.5000000000 39.337268829 0.1202052832 0.2563999891 2.5397000313 4.6469001770 87.881301880 77.677398682 134.38220215 24.743370056 26.936100006
 2746.0957031 6.0000000000 8.5567998886 8.5000000000 39.161418915 0.1234882995 0.2506000102 2.5511999130 4.6505999565 88.999397278 76.499397278 133.27990723 23.478298187 24.607900620
 2746.2480469 6.0000000000 8.5553998947 8.5000000000 41.957679749 0.1161972731 0.2408999950 2.5483999252 4.6403999329 88.155700684 76.455505371 132.62579346 22.667427063 23.878799438
