# LAS format log file from PETREL
# Project units are specified as depth units
#==================================================================
~Version information
VERS.   2.0:
WRAP.   NO:
#==================================================================
~Well
STRT .m      1110.2340088 :
STOP .m      3322.9296875 :
STEP .m     0.00000000 :
NULL .        -999.250000 :
COMP.           : COMPANY
WELL.  35/9-9   : WELL
FLD.            : FIELD
LOC.            : LOCATION
SRVC.           : SERVICE COMPANY
DATE.  2018-09-11 14:49:02   : Log Export Date {yyyy-MM-dd HH:mm:ss}
PROV.           : PROVINCE
UWI.   35/9-9   : UNIQUE WELL ID
API.            : API NUMBER
#==================================================================
~Curve
DEPT .m                   : DEPTH
Lithology_geolink ._      : Lithology_geolink
CALI .in                  : CALI
BS .in                    : BS
ROP .m/h                  : ROP
DRHO .g/cm3               : DRHO
NPHI .m3/m3               : NPHI
RHOB .g/cm3               : RHOB
PEF .b/e                  : PEF
GR .gAPI                  : GR
DTC .us/ft                : DTC
DTS .us/ft                : DTS
RDEP .ohm.m               : RDEP
RMED .ohm.m               : RMED
~Parameter
#==================================================================
~Ascii
# ...
 2887.2180176 6.0000000000 8.5444002151 8.5000000000 29.093177795 0.0988000035 0.2522999942 2.5896000862 4.4770002365 93.323699951 75.035896301 134.32069397 18.500749588 18.174400330
 2887.3706055 6.0000000000 8.5328998566 8.5000000000 28.892389297 0.1045000032 0.2572000027 2.6036000252 4.5184998512 92.471199036 74.953193665 133.40359497 18.655078888 18.929500580
 2887.5229492 6.0000000000 8.5288000107 8.5000000000 26.961614609 0.0983999968 0.2495999932 2.5940001011 4.5602998734 91.208099365 74.852699280 132.99180603 18.274217606 18.131299973
 2887.6752930 6.0000000000 8.5205001831 8.5000000000 27.322505951 0.0988000035 0.2378000021 2.5897998810 4.5067000389 92.945198059 75.096603394 132.98390198 17.973691940 18.218299866
 2887.8276367 6.0000000000 8.5177001953 8.5000000000 27.352689743 0.0949999988 0.2443999946 2.5855000019 4.4223999977 92.351799011 75.207496643 133.10769653 18.343971252 18.815700531
 2887.9802246 6.0000000000 8.5201997757 8.5000000000 26.219816208 0.0992000028 0.2451999933 2.5934998989 4.3590002060 92.584899902 74.947898865 132.80320740 19.757825851 18.224100113
 2888.1325684 5.0000000000 8.5370998383 8.5000000000 26.643045425 0.1032000035 0.2495999932 2.5987000465 4.3466000557 89.501197815 74.630203247 132.00059509 19.330995560 19.199899673
 2888.2849121 5.0000000000 8.5712003708 8.5000000000 27.061025620 0.1068999991 0.2320999950 2.5966999531 4.3987998962 88.815696716 74.378402710 131.50390625 19.827566147 20.264499664
 2888.4372559 5.0000000000 8.5419998169 8.5000000000 27.203084946 0.1164000034 0.2445999980 2.6003999710 4.5963001251 88.647102356 74.020401001 131.54859924 20.181335449 20.411800385
 2888.5898438 5.0000000000 8.5445003510 8.5000000000 27.706691742 0.1213999987 0.2398000062 2.5985999107 4.6426000595 89.179702759 73.576499939 130.40660095 20.517293930 21.964599609
 2888.7421875 5.0000000000 8.5478000641 8.5000000000 29.277883530 0.1206000000 0.2409999967 2.5945999622 4.6273999214 89.405197144 73.503303528 128.78550720 21.200296402 21.091999054
 2888.8945313 5.0000000000 8.5452995300 8.5000000000 29.950132370 0.1174999997 0.2462999970 2.5917000771 4.4874000549 91.578903198 73.756202698 128.28739929 21.072561264 22.430799484
 2889.0468750 6.0000000000 8.5368003845 8.5000000000 32.041667938 0.1129999980 0.2358999997 2.5915000439 4.4390997887 93.678199768 73.852798462 128.91439819 20.925647736 21.774000168
 2889.1992188 6.0000000000 8.5406999588 8.5000000000 31.512466431 0.1085999981 0.2317000031 2.5940999985 4.3727998734 95.034400940 73.799301147 129.80749512 21.827465057 22.154699326
 2889.3518066 6.0000000000 8.5406999588 8.5000000000 31.039699554 0.1093999967 0.2335000038 2.5963997841 4.3435997963 92.635200500 73.729698181 130.95390320 22.120651245 21.590999603
 2889.5041504 6.0000000000 8.5318002701 8.5000000000 33.730972290 0.1106999964 0.2389999926 2.5954999924 4.3756999969 94.206199646 73.626602173 132.15809631 23.007804871 21.637500763
 2889.6564941 6.0000000000 8.5368995667 8.5000000000 33.532154083 0.1089999974 0.2386000007 2.5887000561 4.4007000923 95.063400269 73.686500549 132.76409912 22.326692581 22.665300369
 2889.8088379 6.0000000000 8.5298995972 8.5000000000 34.088253021 0.1048000008 0.2128999978 2.5850999355 4.3852000237 97.221099854 73.911102295 131.63760376 22.694299698 22.570800781
 2889.9614258 6.0000000000 8.5361995697 8.5000000000 33.129920959 0.0971999988 0.2342000008 2.5799999237 4.3688998222 96.553901672 73.848197937 128.85220337 21.701925278 23.360300064
 2890.1137695 6.0000000000 8.5410003662 8.5000000000 32.319881439 0.0997999981 0.2624000013 2.5866999626 4.4121999741 96.823501587 73.660202026 127.96790314 23.113100052 20.970199585
 2890.2661133 6.0000000000 8.5447998047 8.5000000000 32.135169983 0.1023999974 0.2443999946 2.5912001133 4.4404997826 96.782402039 73.642501831 129.81069946 23.922874451 23.956499100
 2890.4184570 6.0000000000 8.5481004715 8.5000000000 32.301509857 0.1142999977 0.2418999970 2.6010999680 4.4970998764 96.016700745 73.678199768 132.53759766 23.720893860 24.964199066
 2890.5710449 6.0000000000 8.5531997681 8.5000000000 32.162075043 0.1184000000 0.2314999998 2.5934000015 4.5151000023 94.770103455 73.497802734 133.34989929 24.155092239 27.204999924
 2890.7233887 6.0000000000 8.5525999069 8.5000000000 29.876640320 0.1235999987 0.2337000072 2.5917000771 4.5448999405 94.330101013 73.266502380 130.75979614 24.653369904 25.900400162
 2890.8757324 6.0000000000 8.5532999039 8.5000000000 31.210954666 0.1173999980 0.2250999957 2.5841000080 4.4842000008 96.959701538 73.107803345 126.94629669 26.129180908 25.445800781
 2891.0280762 6.0000000000 8.5480003357 8.5000000000 29.770669937 0.1156999990 0.2104000002 2.5922999382 4.4242000580 98.142303467 72.427696228 123.55200195 25.121213913 24.154100418
 2891.1804199 6.0000000000 8.5440998077 8.5000000000 29.766729355 0.1116999984 0.2179999948 2.5892000198 4.3579998016 99.434799194 71.935501099 123.20359802 25.316829681 25.864500046
 2891.3330078 6.0000000000 8.5431003571 8.5000000000 29.850723267 0.1111000031 0.1773999929 2.5927000046 4.3372001648 98.753097534 71.952003479 124.56710052 25.215160370 24.989799500
 2891.4853516 6.0000000000 8.5494003296 8.5000000000 31.114500046 0.1050999984 0.2301999927 2.5892999172 4.2948999405 99.369903564 72.000503540 124.64140320 26.417867661 29.024499893
 2891.6376953 6.0000000000 8.5635995865 8.5000000000 31.026573181 0.1036000028 0.2267999947 2.6019001007 4.2641000748 98.167900085 71.437103271 122.82680511 26.584728241 27.374099731
 2891.7900391 6.0000000000 8.6716003418 8.5000000000 28.627626419 0.1006999984 0.1949999928 2.6254999638 4.4489998817 90.286102295 68.898696899 119.50019836 104.93619537 118.79190063
 2891.9426270 6.0000000000 8.5502996445 8.5000000000 25.998359680 0.1145025641 0.1516000032 2.6802000999 5.2122001648 74.591499329 64.496200562 115.97740173 441.61657715 200.16870117
 2892.0949707 16.000000000 8.5354003906 8.5000000000 21.302165985 0.1153051257 0.1466999948 2.7147998810 5.5304999352 58.083400726 59.672298431 110.94750214 4014.3017578 578.03497314
 2892.2473145 16.000000000 8.5483999252 8.5000000000 14.613844872 0.1184790060 0.1321000010 2.7451000214 5.4528999329 45.477401733 56.144802094 103.88719940 2679.6630859 424.53118896
 2892.3996582 16.000000000 8.7007999420 8.5000000000 13.692585945 0.1052878276 0.1105000004 2.7386000156 4.8249998093 42.707801819 54.296001434 97.578399658 1135.9940186 478.12521362
 2892.5522461 16.000000000 8.5558004379 8.5000000000 13.026575089 0.0354329608 0.1134999990 2.6484000683 5.3673000336 46.986999512 53.983299255 94.255401611 28.888843536 36.496299744
 2892.7045898 6.0000000000 8.5363998413 8.5000000000 12.718175888 0.0457144231 0.1525000036 2.6433999538 5.2231001854 60.196998596 55.647800446 97.114898682 22.704433441 28.420400620
 2892.8569336 6.0000000000 8.6164999008 8.5000000000 13.018372536 0.0548163429 0.1852000058 2.5915999413 5.1282000542 76.171096802 59.709098816 103.95230103 23.347906113 26.569499969
 2893.0092773 6.0000000000 8.6743001938 8.5000000000 13.115157127 0.1272562444 0.1930000037 2.6054000854 4.8111000061 87.514503479 65.066001892 110.92620850 22.914329529 22.947000504
 2893.1616211 6.0000000000 8.6068000793 8.5000000000 13.618437767 0.0999940708 0.2038999945 2.5650999546 4.9454002380 92.582603455 69.467498779 116.43900299 22.179899216 22.525299072
 2893.3142090 6.0000000000 8.6078996658 8.5000000000 14.342520714 0.0963547155 0.2138999999 2.5638000965 4.8961000443 95.720298767 71.989303589 122.58619690 18.932260513 19.749399185
 2893.4665527 6.0000000000 8.6089000702 8.5000000000 15.474410057 0.1134075299 0.2212000042 2.5931000710 4.4867000580 98.469299316 73.062698364 126.88829803 16.769233704 16.302000046
 2893.6188965 7.0000000000 8.6003999710 8.5000000000 18.247703552 0.1181043312 0.2134999931 2.5864000320 4.4306998253 104.28710175 73.244003296 127.40059662 15.912895203 17.633899689
 2893.7712402 7.0000000000 8.5956001282 8.5000000000 33.482284546 0.1208059341 0.2164999992 2.5980000496 4.6841001511 109.26730347 73.157096863 127.66149902 12.172547340 18.156000137
