# LAS format log file from PETREL
# Project units are specified as depth units
#==================================================================
~Version information
VERS.   2.0:
WRAP.   NO:
#==================================================================
~Well
STRT .m      1110.2340088 :
STOP .m      3322.9296875 :
STEP .m     0.00000000 :
NULL .        -999.250000 :
COMP.           : COMPANY
WELL.  35/9-9   : WELL
FLD.            : FIELD
LOC.            : LOCATION
SRVC.           : SERVICE COMPANY
DATE.  2018-09-11 14:49:02   : Log Export Date {yyyy-MM-dd HH:mm:ss}
PROV.           : PROVINCE
UWI.   35/9-9   : UNIQUE WELL ID
API.            : API NUMBER
#==================================================================
~Curve
DEPT .m                   : DEPTH
Lithology_geolink ._      : Lithology_geolink
CALI .in                  : CALI
BS .in                    : BS
ROP .m/h                  : ROP
DRHO .g/cm3               : DRHO
NPHI .m3/m3               : NPHI
RHOB .g/cm3               : RHOB
PEF .b/e                  : PEF
GR .gAPI                  : GR
DTC .us/ft                : DTC
DTS .us/ft                : DTS
RDEP .ohm.m               : RDEP
RMED .ohm.m               : RMED
~Parameter
#==================================================================
~Ascii
# ...
 2437.9428711 13.000000000 12.489999771 12.250000954 70.543968201 0.0244999994 0.1685000062 2.5831000805 4.0138001442 71.439598083 85.135002136 161.13099670 3.2023000717 3.0785000324
 2438.0952148 13.000000000 12.467000008 12.250000954 70.422569275 0.0276999995 0.1679999977 2.5831000805 3.8958001137 74.050300598 85.345504761 162.04049683 3.0436000824 2.9356000423
 2438.2478027 13.000000000 12.491000175 12.250000954 71.922882080 0.0285046473 0.1740999967 2.5870988369 3.9763433933 73.583396912 84.072006226 160.85330200 3.1789324284 3.1426999569
 2438.4001465 13.000000000 12.495900154 12.250000954 64.973625183 0.0314096138 0.1764000058 2.5864129066 4.1904606819 69.071502686 84.036499023 159.04170227 3.1989412308 3.1693999767
 2438.5524902 13.000000000 12.581199646 12.250000954 73.270446777 0.0373998396 0.1712000072 2.5944902897 4.2904596329 64.175796509 84.269889832 159.57400513 3.0997664928 3.0896000862
 2438.7048340 13.000000000 12.598798752 12.250000954 72.516403198 0.0373000018 0.1656000018 2.5883998871 4.2652997971 64.272201538 84.450202942 161.64529419 2.9540998936 2.8835999966
 2438.8574219 13.000000000 12.606699944 12.250000954 67.417221069 0.0490056090 0.1607999951 2.5968844891 4.2376270294 69.525703430 84.340400696 161.36999512 2.9577515125 2.8887999058
 2439.0097656 13.000000000 12.498800278 12.250000954 70.815132141 0.0525102541 0.1639000028 2.5873012543 4.3793454170 75.363403320 84.857910156 160.94540405 2.9897174835 2.9502000809
 2439.1621094 13.000000000 12.462499619 12.250000954 62.333248138 0.0589001589 0.1662999988 2.5881056786 4.5323224068 78.059196472 84.913497925 161.68179321 2.9381234646 2.9551999569
 2439.3144531 13.000000000 12.480699539 12.250000954 60.641735077 0.0590000004 0.1713999957 2.5917000771 4.5461997986 78.457901001 86.150001526 162.71809387 2.8280999660 2.8071999550
 2439.4667969 13.000000000 12.496899605 12.250000954 64.779533386 0.0628999993 0.1756999940 2.6094999313 4.3372998238 79.634696960 86.794898987 162.74559021 2.8067998886 2.7616000175
 2439.6193848 13.000000000 12.458100319 12.250000954 67.867362976 0.0767519251 0.1809999943 2.6044247150 4.4105443954 78.043800354 85.697700500 159.47789001 2.8159129620 2.7639000416
 2439.7717285 13.000000000 12.498800278 12.250000954 59.849578857 0.1090980768 0.1819999963 2.6198432446 4.4384131432 74.589401245 84.730102539 157.81469727 2.8240358829 2.7885999680
 2439.9240723 13.000000000 12.505998611 12.250000954 65.482284546 0.1079000011 0.1841000021 2.5843999386 4.5713000298 74.911796570 85.498802185 158.84820557 2.9087998867 2.8596999645
 2440.0764160 13.000000000 12.510101318 12.250000954 55.261154175 0.1030000001 0.1819999963 2.5841999054 4.4079999924 77.609298706 87.379997253 162.13890076 2.8973999023 2.8376998901
 2440.2290039 13.000000000 12.512900352 12.250000954 56.608146667 0.0850064084 0.1878000051 2.5680410862 4.3709239960 80.945999146 87.951690674 161.91960144 2.8866627216 2.8352999687
 2440.3813477 13.000000000 12.497799873 12.250000954 54.284545898 0.0889974385 0.1976000071 2.5935876369 4.3860406876 81.462997437 88.049102783 162.78750610 2.9258811474 2.8661000729
 2440.5336914 13.000000000 12.494600296 12.250000954 54.752952576 0.0873999968 0.2029999942 2.5857999325 4.5362000465 78.117103577 86.531700134 161.15080261 2.9765000343 2.9774000645
 2440.6860352 13.000000000 12.462499619 12.250000954 58.945869446 0.0772000030 0.2020000070 2.5657999516 4.6357002258 76.191703796 84.708198547 161.48519897 3.0074999332 2.9804999828
 2440.8386230 13.000000000 12.460699081 12.250000954 55.856281281 0.0844012797 0.1863999963 2.5651204586 4.5999016762 76.565399170 84.706703186 161.55830383 3.0494208336 3.0262000561
 2440.9909668 13.000000000 12.476300240 12.250000954 52.575611115 0.0852064043 0.1861000061 2.5779232979 4.5384316444 75.007202148 85.519096375 161.13699341 3.1248488426 3.0587000847
 2441.1433105 13.000000000 12.506300926 12.250000954 53.696144104 0.0891793594 0.1873999983 2.5925087929 4.4331455231 75.753898621 85.965103149 160.06280518 3.1552522182 3.0515000820
 2441.2956543 13.000000000 12.534600258 12.250000954 56.326770782 0.0763000026 0.2006999999 2.5980000496 4.2119998932 80.194000244 84.785003662 159.18461609 3.1254999638 3.1045999527
 2441.4482422 13.000000000 12.534299850 12.250000954 54.702701569 0.0624038428 0.1993000060 2.5911135674 4.3835911751 80.648498535 85.866798401 160.69189453 3.0193409920 2.9988999367
 2441.6005859 13.000000000 12.506999969 12.250000954 56.914329529 0.0647858977 0.1943999976 2.5994625092 4.2532801628 80.605903625 86.551696777 165.45860291 2.7954630852 2.7560999393
 2441.7529297 13.000000000 12.497399330 12.250000954 55.663291931 0.0560047999 0.1938000023 2.5761778355 4.1782288551 82.651397705 87.853202820 171.28340149 2.7101862431 2.7188000679
 2441.9052734 13.000000000 12.491000175 12.250000954 56.626312256 0.0590000004 0.1995999962 2.5624001026 3.8843998909 81.726303101 88.444801331 171.57049561 2.7014999390 2.6921000481
 2442.0576172 13.000000000 12.487600327 12.250000954 58.479003906 0.0579000004 0.2064999938 2.5580000877 3.8966999054 78.282699585 86.608398438 166.67070007 2.8631999493 2.7716999054
 2442.2102051 13.000000000 12.469400406 12.250000954 59.082199097 0.0681100935 0.1944999993 2.5725305080 4.0138502121 73.855400085 83.291900635 161.22639465 3.1072766781 3.0120000839
 2442.3625488 13.000000000 12.455200195 12.250000954 51.631233215 0.0743912011 0.1826000065 2.5915331841 4.2321681976 69.663902283 80.554496765 157.72410583 3.3418362141 3.1949999332
 2442.5148926 13.000000000 12.446900368 12.250000954 52.450462341 0.0688999966 0.1648000032 2.6122000217 4.4619998932 71.379798889 81.977203369 159.33689880 3.3018999100 3.2274999619
 2442.6672363 13.000000000 12.442000389 12.250000954 49.046260834 0.0669000000 0.1572999954 2.6156001091 4.5479001999 76.449996948 84.264801025 160.86289978 3.0172998905 2.9807000160
 2442.8198242 13.000000000 12.452300072 12.250000954 51.375831604 0.0740851015 0.1597000062 2.6354527473 4.2559547424 75.580101013 85.512092590 159.36720276 3.0648953915 3.0355999470
 2442.9721680 13.000000000 12.468899727 12.250000954 52.103088379 0.0647818893 0.1680999994 2.6061084270 3.9784009457 72.254798889 83.740997314 155.55870056 3.3741388321 3.3499000072
 2443.1245117 13.000000000 12.487299919 12.250000954 55.830841064 0.0534819216 0.1867000014 2.6112968922 3.9173407555 71.668701172 81.198196411 146.63369751 3.7102556229 3.6349999905
 2443.2768555 13.000000000 12.466500282 12.250000954 59.188320160 0.0421999991 0.1808000058 2.6092998981 4.2547001839 70.558998108 78.860702515 141.12010193 3.9946000576 3.8608000278
 2443.4294434 13.000000000 12.452699661 12.250000954 53.830516815 0.0375008024 0.1783999950 2.6281192303 4.5790004730 67.749397278 77.463600159 139.26980591 4.1208701134 3.9458000660
 2443.5817871 13.000000000 12.442900658 12.250000954 46.963665009 0.0379814096 0.1573999971 2.6401932240 4.5787968636 66.169601440 78.183403015 143.11759949 4.1020169258 4.0455999374
 2443.7341309 13.000000000 12.476799965 12.250000954 47.024719238 0.0263940804 0.1492000073 2.6360869408 4.3274869919 66.455497742 80.297203064 147.69279480 3.9876682758 3.8973999023
 2443.8864746 13.000000000 12.502699852 12.250000954 52.621063232 0.0227000006 0.1448999941 2.6278998852 4.1944999695 68.423301697 81.435302734 151.97129822 3.9054999352 3.8857998848
 2444.0388184 13.000000000 12.458600044 12.250000954 53.024936676 0.0182000007 0.1465999931 2.6127998829 4.2196002007 74.064300537 83.669395447 154.42039490 3.5039999485 3.4914000034
 2444.1914063 13.000000000 12.467399597 12.250000954 54.761306763 0.0320934281 0.1520999968 2.6338703632 4.1990437508 78.268501282 84.603797913 158.51249695 3.3758115768 3.3296999931
 2444.3437500 13.000000000 12.479700089 12.250000954 54.849910736 0.0279968008 0.1625999957 2.6153905392 4.1014962196 76.970199585 85.453697205 161.45950317 3.2582561970 3.1828000546
 2444.4960938 13.000000000 12.465499878 12.250000954 51.679134369 0.0260000005 0.1678999960 2.6094999313 4.0366997719 76.171897888 85.716499329 161.51130676 3.1684999466 3.1010000706
