# LAS format log file from PETREL
# Project units are specified as depth units
#==================================================================
~Version information
VERS.   2.0:
WRAP.   NO:
#==================================================================
~Well
STRT .m      1110.2340088 :
STOP .m      3322.9296875 :
STEP .m     0.00000000 :
NULL .        -999.250000 :
COMP.           : COMPANY
WELL.  35/9-9   : WELL
FLD.            : FIELD
LOC.            : LOCATION
SRVC.           : SERVICE COMPANY
DATE.  2018-09-11 14:49:02   : Log Export Date {yyyy-MM-dd HH:mm:ss}
PROV.           : PROVINCE
UWI.   35/9-9   : UNIQUE WELL ID
API.            : API NUMBER
#==================================================================
~Curve
DEPT .m                   : DEPTH
Lithology_geolink ._      : Lithology_geolink
CALI .in                  : CALI
BS .in                    : BS
ROP .m/h                  : ROP
DRHO .g/cm3               : DRHO
NPHI .m3/m3               : NPHI
RHOB .g/cm3               : RHOB
PEF .b/e                  : PEF
GR .gAPI                  : GR
DTC .us/ft                : DTC
DTS .us/ft                : DTS
RDEP .ohm.m               : RDEP
RMED .ohm.m               : RMED
~Parameter
#==================================================================
~Ascii
# ...
 1284.5795898 6.0000000000 13.034099579 12.250000954 102.71358490 0.0494999997 0.3817999959 2.2290999889 3.8022999763 74.134902954 144.93879700  -999.250000 1.1138000488 1.1059999466
 1284.7320557 6.0000000000 12.632200241 12.250000954 91.700462341 0.0469000004 0.3935000002 2.2242000103 3.7521998882 73.426803589 145.12600708  -999.250000 1.1325999498 1.1213999987
 1284.8843994 6.0000000000 12.464499474 12.250000954 92.041007996 0.0463000014 0.3943000138 2.2214999199 3.7967998981 68.396797180 144.94540405  -999.250000 1.1540999413 1.1338000298
 1285.0368652 6.0000000000 12.450799942 12.250000954 97.904197693 0.0368999988 0.4138999879 2.2097001076 3.7938001156 66.322898865 143.47439575  -999.250000 1.1686999798 1.1456999779
 1285.1892090 6.0000000000 12.495800972 12.250000954 96.293968201 0.0227000006 0.4203000069 2.2132999897 3.6493000984 70.559501648 143.03210449  -999.250000 1.1332999468 1.1210000515
 1285.3416748 6.0000000000 12.544400215 12.250000954 100.72670746 0.0119000003 0.4146000147 2.2149999142 3.3743000031 77.456001282 142.45359802  -999.250000 1.1153000593 1.0901000500
 1285.4940186 6.0000000000 12.587100029 12.250000954 102.62073517 0.0088999998 0.4172999859 2.2242999077 3.2648000717 80.751502991 142.00210571  -999.250000 1.1238000393 1.1025999784
 1285.6464844 6.0000000000 12.519300461 12.250000954 101.46096039 0.0105999997 0.4092999995 2.2232999802 3.3138999939 78.734397888 142.23829651  -999.250000 1.1464999914 1.1437000036
 1285.7988281 6.0000000000 12.484100342 12.250000954 106.10596466 0.0097000012 0.4020999968 2.2262001038 3.4116001129 75.066001892 141.32409668  -999.250000 1.2071000338 1.1996999979
 1285.9512939 6.0000000000 12.515500069 12.250000954 101.31890106 0.0107000005 0.4056999981 2.2281999588 3.5171000957 71.085098267 139.10069275  -999.250000 1.3849999905 1.3626999855
 1286.1036377 6.0000000000 12.681200027 12.250000954 100.89566803 0.0114000002 0.4180000126 2.2351999283 3.5118000507 67.530296326 134.82279968  -999.250000 1.6108000278 1.5351999998
 1286.2559814 6.0000000000 12.745901108 12.250000954 109.91076660 0.0120000001 0.3862000108 2.2553999424 3.5673000813 65.580703735 129.46609497  -999.250000 1.6776000261 1.6345000267
 1286.4084473 6.0000000000 12.763500214 12.250000954 102.27526093 0.0148999998 0.3504000008 2.2778999805 3.6774001122 66.102699280 124.43139648  -999.250000 1.6072000265 1.5810999870
 1286.5607910 6.0000000000 12.812299728 12.250000954 96.288719177 0.0262000002 0.3395999968 2.3169999123 3.8454000950 68.696899414 123.56569672  -999.250000 1.5866999626 1.5729999542
 1286.7132568 6.0000000000 12.869400024 12.250000954 100.85990906 0.0370999984 0.3596000075 2.3261001110 3.9491000175 69.650398254 124.41670227  -999.250000 1.5729999542 1.5592999458
 1286.8656006 5.0000000000 12.633100510 12.250000954 100.44882202 0.0285999998 0.3716000021 2.2867000103 4.0089998245 69.059097290 125.72290039  -999.250000 1.5680999756 1.5706000328
 1287.0180664 5.0000000000 12.641300201 12.250000954 97.085960388 0.0310999993 0.3635999858 2.2686998844 4.1093997955 67.365196228 127.21739960  -999.250000 1.5851000547 1.5633000135
 1287.1704102 5.0000000000 12.682199478 12.250000954 97.857940674 0.0285000000 0.3614999950 2.2537999153 4.1944999695 62.842700958 128.45010376  -999.250000 1.5901000500 1.5425000191
 1287.3228760 5.0000000000 12.410099983 12.250000954 95.540023804 0.0408999994 0.3542999923 2.2625000477 4.3312001228 60.642700195 128.28259277  -999.250000 1.5877000093 1.5715999603
 1287.4752197 5.0000000000 12.433799744 12.250000954 100.67092896 0.0452999994 0.3571000099 2.2609000206 4.4140000343 61.859001160 127.80510712  -999.250000 1.6081999540 1.5788999796
 1287.6276855 5.0000000000 12.465499878 12.250000954 102.72277069 0.0476999991 0.3526999950 2.2644000053 4.4310998917 60.513099670 126.27159882  -999.250000 1.6007000208 1.5915999413
 1287.7800293 5.0000000000 12.707599640 12.250000954 97.227035522 0.0485999994 0.3556999862 2.2894001007 4.3020000458 59.390899658 125.91110992  -999.250000 1.6143000126 1.5878000259
 1287.9324951 5.0000000000 12.806500435 12.250000954 102.24737549 0.0454000011 0.3648000062 2.2925000191 4.2631998062 61.091899872 125.34079742  -999.250000 1.6267999411 1.5986000299
 1288.0848389 5.0000000000 12.955699921 12.250000954 101.64632416 0.0436000004 0.3657999933 2.2932999134 4.1893000603 59.390899658 124.28530121  -999.250000 1.6055999994 1.6025999784
 1288.2373047 5.0000000000 12.668999672 12.250000954 101.35925293 0.0395000018 0.3623000085 2.2722001076 4.2474999428 56.656398773 123.68019104  -999.250000 1.6201000214 1.5957000256
 1288.3896484 5.0000000000 12.446900368 12.250000954 93.485237122 0.0395000018 0.3679000139 2.2737998962 4.2262997627 58.133701324 123.52249908  -999.250000 1.6144000292 1.6023000479
 1288.5419922 5.0000000000 12.428199768 12.250000954 100.70242310 0.0461999997 0.3684000075 2.2751998901 4.3642001152 59.649398804 123.83640289  -999.250000 1.6173000336 1.5930000544
 1288.6944580 5.0000000000 12.481199265 12.250000954 100.92486572 0.0649000034 0.3734999895 2.3018000126 4.4995999336 61.271598816 123.71559906  -999.250000 1.5944000483 1.5879000425
 1288.8468018 5.0000000000 12.621000290 12.250000954 98.144355774 0.0754000023 0.3562999964 2.2976000309 4.6318001747 62.124599457 123.38809204  -999.250000 1.5999000072 1.5736999512
 1288.9992676 5.0000000000 12.663499832 12.250000954 98.467193604 0.0868000016 0.3393000066 2.2976000309 4.7617998123 57.760799408 124.58540344  -999.250000 1.6166000366 1.6001000404
 1289.1516113 5.0000000000 12.511599541 12.250000954 94.243438721 0.0890000015 0.3362999856 2.2898001671 4.8564000130 55.966800690 125.01930237  -999.250000 1.6427999735 1.6181999445
 1289.3040771 5.0000000000 12.456700325 12.250000954 92.560371399 0.0895000026 0.3316999972 2.2852001190 4.9699001312 62.955600739 125.84970093  -999.250000 1.6003999710 1.5923999548
 1289.4564209 5.0000000000 12.471400261 12.250000954 92.786750793 0.0938000008 0.3404000103 2.2843000889 4.9857001305 68.223503113 126.08959961  -999.250000 1.5836000443 1.5552999973
 1289.6088867 5.0000000000 12.510599136 12.250000954 96.628280640 0.0913000032 0.3289999962 2.2737998962 4.9165000916 65.604400635 125.74469757  -999.250000 1.5511000156 1.5446000099
 1289.7612305 5.0000000000 12.509000778 12.250000954 98.134185791 0.0851000026 0.3348999918 2.2646000385 4.8192000389 62.833801270 126.52359772  -999.250000 1.5563999414 1.5469000340
 1289.9136963 5.0000000000 12.469400406 12.250000954 107.11975098 0.0753000006 0.3323000073 2.2585999966 4.7821998596 63.561798096 127.06300354  -999.250000 1.5831999779 1.5648000240
 1290.0660400 5.0000000000 12.465499878 12.250000954 106.78117371 0.0673000067 0.3328000009 2.2602000237 4.7314000130 64.744300842 127.20520020  -999.250000 1.5980000496 1.5829999447
 1290.2185059 5.0000000000 12.476300240 12.250000954 107.72145844 0.0617999993 0.3224000037 2.2586998940 4.6395001411 65.978401184 124.34169769  -999.250000 1.5708999634 1.5597000122
 1290.3708496 6.0000000000 12.662500381 12.250000954 114.88745880 0.0535000004 0.3194999993 2.2599999905 4.5097999573 68.943702698 123.42199707  -999.250000 1.5618000031 1.5500999689
 1290.5231934 6.0000000000 12.880200386 12.250000954 109.63058472 0.0447999984 0.3088999987 2.2551000118 4.3835000992 73.393402100 125.40338898  -999.250000 1.5421999693 1.5082999468
 1290.6756592 6.0000000000 12.642900467 12.250000954 106.69882202 0.0421999991 0.2998999953 2.2600998878 4.3527998924 75.467300415 127.38580322  -999.250000 1.5544999838 1.5457999706
 1290.8280029 6.0000000000 12.604399681 12.250000954 113.42649841 0.0509999990 0.3091000021 2.2699999809 4.3615999222 72.196601868 128.11480713  -999.250000 1.5513000488 1.5428999662
 1290.9804688 5.0000000000 12.619299889 12.250000954 115.29625702 0.0555000007 0.3280999959 2.2774000168 4.3502001762 66.379699707 128.29750061  -999.250000 1.5489000082 1.5199999809
 1291.1328125 5.0000000000 12.672200203 12.250000954 117.40091705 0.0625000000 0.3718999922 2.2997000217 4.2862000465 60.179199219 128.78559875  -999.250000 1.5693999529 1.5427999496
