# LAS format log file from PETREL
# Project units are specified as depth units
#==================================================================
~Version information
VERS.   2.0:
WRAP.   NO:
#==================================================================
~Well
STRT .m      1003.2490234 :
STOP .m      2879.9025879 :
STEP .m     0.00000000 :
NULL .        -999.250000 :
COMP.           : COMPANY
WELL.  35/9-2   : WELL
FLD.            : FIELD
LOC.            : LOCATION
SRVC.           : SERVICE COMPANY
DATE.  2018-09-11 14:49:01   : Log Export Date {yyyy-MM-dd HH:mm:ss}
PROV.           : PROVINCE
UWI.   35/9-2   : UNIQUE WELL ID
API.            : API NUMBER
#==================================================================
~Curve
DEPT .m                   : DEPTH
Lithology_geolink ._      : Lithology_geolink
DCAL .in                  : DCAL
CALI .in                  : CALI
BS .in                    : BS
DRHO .g/cm3               : DRHO
SGR .gAPI                 : SGR
NPHI .m3/m3               : NPHI
RHOB .g/cm3               : RHOB
GR .gAPI                  : GR
DTC .us/ft                : DTC
DTS .us/ft                : DTS
RDEP .ohm.m               : RDEP
SP .mV                    : SP
RSHA .ohm.m               : RSHA
RMIC .ohm.m               : RMIC
RMED .ohm.m               : RMED
~Parameter
#==================================================================
~Ascii
# ...
 2373.4775391 5.0000000000 -0.101882003 8.3981180191 8.5000000000 -0.002461442 106.78721619 0.2495062053 2.4559400082 95.666160583 81.456542969 147.57249451 8.3945417404 96.245376587 4.0799961090 4.0418071747 7.0527210236
 2373.6298828 4.0000000000 -0.088294968 8.4117050171 8.5000000000 0.0009825815 106.58435822 0.2540406883 2.4683508873 95.194519043 81.068901062 145.24560547 8.8171501160 96.013572693 4.2822408676 4.1747570038 7.4284319878
 2373.7822266 4.0000000000 -0.052758217 8.4472417831 8.5000000000 0.0044993400 107.54394531 0.2535656989 2.4915139675 96.455879211 80.630767822 142.19488525 9.0918312073 95.285743713 4.7808651924 4.6973805428 7.6927161217
 2373.9345703 4.0000000000 -0.017454149 8.4825458527 8.5000000000 0.0027347859 107.53058624 0.2361326963 2.4955260754 97.036613464 80.213684082 141.50160217 9.1906995773 94.432319641 4.9774031639 5.0628471375 7.8300142288
 2374.0871582 4.0000000000 -0.024871832 8.4751281738 8.5000000000 -0.001763387 98.684318542 0.2179429978 2.4668169022 95.616386414 79.994270325 141.63519287 9.3178482056 94.056213379 4.4189815521 4.4725232124 7.9808239937
 2374.2395020 4.0000000000 -0.042717930 8.4572820663 8.5000000000 -0.003000000 96.798774719 0.2219237983 2.4664480686 96.003921509 80.541206360 144.50430298 9.3406934738 93.269836426 4.2220773697 4.1071991920 8.0165214539
 2374.3918457 4.0000000000 -0.015291210 8.4847087860 8.5000000000 -0.003834424 102.70023346 0.2461362034 2.4779090881 97.506828308 81.195083618 147.19818115 9.1442966461 92.238601685 4.8115429878 4.7364740372 7.8586740494
 2374.5441895 4.0000000000 0.0204486772 8.5204486847 8.5000000000 -0.005192366 107.58368683 0.2658061981 2.4755029678 102.49539948 81.342773438 147.41465759 8.8314857483 91.597557068 5.0212540627 5.0748572350 7.6257429123
 2374.6965332 5.0000000000 -0.002739906 8.4972600937 8.5000000000 -0.003799503 106.82720947 0.2728525996 2.4700689316 104.93160248 81.538566589 148.55496216 8.6477079391 90.992973328 4.5582318306 4.6739830971 7.5024747849
 2374.8491211 5.0000000000 -0.038433071 8.4615669250 8.5000000000 -0.000729293 108.22667694 0.2753934860 2.4710800648 106.35112762 81.789855957 149.73300171 8.6996412277 90.167381287 3.9313135147 3.9290206432 7.5436630249
 2375.0014648 5.0000000000 -0.031148911 8.4688510895 8.5000000000 0.0003573715 109.49407959 0.2776859105 2.4814269543 106.37470245 81.922660828 149.78810120 8.8927946091 89.717033386 3.9348554611 3.7806785107 7.6928400993
 2375.1538086 5.0000000000 -0.013278011 8.4867219925 8.5000000000 -0.000722116 110.54161072 0.2772184908 2.4969959259 108.43589783 82.048118591 149.83952332 9.1742095947 89.200172424 4.7905759811 4.6565189362 7.9669470787
 2375.3061523 5.0000000000 0.0223169327 8.5223169327 8.5000000000 0.0003126196 108.76109314 0.2765634954 2.5106739998 113.71630096 82.115150452 150.10197449 9.3111553192 87.701026917 5.4077739716 5.4577908516 8.1652956009
 2375.4587402 5.0000000000 0.0262594223 8.5262594223 8.5000000000 0.0028531961 106.92119598 0.2739306986 2.5107882023 111.00859833 82.325248718 150.27769470 9.1110992432 86.190933228 5.0572757721 5.1047863960 8.0629158020
 2375.6110840 5.0000000000 0.0153083811 8.5153083801 8.5000000000 0.0051384140 108.54552460 0.2685385048 2.4925370216 110.87640381 82.513198853 150.45710754 8.9755001068 85.167526245 4.7400383949 4.7429924011 7.9846639633
 2375.7634277 5.0000000000 0.0088634491 8.5088634491 8.5000000000 0.0074966461 108.86474609 0.2641299069 2.4840030670 105.21195221 82.459053040 150.84347534 9.1445064545 84.195358276 4.7462964058 4.7051601410 8.1756639481
 2375.9157715 5.0000000000 0.0424499474 8.5424499512 8.5000000000 0.0079400791 107.96858978 0.2625339031 2.4802079201 106.86720276 82.295112610 151.14692688 9.3245191574 82.986236572 5.0224480629 4.9330310822 8.4101266861
 2376.0683594 5.0000000000 0.0913085863 8.5913085938 8.5000000000 0.0051361616 108.94038391 0.2652888000 2.4798769951 100.83476257 82.264785767 151.22160339 9.4884157181 82.064048767 5.4710912704 5.4770092964 8.6313142776
 2376.2207031 5.0000000000 0.1040000916 8.6040000916 8.5000000000 0.0008944400 109.48691559 0.2708896101 2.4888920784 101.12711334 82.572700500 151.19451904 9.7652492523 81.569549561 5.4083590508 5.4096937180 8.9287204742
 2376.3730469 5.0000000000 0.0727090836 8.5727090836 8.5000000000 -0.003218063 110.18650055 0.2786991000 2.5054759979 101.33162689 82.791679382 150.93450928 10.056150436 81.514953613 5.3835582733 5.3279252052 9.2104740143
 2376.5253906 5.0000000000 0.0374403000 8.5374403000 8.5000000000 -0.004715050 111.35440826 0.2896861136 2.5026819706 108.40059662 82.847030640 150.67143250 10.244009972 81.276321411 5.7913331985 5.6481962204 9.3744840622
 2376.6777344 5.0000000000 0.0444517061 8.5444517136 8.5000000000 -0.003807114 110.70719147 0.2959783971 2.4873819351 109.67199707 82.916000366 150.98908997 10.136030197 80.653556824 6.5822501183 6.4907860756 9.2963495255
 2376.8303223 5.0000000000 0.0618286096 8.5618286133 8.5000000000 -0.001444084 110.08438873 0.2981917858 2.4838340282 109.09503174 83.032112122 151.42779541 9.6094703674 80.097793579 6.8110356331 6.9770708084 8.8753032684
 2376.9826660 5.0000000000 0.0188636798 8.5188636780 8.5000000000 0.0009661494 107.85861969 0.3009158075 2.4960370064 103.19501495 83.554748535 151.54281616 8.7178869247 79.806373596 5.7836298943 5.8807511330 8.1303110123
 2377.1350098 5.0000000000 -0.018419269 8.4815807343 8.5000000000 0.0031394479 104.19303894 0.2924222946 2.4951879978 101.14550018 83.949508667 151.37187195 7.9415879250 79.436988831 5.0578169823 5.1571230888 7.4453182220
 2377.2873535 5.0000000000 -0.044588089 8.4554119110 8.5000000000 0.0059153861 104.56420135 0.2739988863 2.4860498905 104.24389648 83.907203674 151.49259949 7.6433129311 79.919418335 4.4043359756 4.4528818130 7.1438870430
 2377.4399414 5.0000000000 -0.075540543 8.4244594574 8.5000000000 0.0064103780 104.37010193 0.2591829002 2.4773390293 103.68869019 83.868370056 151.73939514 7.7260580063 79.731697083 4.1221685410 4.0187792778 7.1583361626
 2377.5922852 5.0000000000 -0.068568230 8.4314317703 8.5000000000 0.0057554729 105.78174591 0.2641316056 2.4837999344 101.18233490 83.624130249 151.75331116 8.1565303802 78.886268616 4.6802864075 4.5849285126 7.4925351143
 2377.7446289 5.0000000000 -0.035311699 8.4646883011 8.5000000000 0.0054700859 109.31257629 0.2883163095 2.4988319874 96.913864136 83.226684570 151.17523193 8.8268423080 78.617523193 5.1296811104 5.1488385201 8.0568199158
 2377.8969727 5.0000000000 -0.013274189 8.4867258072 8.5000000000 0.0046949969 107.43348694 0.3080374002 2.4979898930 103.11679840 82.908996582 149.80969238 9.3342847824 78.528121948 5.0441761017 5.0166411400 8.4558219910
 2378.0495605 5.0000000000 0.0068721776 8.5068721771 8.5000000000 0.0020238741 105.98910522 0.3103686869 2.4998660088 106.52546692 82.747406006 148.82949829 9.5735454559 77.873466492 5.1771559715 5.1450681686 8.6203794479
 2378.2019043 5.0000000000 -0.006991386 8.4930086136 8.5000000000 0.0008150644 108.04714966 0.3016062081 2.5053029060 108.86938477 83.001884460 149.37171936 9.1420078278 76.856086731 5.3537611961 5.3191051483 8.2296142578
 2378.3542480 5.0000000000 -0.038434979 8.4615650177 8.5000000000 0.0045823371 109.84132385 0.2934742868 2.5008609295 107.18204498 83.529060364 150.25967407 8.0900220871 76.334518433 5.5520696640 5.4968204498 7.3180108070
 2378.5065918 5.0000000000 -0.031138418 8.4688615799 8.5000000000 0.0098819090 108.63153076 0.2836323977 2.5010819435 108.89589691 84.076911926 150.52346802 7.3132047653 75.310829163 5.6316671371 5.8316168785 6.6511921883
 2378.6589355 5.0000000000 -0.044590946 8.4554090500 8.5000000000 0.0067038629 106.92806244 0.2763938010 2.4830400944 105.71309662 84.440170288 150.35137939 6.8560581207 74.044029236 4.2153639793 4.3408689499 6.2477970123
 2378.8115234 5.0000000000 -0.060110088 8.4398899078 8.5000000000 -0.005679110 107.89319611 0.2686836123 2.4466331005 101.62928772 84.556083679 149.75259399 6.4106211662 73.243499756 3.3477914333 3.2341587543 5.8224568367
 2378.9638672 5.0000000000 -0.051171299 8.4488286972 8.5000000000 -0.012223080 107.95448303 0.2689634860 2.4313280582 102.18640137 84.014503479 149.28649902 6.3678722382 73.043128967 3.7801756859 3.7509691715 5.7271451950
