# LAS format log file from PETREL
# Project units are specified as depth units
#==================================================================
~Version information
VERS.   2.0:
WRAP.   NO:
#==================================================================
~Well
STRT .m      1003.2490234 :
STOP .m      2879.9025879 :
STEP .m     0.00000000 :
NULL .        -999.250000 :
COMP.           : COMPANY
WELL.  35/9-2   : WELL
FLD.            : FIELD
LOC.            : LOCATION
SRVC.           : SERVICE COMPANY
DATE.  2018-09-11 14:49:01   : Log Export Date {yyyy-MM-dd HH:mm:ss}
PROV.           : PROVINCE
UWI.   35/9-2   : UNIQUE WELL ID
API.            : API NUMBER
#==================================================================
~Curve
DEPT .m                   : DEPTH
Lithology_geolink ._      : Lithology_geolink
DCAL .in                  : DCAL
CALI .in                  : CALI
BS .in                    : BS
DRHO .g/cm3               : DRHO
SGR .gAPI                 : SGR
NPHI .m3/m3               : NPHI
RHOB .g/cm3               : RHOB
GR .gAPI                  : GR
DTC .us/ft                : DTC
DTS .us/ft                : DTS
RDEP .ohm.m               : RDEP
SP .mV                    : SP
RSHA .ohm.m               : RSHA
RMIC .ohm.m               : RMIC
RMED .ohm.m               : RMED
~Parameter
#==================================================================
~Ascii
# ...
 2503.1699219 1.0000000000 -0.190589890 8.3094100952 8.5000000000 -0.003344784 94.117805481 0.2468627989 2.3691430092 95.412353516  -999.250000  -999.250000 2.5287759304 117.82599640  -999.250000  -999.250000 2.1315279007
 2503.3222656 2.0000000000 -0.210624680 8.2893753052 8.5000000000 -0.008458029 88.629737854 0.2380837053 2.3403649330 88.943191528  -999.250000  -999.250000 2.6301739216 118.15110016  -999.250000  -999.250000 1.9436039925
 2503.4748535 2.0000000000 -0.201279595 8.2987203598 8.5000000000 -0.008165732 84.398193359 0.2298257947 2.3449180126 83.787963867  -999.250000  -999.250000 2.7079939842 118.26429749  -999.250000  -999.250000 2.0860760212
 2503.6271973 2.0000000000 -0.196999505 8.3030004501 8.5000000000 -0.005677952 83.350494385 0.2234109938 2.3768560886 79.517341614  -999.250000  -999.250000 2.7550199032 118.02790070  -999.250000  -999.250000 2.3908131123
 2503.7795410 1.0000000000 -0.181207702 8.3187923431 8.5000000000 -0.005415581 86.356048584 0.2172548026 2.3918681145 81.178306580  -999.250000  -999.250000 2.8672180176 117.50910187  -999.250000  -999.250000 2.6236369610
 2503.9318848 1.0000000000 -0.163288102 8.3367118835 8.5000000000 -0.008381875 86.518348694 0.2182627022 2.3815670013 86.044372559  -999.250000  -999.250000 3.0491230488 117.48609924  -999.250000  -999.250000 2.7818319798
 2504.0842285 1.0000000000 -0.159000397 8.3409996033 8.5000000000 -0.008827935 91.708091736 0.2266777009 2.3923571110 94.064453125  -999.250000  -999.250000 3.1745460033 117.79769897  -999.250000  -999.250000 3.1136980057
 2504.2368164 1.0000000000 -0.159000397 8.3409996033 8.5000000000 -0.003345530 98.975387573 0.2314060926 2.4367361069 100.23454285  -999.250000  -999.250000 3.2209219933 118.18000031  -999.250000  -999.250000 3.6612179279
 2504.3891602 1.0000000000 -0.143617600 8.3563823700 8.5000000000 -0.001397516 101.65188599 0.2287548035 2.4579269886 102.11589813  -999.250000  -999.250000 3.2633709908 118.23570251  -999.250000  -999.250000 3.7309889793
 2504.5415039 2.0000000000 -0.126176804 8.3738231659 8.5000000000 -0.005401168 99.180511475 0.2189220041 2.4315080643 92.885513306  -999.250000  -999.250000 3.3169488907 118.05639648  -999.250000  -999.250000 3.0221309662
 2504.6938477 2.0000000000 -0.137389198 8.3626108170 8.5000000000 -0.013011460 95.974800110 0.2173535973 2.3727240562 85.955307007  -999.250000  -999.250000 3.2898590565 117.68810272  -999.250000  -999.250000 2.3973479271
 2504.8464355 2.0000000000 -0.154834703 8.3451652527 8.5000000000 -0.015016490 96.992149353 0.2245820016 2.3419039249 86.774177551  -999.250000  -999.250000 3.1241419315 117.43849945  -999.250000  -999.250000 2.2904839516
 2504.9987793 2.0000000000 -0.143620506 8.3563804626 8.5000000000 -0.009106774 97.582748413 0.2295479029 2.3721380234 97.174430847  -999.250000  -999.250000 2.8865389824 117.36789703  -999.250000  -999.250000 2.4154639244
 2505.1511230 2.0000000000 -0.141558602 8.3584413528 8.5000000000 -0.003959414 97.143203735 0.2279883027 2.3961551189 95.837959290  -999.250000  -999.250000 2.6913158894 116.96649933  -999.250000  -999.250000 2.4560499191
 2505.3034668 2.0000000000 -0.154827103 8.3451728821 8.5000000000 -0.002641443 93.702621460 0.2232540995 2.3825559616 93.278617859  -999.250000  -999.250000 2.6142580509 116.37670135  -999.250000  -999.250000 2.4359459877
 2505.4560547 2.0000000000 -0.159000397 8.3409996033 8.5000000000 -0.002471309 92.261077881 0.2298648059 2.3675119877 87.394607544  -999.250000  -999.250000 2.6312320232 116.05629730  -999.250000  -999.250000 2.4283950329
 2505.6083984 1.0000000000 -0.159000397 8.3409996033 8.5000000000 -0.001697396 89.224403381 0.2422581017 2.3578789234 88.014106750  -999.250000  -999.250000 2.6580729485 115.68830109  -999.250000  -999.250000 2.4678099155
 2505.7607422 1.0000000000 -0.159000397 8.3409996033 8.5000000000 0.0005492926 90.770454407 0.2454537004 2.3548510075 87.243553162  -999.250000  -999.250000 2.6590061188 115.02310181  -999.250000  -999.250000 2.5147349834
 2505.9130859 1.0000000000 -0.159000397 8.3409996033 8.5000000000 0.0008854663 92.835975647 0.2425086051 2.3649399281 88.150123596  -999.250000  -999.250000 2.6744489670 114.58460236  -999.250000  -999.250000 2.5254690647
 2506.0656738 1.0000000000 -0.159000397 8.3409996033 8.5000000000 -0.001381228 91.810501099 0.2404482067 2.3753321171 90.619926453  -999.250000  -999.250000 2.7419281006 114.29199982  -999.250000  -999.250000 2.4639089108
 2506.2180176 1.0000000000 -0.159000397 8.3409996033 8.5000000000 -0.005272123 91.249633789 0.2427667975 2.3657600880 89.219688416  -999.250000  -999.250000 2.8449919224 113.53600311  -999.250000  -999.250000 2.3657529354
 2506.3703613 1.0000000000 -0.143618599 8.3563814163 8.5000000000 -0.006659730 92.456321716 0.2398875952 2.3560729027 93.067161560  -999.250000  -999.250000 2.9794600010 112.78720093  -999.250000  -999.250000 2.3795959949
 2506.5227051 2.0000000000 -0.141558602 8.3584413528 8.5000000000 -0.005035912 93.074188232 0.2303697020 2.3864419460 95.509872437  -999.250000  -999.250000 3.1231470108 112.11250305  -999.250000  -999.250000 2.5638570786
 2506.6750488 2.0000000000 -0.154828981 8.3451709747 8.5000000000 -0.003696824 92.812950134 0.2239440978 2.4148139954 97.641555786  -999.250000  -999.250000 3.1972780228 111.40480042  -999.250000  -999.250000 2.8424789906
 2506.8276367 2.0000000000 -0.174812287 8.3251876831 8.5000000000 -0.001448080 94.616348267 0.2263268977 2.4202089310 96.056259155  -999.250000  -999.250000 3.2099239826 111.05629730  -999.250000  -999.250000 3.0399301052
 2506.9799805 2.0000000000 -0.192707986 8.3072919846 8.5000000000 0.0009638913 98.428810120 0.2296777964 2.4242310524 92.693557739  -999.250000  -999.250000 3.2407050133 110.68820190  -999.250000  -999.250000 3.0817170143
 2507.1323242 2.0000000000 -0.212794304 8.2872056961 8.5000000000 -0.001022459 98.659599304 0.2288694978 2.4262449741 93.703414917  -999.250000  -999.250000 3.2566521168 110.12689972  -999.250000  -999.250000 2.9639329910
 2507.2846680 2.0000000000 -0.230712906 8.2692871094 8.5000000000 -0.003794561 98.583747864 0.2218347043 2.4198749065 92.883216858  -999.250000  -999.250000 3.1988630295 109.70240021  -999.250000  -999.250000 2.6885581017
 2507.4372559 2.0000000000 -0.234999701 8.2650003433 8.5000000000 -0.005776856 94.683082581 0.2169654965 2.3906390667 91.939346313  -999.250000  -999.250000 3.1013550758 109.42410278  -999.250000  -999.250000 2.3704628944
 2507.5895996 1.0000000000 -0.219206795 8.2807931900 8.5000000000 -0.002976458 89.302833557 0.2161742002 2.3739631176 91.527900696  -999.250000  -999.250000 2.9812510014 109.38210297  -999.250000  -999.250000 2.1275839806
 2507.7419434 1.0000000000 -0.201293901 8.2987060547 8.5000000000 0.0005100964 89.569732666 0.2200043052 2.3676519394 87.453826904  -999.250000  -999.250000 2.7838490009 109.47170258  -999.250000  -999.250000 2.0087919235
 2507.8942871 1.0000000000 -0.181199983 8.3187999725 8.5000000000 -0.000077200 92.414131165 0.2229692936 2.3538339138 88.733795166  -999.250000  -999.250000 2.5838921070 109.50000000  -999.250000  -999.250000 1.9846229553
 2508.0463867 1.0000000000 -0.163282394 8.3367176056 8.5000000000 -0.001719279 87.316406250 0.2237754017 2.3585491180 84.554313660  -999.250000  -999.250000 2.4682049751 109.39600372  -999.250000  -999.250000 1.9674799442
 2508.1989746 1.0000000000 -0.159000397 8.3409996033 8.5000000000 -0.004023517 86.046157837 0.2271317244 2.3633580208 86.730422974  -999.250000  -999.250000 2.3952980042 109.38220215  -999.250000  -999.250000 1.9156060219
 2508.3513184 1.0000000000 -0.190595612 8.3094043732 8.5000000000 -0.006908518 87.116981506 0.2316360772 2.3455600739 84.499801636  -999.250000  -999.250000 2.3247780800 109.36779785  -999.250000  -999.250000 1.8847919703
 2508.5036621 1.0000000000 -0.210621804 8.2893781662 8.5000000000 -0.006167022 88.686416626 0.2319365293 2.3335440159 85.984497070  -999.250000  -999.250000 2.2682900429 108.75859833  -999.250000  -999.250000 1.8945369720
 2508.6560059 1.0000000000 -0.201283500 8.2987165451 8.5000000000 -0.002428735 89.273704529 0.2265093178 2.3390319347 83.648460388  -999.250000  -999.250000 2.2170948982 107.82900238  -999.250000  -999.250000 1.8953579664
