# LAS format log file from PETREL
# Project units are specified as depth units
#==================================================================
~Version information
VERS.   2.0:
WRAP.   NO:
#==================================================================
~Well
STRT .m      1003.2490234 :
STOP .m      2879.9025879 :
STEP .m     0.00000000 :
NULL .        -999.250000 :
COMP.           : COMPANY
WELL.  35/9-2   : WELL
FLD.            : FIELD
LOC.            : LOCATION
SRVC.           : SERVICE COMPANY
DATE.  2018-09-11 14:49:01   : Log Export Date {yyyy-MM-dd HH:mm:ss}
PROV.           : PROVINCE
UWI.   35/9-2   : UNIQUE WELL ID
API.            : API NUMBER
#==================================================================
~Curve
DEPT .m                   : DEPTH
Lithology_geolink ._      : Lithology_geolink
DCAL .in                  : DCAL
CALI .in                  : CALI
BS .in                    : BS
DRHO .g/cm3               : DRHO
SGR .gAPI                 : SGR
NPHI .m3/m3               : NPHI
RHOB .g/cm3               : RHOB
GR .gAPI                  : GR
DTC .us/ft                : DTC
DTS .us/ft                : DTS
RDEP .ohm.m               : RDEP
SP .mV                    : SP
RSHA .ohm.m               : RSHA
RMIC .ohm.m               : RMIC
RMED .ohm.m               : RMED
~Parameter
#==================================================================
~Ascii
# ...
 1629.1558838 5.0000000000 0.1624594033 12.412460327 12.250000954 -0.000694925  -999.250000  -999.250000 2.3760728836 74.500122070  -999.250000  -999.250000 1.6142560244 168.87660217  -999.250000  -999.250000 2.5619769096
 1629.3082275 5.0000000000 0.1569004059 12.406901360 12.250000954 0.0007222428  -999.250000  -999.250000 2.3740849495 76.751876831  -999.250000  -999.250000 1.6143640280 168.57099915  -999.250000  -999.250000 2.5651319027
 1629.4606934 5.0000000000 0.1560000926 12.406000137 12.250000954 -0.000729866  -999.250000  -999.250000 2.3677449226 82.440223694  -999.250000  -999.250000 1.6173310280 168.39010620  -999.250000  -999.250000 2.5600960255
 1629.6130371 5.0000000000 0.1560000926 12.406000137 12.250000954 -0.003324559  -999.250000  -999.250000 2.3593170643 86.314369202  -999.250000  -999.250000 1.6224659681 168.17959595  -999.250000  -999.250000 2.5497488976
 1629.7653809 5.0000000000 0.1560000926 12.406000137 12.250000954 -0.004000000  -999.250000  -999.250000 2.3564569950 88.062210083  -999.250000  -999.250000 1.6266280413 167.94790649  -999.250000  -999.250000 2.5423998833
 1629.9178467 5.0000000000 0.1560000926 12.406000137 12.250000954 -0.005251972  -999.250000  -999.250000 2.3604710102 86.811393738  -999.250000  -999.250000 1.6262170076 167.76480103  -999.250000  -999.250000 2.5443940163
 1630.0701904 5.0000000000 0.1560000926 12.406000137 12.250000954 -0.007914659  -999.250000  -999.250000 2.3725609779 81.436599731  -999.250000  -999.250000 1.6202670336 167.64010620  -999.250000  -999.250000 2.5530400276
 1630.2226563 5.0000000000 0.1560000926 12.406000137 12.250000954 -0.008827537  -999.250000  -999.250000 2.3814949989 79.874526978  -999.250000  -999.250000 1.6134519577 167.61199951  -999.250000  -999.250000 2.5576200485
 1630.3750000 5.0000000000 0.1560000926 12.406000137 12.250000954 -0.009477255  -999.250000  -999.250000 2.3756589890 79.375137329  -999.250000  -999.250000 1.6050089598 167.50770569  -999.250000  -999.250000 2.5519030094
 1630.5274658 5.0000000000 0.1560000926 12.406000137 12.250000954 -0.013165550  -999.250000  -999.250000 2.3590400219 87.062660217  -999.250000  -999.250000 1.5921779871 167.49450684  -999.250000  -999.250000 2.5479650497
 1630.6798096 5.0000000000 0.1560000926 12.406000137 12.250000954 -0.016324490  -999.250000  -999.250000 2.3486158848 89.061973572  -999.250000  -999.250000 1.5786570311 167.50579834  -999.250000  -999.250000 2.5497410297
 1630.8322754 5.0000000000 0.1560000926 12.406000137 12.250000954 -0.013662260  -999.250000  -999.250000 2.3510000706 87.869178772  -999.250000  -999.250000 1.5650659800 167.31550598  -999.250000  -999.250000 2.5282180309
 1630.9846191 5.0000000000 0.1560000926 12.406000137 12.250000954 -0.009483586  -999.250000  -999.250000 2.3567678928 80.752952576  -999.250000  -999.250000 1.5529160500 167.14720154  -999.250000  -999.250000 2.4683880806
 1631.1370850 5.0000000000 0.1560000926 12.406000137 12.250000954 -0.005607347  -999.250000  -999.250000 2.3624730110 79.375061035  -999.250000  -999.250000 1.5440809727 167.11199951  -999.250000  -999.250000 2.4118890762
 1631.2894287 5.0000000000 0.1560000926 12.406000137 12.250000954 -0.001423126  -999.250000  -999.250000 2.3699688911 82.624938965  -999.250000  -999.250000 1.5364400148 167.11199951  -999.250000  -999.250000 2.4000790119
 1631.4418945 5.0000000000 0.1560000926 12.406000137 12.250000954 0.0006625670  -999.250000  -999.250000 2.3729000092 82.436767578  -999.250000  -999.250000 1.5302259922 167.32069397  -999.250000  -999.250000 2.4140579700
 1631.5942383 5.0000000000 0.1560000926 12.406000137 12.250000954 0.0014173550  -999.250000  -999.250000 2.3723978996 81.373283386  -999.250000  -999.250000 1.5282839537 167.66000366  -999.250000  -999.250000 2.4272289276
 1631.7465820 5.0000000000 0.1560000926 12.406000137 12.250000954 0.0010526020  -999.250000  -999.250000 2.3715219498 79.750282288  -999.250000  -999.250000 1.5296089649 167.86019897  -999.250000  -999.250000 2.4391760826
 1631.8990479 5.0000000000 0.1560000926 12.406000137 12.250000954 0.0006425285  -999.250000  -999.250000 2.3715898991 84.750366211  -999.250000  -999.250000 1.5349390507 167.81359863  -999.250000  -999.250000 2.4652009010
 1632.0513916 5.0000000000 0.1560000926 12.406000137 12.250000954 0.0013048790  -999.250000  -999.250000 2.3747489452 86.623687744  -999.250000  -999.250000 1.5461100340 167.70309448  -999.250000  -999.250000 2.4999339581
 1632.2038574 5.0000000000 0.1560000926 12.406000137 12.250000954 0.0031392211  -999.250000  -999.250000 2.3795230389 84.310386658  -999.250000  -999.250000 1.5580480099 167.70089722  -999.250000  -999.250000 2.5207989216
 1632.3562012 5.0000000000 0.1560000926 12.406000137 12.250000954 0.0038275667  -999.250000  -999.250000 2.3782629967 82.063171387  -999.250000  -999.250000 1.5673160553 167.72999573  -999.250000  -999.250000 2.5205850601
 1632.5086670 5.0000000000 0.1560000926 12.406000137 12.250000954 0.0044770660  -999.250000  -999.250000 2.3766300678 81.500000000  -999.250000  -999.250000 1.5754280090 167.63270569  -999.250000  -999.250000 2.5078809261
 1632.6610107 5.0000000000 0.1560000926 12.406000137 12.250000954 0.0044102138  -999.250000  -999.250000 2.3779070377 81.498916626  -999.250000  -999.250000 1.5788450241 167.41079712  -999.250000  -999.250000 2.4971249104
 1632.8134766 5.0000000000 0.1560000926 12.406000137 12.250000954 0.0045897020  -999.250000  -999.250000 2.3789470196 79.064216614  -999.250000  -999.250000 1.5787550211 167.26519775  -999.250000  -999.250000 2.4921979904
 1632.9658203 5.0000000000 0.1560000926 12.406000137 12.250000954 0.0044102380  -999.250000  -999.250000 2.3747670650 81.186599731  -999.250000  -999.250000 1.5801390409 167.13270569  -999.250000  -999.250000 2.4907550812
 1633.1182861 5.0000000000 0.1560000926 12.406000137 12.250000954 0.0029209650  -999.250000  -999.250000 2.3685181141 79.812576294  -999.250000  -999.250000 1.5808269978 167.19790649  -999.250000  -999.250000 2.4917209148
 1633.2706299 5.0000000000 0.1560000926 12.406000137 12.250000954 0.0029471840  -999.250000  -999.250000 2.3666429520 88.124206543  -999.250000  -999.250000 1.5827260017 167.37570190  -999.250000  -999.250000 2.4986059666
 1633.4230957 5.0000000000 0.1560000926 12.406000137 12.250000954 0.0033575611  -999.250000  -999.250000 2.3664700985 85.622261047  -999.250000  -999.250000 1.5878249407 167.52940369  -999.250000  -999.250000 2.5154070854
 1633.5754395 5.0000000000 0.1560000926 12.406000137 12.250000954 0.0018605290  -999.250000  -999.250000 2.3661119938 81.620658875  -999.250000  -999.250000 1.5896530151 167.54249573  -999.250000  -999.250000 2.5282859802
 1633.7279053 5.0000000000 0.1560000926 12.406000137 12.250000954 0.0007549681  -999.250000  -999.250000 2.3689217567 77.500740051  -999.250000  -999.250000 1.5888669491 167.45309448  -999.250000  -999.250000 2.5318350792
 1633.8802490 5.0000000000 0.1560000926 12.406000137 12.250000954 0.0021393381  -999.250000  -999.250000 2.3755500317 76.313827515  -999.250000  -999.250000 1.5901390314 167.73800659  -999.250000  -999.250000 2.5340259075
 1634.0325928 5.0000000000 0.1560000926 12.406000137 12.250000954 0.0024101711  -999.250000  -999.250000 2.3775949478 83.309982300  -999.250000  -999.250000 1.5912450552 168.09060669  -999.250000  -999.250000 2.5402469635
 1634.1850586 5.0000000000 0.1560000926 12.406000137 12.250000954 0.0000861000  -999.250000  -999.250000 2.3744239807 78.812103271  -999.250000  -999.250000 1.5923639536 168.04440308  -999.250000  -999.250000 2.5478429794
 1634.3374023 5.0000000000 0.1560000926 12.406000137 12.250000954 -0.002079681  -999.250000  -999.250000 2.3685810566 78.375129700  -999.250000  -999.250000 1.5969949961 167.81919861  -999.250000  -999.250000 2.5485138893
 1634.4898682 5.0000000000 0.1560000926 12.406000137 12.250000954 -0.003304582  -999.250000  -999.250000 2.3631789684 78.312606812  -999.250000  -999.250000 1.6031800508 167.59179688  -999.250000  -999.250000 2.5503730774
 1634.6422119 5.0000000000 0.1560000926 12.406000137 12.250000954 -0.004304745  -999.250000  -999.250000 2.3599729538 79.938850403  -999.250000  -999.250000 1.6043479443 167.45320129  -999.250000  -999.250000 2.5684731007
