# LAS format log file from PETREL
# Project units are specified as depth units
#==================================================================
~Version information
VERS.   2.0:
WRAP.   NO:
#==================================================================
~Well
STRT .m      1110.2340088 :
STOP .m      3322.9296875 :
STEP .m     0.00000000 :
NULL .        -999.250000 :
COMP.           : COMPANY
WELL.  35/9-9   : WELL
FLD.            : FIELD
LOC.            : LOCATION
SRVC.           : SERVICE COMPANY
DATE.  2018-09-11 14:49:02   : Log Export Date {yyyy-MM-dd HH:mm:ss}
PROV.           : PROVINCE
UWI.   35/9-9   : UNIQUE WELL ID
API.            : API NUMBER
#==================================================================
~Curve
DEPT .m                   : DEPTH
Lithology_geolink ._      : Lithology_geolink
CALI .in                  : CALI
BS .in                    : BS
ROP .m/h                  : ROP
DRHO .g/cm3               : DRHO
NPHI .m3/m3               : NPHI
RHOB .g/cm3               : RHOB
PEF .b/e                  : PEF
GR .gAPI                  : GR
DTC .us/ft                : DTC
DTS .us/ft                : DTS
RDEP .ohm.m               : RDEP
RMED .ohm.m               : RMED
~Parameter
#==================================================================
~Ascii
# ...
 1861.2612305 13.000000000 12.405699730 12.250000954 152.10006714 0.0566000007 0.3084999919 2.4590001106 3.4475998878 92.999702454 109.97489166  -999.250000 1.6591000557 1.6244000196
 1861.4135742 13.000000000 12.403800964 12.250000954 149.76246643 0.0683000013 0.3054000139 2.4588999748 3.6006999016 87.544998169 110.22309875  -999.250000 1.6521999836 1.6407999992
 1861.5660400 13.000000000 12.401800156 12.250000954 164.12532043 0.0702000037 0.3089999855 2.4530000687 3.7781999111 88.809303284 110.16990662  -999.250000 1.6712000370 1.6500999928
 1861.7183838 13.000000000 12.368398666 12.250000954 160.14599609 0.0780000016 0.3084000051 2.4516000748 3.8066000938 90.968399048 110.40450287  -999.250000 1.6684999466 1.6526000500
 1861.8708496 13.000000000 12.364000320 12.250000954 161.26542664 0.0869000033 0.3075999916 2.4572000504 3.8568000793 88.447097778 110.76679230  -999.250000 1.6962000132 1.6706000566
 1862.0231934 13.000000000 12.361599922 12.250000954 164.08760071 0.0794999972 0.2969999909 2.4542996883 3.7337000370 87.289398193 110.25610352  -999.250000 1.7138999701 1.6987999678
 1862.1756592 13.000000000 12.396900177 12.250000954 175.10237122 0.0670000017 0.2881000042 2.4402999878 3.7481999397 90.428596497 109.41439819  -999.250000 1.7211999893 1.7062000036
 1862.3280029 13.000000000 12.403500557 12.250000954 167.61155701 0.0546999983 0.2813999951 2.4379000664 3.7063000202 89.160797119 109.16629791  -999.250000 1.7425999641 1.7283999920
 1862.4803467 13.000000000 12.409600258 12.250000954 164.21357727 0.0597999990 0.2824000120 2.4567999840 3.7163999081 81.269996643 108.41100311  -999.250000 1.7934000492 1.7694000006
 1862.6328125 13.000000000 12.429200172 12.250000954 164.08169556 0.0603000000 0.2818999887 2.4769999981 3.6944999695 75.875701904 106.28289795  -999.250000 1.9300999641 1.8839999437
 1862.7851563 13.000000000 12.445500374 12.250000954 161.48918152 0.0546999983 0.2768999934 2.5208001137 4.2491002083 75.857902527 104.34290314  -999.250000 2.0592000484 2.0341000557
 1862.9376221 13.000000000 12.460599899 12.250000954 154.62860107 0.0289999992 0.2750999928 2.5459001064 4.9098000526 77.377899170 103.89060211  -999.250000 1.9258999825 1.9177999496
 1863.0899658 13.000000000 12.453701019 12.250000954 157.70997620 0.0308999997 0.2741000056 2.5427000523 4.8078999519 78.823196411 106.14160156  -999.250000 1.7242000103 1.7251000404
 1863.2424316 13.000000000 12.426400185 12.250000954 158.63877869 0.0302000009 0.2910000086 2.5030000210 4.0574002266 80.341003418 109.78029633  -999.250000 1.6605000496 1.6663000584
 1863.3947754 13.000000000 12.404700279 12.250000954 162.59941101 0.0434000008 0.2906000018 2.4679000378 3.4003000259 84.096099854 111.69979858  -999.250000 1.6512999535 1.6517000198
 1863.5472412 13.000000000 12.454700470 12.250000954 162.59941101 0.0458999984 0.2903999984 2.4637000561 3.4070999622 89.826301575 112.13939667  -999.250000 1.6538000107 1.6503000259
 1863.6995850 13.000000000 12.460699081 12.250000954 158.63648987 0.0540000014 0.2847000062 2.4651000500 3.4753999710 90.989700317 112.08090210  -999.250000 1.6873999834 1.6712000370
 1863.8520508 13.000000000 12.467499733 12.250000954 168.53018188 0.0588999987 0.2863999903 2.4709999561 3.5692999363 87.761703491 111.50810242  -999.250000 1.7032999992 1.6816999912
 1864.0043945 13.000000000 12.394901276 12.250000954 172.39631653 0.0461000018 0.2818000019 2.4709000587 3.5078001022 85.783599854 110.75890350  -999.250000 1.7034000158 1.6743999720
 1864.1568604 13.000000000 12.395899773 12.250000954 169.49900818 0.0353999995 0.2743000090 2.4628000259 3.4161000252 84.828300476 110.14309692  -999.250000 1.7039999962 1.6820000410
 1864.3092041 13.000000000 12.396300316 12.250000954 171.53182983 0.0267999992 0.2890999913 2.4432001114 3.4481999874 83.652900696 109.97769928  -999.250000 1.7143000364 1.7013000250
 1864.4615479 13.000000000 12.396900177 12.250000954 175.48196411 0.0244999994 0.2755999863 2.4258000851 3.3864998817 83.184097290 109.60269928  -999.250000 1.6826000214 1.6676000357
 1864.6140137 13.000000000 12.405699730 12.250000954 163.03904724 0.0218000002 0.2854999900 2.4166998863 3.3817999363 85.169296265 109.55650330  -999.250000 1.6626000404 1.6474000216
 1864.7663574 13.000000000 12.425700188 12.250000954 167.34448242 0.0248000007 0.2732000053 2.4293999672 3.3975000381 90.790901184 109.99520111  -999.250000 1.6959999800 1.6711000204
 1864.9188232 13.000000000 12.439000130 12.250000954 151.08038330 0.0166999996 0.3014000058 2.4251000881 3.3503000736 96.994903564 110.24659729  -999.250000 1.6835999489 1.6809999943
 1865.0711670 13.000000000 12.436100006 12.250000954 147.29757690 0.0210999995 0.3016000092 2.4337000847 3.4904000759 97.296699524 110.38929749  -999.250000 1.6601999998 1.6476999521
 1865.2236328 13.000000000 12.465499878 12.250000954 143.95407104 0.0197999999 0.3113000095 2.4384999275 3.3640000820 91.984100342 110.72640991  -999.250000 1.6301000118 1.6161999702
 1865.3759766 13.000000000 12.448800087 12.250000954 139.24737549 0.0231999997 0.3050999939 2.4507999420 3.3464999199 89.757499695 110.86789703  -999.250000 1.6427999735 1.6302000284
 1865.5284424 13.000000000 12.425299644 12.250000954 132.93667603 0.0210999995 0.3107999861 2.4581999779 3.2634999752 93.653198242 110.61219788  -999.250000 1.6871999502 1.6538000107
 1865.6807861 13.000000000 12.415499687 12.250000954 126.58201599 0.0179999992 0.3109000027 2.4458999634 3.3764998913 97.598602295 109.38390350  -999.250000 1.6848000288 1.6504000425
 1865.8332520 13.000000000 12.443700790 12.250000954 123.54363251 0.0219000001 0.3120000064 2.4453001022 3.4077999592 97.857803345 105.67859650  -999.250000 1.6484999657 1.6326999664
 1865.9855957 13.000000000 12.480199814 12.250000954 125.55970001 0.0115999999 0.3194000125 2.4216001034 3.3738999367 97.012603760 107.29239655  -999.250000 1.6483000517 1.6176999807
 1866.1380615 13.000000000 12.435099602 12.250000954 128.57414246 0.0052000000 0.3237999976 2.4131000042 3.2009999752 96.792503357 109.12290192  -999.250000 1.6346999407 1.6067999601
 1866.2904053 13.000000000 12.408598900 12.250000954 118.10858917 -0.006300000 0.3170000017 2.3963000774 3.0905001163 95.705802917 110.28230286  -999.250000 1.6456999779 1.6275000572
 1866.4428711 13.000000000 12.410699844 12.250000954 118.21883392 0.0044999998 0.3188999891 2.4307999611 3.1143000126 93.113403320 110.17950439  -999.250000 1.6711000204 1.6578999758
 1866.5952148 13.000000000 12.413500786 12.250000954 122.06462097 0.0059000002 0.3231999874 2.4381999969 3.2892000675 91.117599487 110.08439636  -999.250000 1.7015999556 1.6655999422
 1866.7475586 13.000000000 12.426899910 12.250000954 114.99935150 0.0176999997 0.3319999874 2.4686999321 3.5234000683 91.760398865 109.31809998  -999.250000 1.7261999846 1.7020000219
 1866.9000244 13.000000000 12.437999725 12.250000954 114.91798401 0.0179999992 0.3127999902 2.4577000141 3.5392000675 94.295898438 108.48230743  -999.250000 1.7114000320 1.6960999966
 1867.0523682 13.000000000 12.417400360 12.250000954 117.04757690 0.0350000001 0.3048000038 2.4820001125 3.4437000751 96.270401001 108.54460144  -999.250000 1.6980999708 1.6763999462
 1867.2048340 13.000000000 12.431200027 12.250000954 118.07907867 0.0364999995 0.2976999879 2.4663999081 3.3705000877 95.178001404 107.95169067  -999.250000 1.7460000515 1.7287000418
 1867.3571777 13.000000000 12.454700470 12.250000954 117.84024048 0.0450000018 0.3113000095 2.4749999046 3.4119999409 92.356201172 107.55940247  -999.250000 1.7423000336 1.7445000410
 1867.5096436 13.000000000 12.483100891 12.250000954 119.23851013 0.0417000018 0.3106000125 2.4791998863 3.3527998924 91.605499268 107.22859955  -999.250000 1.7332999706 1.7266999483
 1867.6619873 13.000000000 12.457999229 12.250000954 115.60926056 0.0502000004 0.3136999905 2.4918999672 3.3503000736 94.553398132 107.15019226  -999.250000 1.7710000277 1.7472000122
 1867.8144531 13.000000000 12.434100151 12.250000954 121.48030090 0.0395000018 0.3064999878 2.4735000134 3.3017001152 99.008399963 107.10559845  -999.250000 1.8308999538 1.7977999449
