# LAS format log file from PETREL
# Project units are specified as depth units
#==================================================================
~Version information
VERS.   2.0:
WRAP.   NO:
#==================================================================
~Well
STRT .m      1003.2490234 :
STOP .m      2879.9025879 :
STEP .m     0.00000000 :
NULL .        -999.250000 :
COMP.           : COMPANY
WELL.  35/9-2   : WELL
FLD.            : FIELD
LOC.            : LOCATION
SRVC.           : SERVICE COMPANY
DATE.  2018-09-11 14:49:01   : Log Export Date {yyyy-MM-dd HH:mm:ss}
PROV.           : PROVINCE
UWI.   35/9-2   : UNIQUE WELL ID
API.            : API NUMBER
#==================================================================
~Curve
DEPT .m                   : DEPTH
Lithology_geolink ._      : Lithology_geolink
DCAL .in                  : DCAL
CALI .in                  : CALI
BS .in                    : BS
DRHO .g/cm3               : DRHO
SGR .gAPI                 : SGR
NPHI .m3/m3               : NPHI
RHOB .g/cm3               : RHOB
GR .gAPI                  : GR
DTC .us/ft                : DTC
DTS .us/ft                : DTS
RDEP .ohm.m               : RDEP
SP .mV                    : SP
RSHA .ohm.m               : RSHA
RMIC .ohm.m               : RMIC
RMED .ohm.m               : RMED
~Parameter
#==================================================================
~Ascii
# ...
 2125.3701172 1.0000000000 -0.159000397 8.3409996033 8.5000000000 -0.026732439 68.681671143 0.0825067237 1.9582289457 69.347892761 101.51270294 175.27511597 1370.0920410 -74.64714813 2.5638918877 2.4664630890 490.52688599
 2125.5227051 1.0000000000 -0.159000397 8.3409996033 8.5000000000 -0.029624440 70.890167236 0.0843482837 1.9437799454 67.432212830 101.61499786 175.67689514 1403.1860352 -74.08135986 3.0387868881 3.0377519131 518.11431885
 2125.6750488 1.0000000000 -0.159000397 8.3409996033 8.5000000000 -0.029755009 72.303695679 0.0803752169 1.9459559917 67.721786499 101.59539795 175.50920105 1529.2110596 -73.12136078 3.0608429909 2.9527649879 584.19232178
 2125.8273926 1.0000000000 -0.159000397 8.3409996033 8.5000000000 -0.028220490 72.900650024 0.0729703605 1.9498529434 68.684097290 101.21430206 175.63090515 1613.8110352 -72.36151123 3.4189429283 3.2752659321 644.59088135
 2125.9797363 1.0000000000 -0.159000397 8.3409996033 8.5000000000 -0.023949159 72.652877808 0.0691025108 1.9533890486 68.901313782 100.81379700 174.50709534 1598.9110107 -71.23728943 3.7627310753 3.8608639240 682.30657959
 2126.1320801 1.0000000000 -0.174849495 8.3251495361 8.5000000000 -0.021091869 71.727821350 0.0718738958 1.9529880285 67.627487183 101.17230225 174.06759644 1550.4670410 -70.31440735 3.0217039585 3.1065380573 714.18347168
 2126.2846680 1.0000000000 -0.192712799 8.3072872162 8.5000000000 -0.020053910 72.788871765 0.0764190480 1.9590690136 62.147590637 101.70779419 174.86888123 1522.1109619 -69.40325165 2.5693409443 2.5019578934 741.88818359
 2126.4370117 1.0000000000 -0.181168616 8.3188314438 8.5000000000 -0.018809071 72.148368835 0.0798782036 1.9797660112 63.870899200 102.11990356 176.30609131 1517.0439453 -68.25264740 2.8672509193 2.8295679092 765.96081543
 2126.5893555 1.0000000000 -0.179121003 8.3208789825 8.5000000000 -0.016445410 70.844467163 0.0856842101 2.0037109852 66.978538513 102.66240692 177.95756531 1451.7659912 -67.09165955 2.8728759289 2.9470829964 760.71667480
 2126.7416992 1.0000000000 -0.192724183 8.3072757721 8.5000000000 -0.015284120 69.919204712 0.0928810984 2.0212240219 71.519172668 103.04149628 178.65858459 1246.0479736 -65.76510620 2.4006819725 2.4394309521 686.43939209
 2126.8942871 1.0000000000 -0.196999505 8.3030004501 8.5000000000 -0.017023940 70.997840881 0.0957159773 2.0250089169 75.353813171 103.42659760 178.79159546 1009.6989746 -64.60690308 2.4301440716 2.1788330078 585.80279541
 2127.0466309 1.0000000000 -0.196999505 8.3030004501 8.5000000000 -0.020744011 73.864723206 0.0911999121 2.0166010857 73.775672913 103.65930176 178.01609802 840.50451660 -63.56400299 3.9128079414 3.3253719807 507.02178955
 2127.1989746 1.0000000000 -0.196999505 8.3030004501 8.5000000000 -0.024269819 75.419441223 0.0861363560 2.0032138824 76.455879211 103.26660156 177.10147095 764.52661133 -62.57836533 6.8581361771 6.6219677925 475.42370605
 2127.3513184 1.0000000000 -0.196999505 8.3030004501 8.5000000000 -0.027859630 74.643371582 0.0846689194 1.9846819639 74.550201416 102.79519653 175.09461975 774.30310059 -61.14627838 6.8373541832 6.8329138756 502.63439941
 2127.5039063 1.0000000000 -0.196999505 8.3030004501 8.5000000000 -0.027100660 70.441879272 0.0881971717 1.9754519463 80.252922058 102.85359955 173.24279785 675.69921875 -59.69004822 6.1579580307 5.9568920135 474.36968994
 2127.6562500 1.0000000000 -0.212834403 8.2871656418 8.5000000000 -0.023068771 74.535758972 0.0965562314 1.9824019670 80.730903625 103.17031097 171.92210388 522.10217285 -58.35535049 7.0342760086 6.8989171982 397.89379883
 2127.8085938 1.0000000000 -0.214880005 8.2851200104 8.5000000000 -0.017892160 79.043518066 0.1049010232 2.0199511051 81.587257385 103.80279541 170.80818176 451.59631348 -57.23904037 7.4984989166 7.7076048851 365.20999146
 2127.9609375 1.0000000000 -0.185438201 8.3145618439 8.5000000000 -0.015151670 80.457786560 0.1114589944 2.0545279980 79.235771179 104.44300079 169.89247131 404.84478760 -55.76409912 6.3141927719 6.2096700668 344.14428711
 2128.1132813 1.0000000000 -0.194973007 8.3050270081 8.5000000000 -0.014828420 79.965888977 0.1170418561 2.0600860119 77.954963684 104.91000366 170.64009094 326.59689331 -54.32262039 6.2023849487 6.0231652260 292.88009644
 2128.2658691 2.0000000000 -0.210592285 8.2894077301 8.5000000000 -0.013809020 82.153152466 0.1289930940 2.0729210377 79.811622620 105.37429047 172.12550354 262.81729126 -53.49393845 6.8503870964 6.5549068451 249.76719666
 2128.4182129 2.0000000000 -0.185457200 8.3145427704 8.5000000000 -0.008946775 88.241401672 0.1424126923 2.1098809242 87.072082520 105.06639862 171.92301941 227.70669556 -52.66802979 8.1661777496 7.7480988503 225.40029907
 2128.5705566 2.0000000000 -0.179121003 8.3208789825 8.5000000000 -0.003710011 93.853263855 0.1497760117 2.1386160851 86.562026978 104.39109802 171.24668884 196.30299377 -51.17485046 9.9909057617 9.9240274429 196.17750549
 2128.7229004 2.0000000000 -0.192724183 8.3072757721 8.5000000000 -0.003780604 94.560539246 0.1547618061 2.1406579018 84.468246460 103.63870239 169.17971802 166.00090027 -49.79465866 9.9735574722 10.162389755 163.97450256
 2128.8754883 2.0000000000 -0.196999505 8.3030004501 8.5000000000 -0.007631276 93.197822571 0.1680838019 2.1436860561 83.601806641 101.66580200 167.02549744 152.27760315 -48.99401855 8.8455915451 8.9889211655 147.25250244
 2129.0278320 2.0000000000 -0.212828606 8.2871713638 8.5000000000 -0.005853597 93.790985107 0.1800805032 2.1717360020 93.622001648 99.394981384 164.35429382 158.65229797 -47.85573959 7.9697871208 8.0788850784 149.71490479
 2129.1801758 2.0000000000 -0.230715796 8.2692842484 8.5000000000 -0.002073603 92.876121521 0.1704947650 2.1840860844 94.518569946 97.425003052 160.21133423 186.40339661 -46.73891830 7.7628297806 7.4007711411 170.55099487
 2129.3325195 2.0000000000 -0.203310996 8.2966890335 8.5000000000 -0.001357898 86.343269348 0.1384525150 2.1557810307 89.581062317 95.968307495 157.68914795 267.28009033 -45.68085861 10.035189629 9.0664796829 233.17140198
 2129.4851074 2.0000000000 -0.167543396 8.3324565887 8.5000000000 -0.001946728 79.974365234 0.1067129001 2.1382088661 79.885559082 95.237266541 158.87480164 491.60610962 -44.60575104 15.636940002 14.750840187 402.60058594
 2129.6374512 1.0000000000 -0.143582299 8.3564176559 8.5000000000 -0.001524361 76.214340210 0.0905416906 2.1389400959 70.505989075 94.936782837 162.86689758 982.32067871 -43.66788101 19.970340729 19.750240326 757.43878174
 2129.7897949 1.0000000000 -0.126173005 8.3738269806 8.5000000000 0.0000783000 67.860107422 0.0813354701 2.1311230659 65.050071716 95.947837830 165.71394348 1717.2030029 -42.69612122 19.710060120 20.913240433 1252.2399902
 2129.9421387 1.0000000000 -0.121999703 8.3780002594 8.5000000000 0.0004704891 63.782749176 0.0752109215 2.1344749928 60.355651855 96.584289551 168.60986328 2708.5690918 -41.59152985 9.4452466965 10.395230293 1856.6340332
 2130.0944824 1.0000000000 -0.137432098 8.3625679016 8.5000000000 0.0013637301 62.588233948 0.0783722997 2.1562778950 62.711269379 94.270530701 167.48829651 3795.7309570 -40.57777023 3.3757979870 3.5863380432 2478.1540527
 2130.2470703 1.0000000000 -0.139410004 8.3605899811 8.5000000000 -0.002338006 61.627952576 0.0961912274 2.1578469276 60.443599701 91.503547668 163.73869324 3137.8620605 -39.56383896 2.0014319420 2.0558950901 1947.7449951
 2130.3994141 1.0000000000 -0.141590104 8.3584098816 8.5000000000 -0.010145440 63.992763519 0.1200397983 2.1326959133 63.846839905 89.576889038 152.72944641 1454.8280029 -38.78691101 1.7018749714 1.6960250139 850.76348877
 2130.5517578 1.0000000000 -0.170669585 8.3293304443 8.5000000000 -0.013907070 65.519294739 0.1260935962 2.1386680603 64.526283264 87.452308655 131.85458374 783.65637207 -37.79875946 1.7723309994 1.7066780329 442.37210083
 2130.7041016 1.0000000000 -0.176876992 8.3231229782 8.5000000000 -0.009525340 62.647399902 0.1027091965 2.2258601189 63.697090149 83.672882080 118.45375061 668.78082275 -36.63415909 2.5730679035 2.0902719498 375.38400269
 2130.8566895 1.0000000000 -0.147876695 8.3521232605 8.5000000000 0.0045059449 60.110809326 0.0620116703 2.3934009075 56.477909088 80.401672363 115.99579620 787.84667969 -35.66810989 7.3211631775 4.4969720840 445.76040649
