# LAS format log file from PETREL
# Project units are specified as depth units
#==================================================================
~Version information
VERS.   2.0:
WRAP.   NO:
#==================================================================
~Well
STRT .m      1003.2490234 :
STOP .m      2879.9025879 :
STEP .m     0.00000000 :
NULL .        -999.250000 :
COMP.           : COMPANY
WELL.  35/9-2   : WELL
FLD.            : FIELD
LOC.            : LOCATION
SRVC.           : SERVICE COMPANY
DATE.  2018-09-11 14:49:01   : Log Export Date {yyyy-MM-dd HH:mm:ss}
PROV.           : PROVINCE
UWI.   35/9-2   : UNIQUE WELL ID
API.            : API NUMBER
#==================================================================
~Curve
DEPT .m                   : DEPTH
Lithology_geolink ._      : Lithology_geolink
DCAL .in                  : DCAL
CALI .in                  : CALI
BS .in                    : BS
DRHO .g/cm3               : DRHO
SGR .gAPI                 : SGR
NPHI .m3/m3               : NPHI
RHOB .g/cm3               : RHOB
GR .gAPI                  : GR
DTC .us/ft                : DTC
DTS .us/ft                : DTS
RDEP .ohm.m               : RDEP
SP .mV                    : SP
RSHA .ohm.m               : RSHA
RMIC .ohm.m               : RMIC
RMED .ohm.m               : RMED
~Parameter
#==================================================================
~Ascii
# ...
 1877.2630615 13.000000000 0.2969999015 12.546999931 12.250000954 -0.006476928  -999.250000 0.3761790097 2.4864299297 69.005294800  -999.250000  -999.250000 3.2828550339 134.77879333  -999.250000  -999.250000 4.5268330574
 1877.4155273 13.000000000 0.2969999015 12.546999931 12.250000954 -0.006410420  -999.250000 0.3705756068 2.4863579273 74.819259644  -999.250000  -999.250000 3.3055279255 134.87800598  -999.250000  -999.250000 4.4762959480
 1877.5678711 13.000000000 0.2969999015 12.546999931 12.250000954 -0.006172522  -999.250000 0.3585557938 2.4893960953 78.069389343  -999.250000  -999.250000 3.3260049820 134.96589661  -999.250000  -999.250000 4.4209818840
 1877.7203369 13.000000000 0.2969999015 12.546999931 12.250000954 -0.006357475  -999.250000 0.3537937999 2.4926760197 82.244979858  -999.250000  -999.250000 3.3389320374 134.98699951  -999.250000  -999.250000 4.4160261154
 1877.8726807 13.000000000 0.2969999015 12.546999931 12.250000954 -0.006529898  -999.250000 0.3614192903 2.4919259548 80.122634888  -999.250000  -999.250000 3.3272409439 134.98699951  -999.250000  -999.250000 4.4669008255
 1878.0251465 13.000000000 0.2969999015 12.546999931 12.250000954 -0.007304664  -999.250000 0.3780956864 2.4864571095 77.121093750  -999.250000  -999.250000 3.2937319279 134.77839661  -999.250000  -999.250000 4.5236911774
 1878.1774902 13.000000000 0.2969999015 12.546999931 12.250000954 -0.008304438  -999.250000 0.3858087063 2.4830338955 75.119583130  -999.250000  -999.250000 3.2263140678 134.28259277  -999.250000  -999.250000 4.5411119461
 1878.3298340 13.000000000 0.2969999015 12.546999931 12.250000954 -0.008470090  -999.250000 0.3838773072 2.4825301170 71.563095093  -999.250000  -999.250000 3.1222639084 133.82809448  -999.250000  -999.250000 4.5319600105
 1878.4822998 13.000000000 0.2969999015 12.546999931 12.250000954 -0.008529881  -999.250000 0.3774122894 2.4799671173 71.871490479  -999.250000  -999.250000 2.9961640835 133.48379517  -999.250000  -999.250000 4.4894652367
 1878.6346436 13.000000000 0.2969999015 12.546999931 12.250000954 -0.010556200  -999.250000 0.3730823994 2.4713649750 67.563781738  -999.250000  -999.250000 2.8383829594 133.17500305  -999.250000  -999.250000 4.3244190216
 1878.7871094 13.000000000 0.2969999015 12.546999931 12.250000954 -0.012131780  -999.250000 0.3891789019 2.4607119560 68.815910339  -999.250000  -999.250000 2.6706531048 133.01519775  -999.250000  -999.250000 3.9431679249
 1878.9394531 13.000000000 0.2969999015 12.546999931 12.250000954 -0.011278340  -999.250000 0.4186547101 2.4533460140 71.263214111  -999.250000  -999.250000 2.5265169144 133.14340210  -999.250000  -999.250000 3.4830100536
 1879.0919189 13.000000000 0.2969999015 12.546999931 12.250000954 -0.009808561  -999.250000 0.4417119026 2.4508678913 78.749595642  -999.250000  -999.250000 2.4144160748 133.16329956  -999.250000  -999.250000 3.1559050083
 1879.2442627 13.000000000 0.2969999015 12.546999931 12.250000954 -0.007026991  -999.250000 0.4373817146 2.4546420574 80.749938965  -999.250000  -999.250000 2.3161239624 133.02929688  -999.250000  -999.250000 2.9981720448
 1879.3967285 13.000000000 0.2969999015 12.546999931 12.250000954 -0.002479070  -999.250000 0.4149088860 2.4614870548 80.688278198  -999.250000  -999.250000 2.2111051083 132.98699951  -999.250000  -999.250000 2.9513270855
 1879.5490723 13.000000000 0.2969999015 12.546999931 12.250000954 0.0016875170  -999.250000 0.3988133073 2.4686601162 81.057174683  -999.250000  -999.250000 2.1117980480 132.83059692  -999.250000  -999.250000 2.9544000626
 1879.7015381 13.000000000 0.2969999015 12.546999931 12.250000954 0.0036621911  -999.250000 0.4033010900 2.4751861095 77.812782288  -999.250000  -999.250000 2.0446980000 132.54989624  -999.250000  -999.250000 2.9634981155
 1879.8538818 13.000000000 0.2969999015 12.546999931 12.250000954 0.0044171950  -999.250000 0.4045419097 2.4801049232 77.187171936  -999.250000  -999.250000 2.0177180767 132.39019775  -999.250000  -999.250000 2.9675559998
 1880.0063477 13.000000000 0.2969999015 12.546999931 12.250000954 0.0044700829  -999.250000 0.3987815976 2.4783771038 76.757652283  -999.250000  -999.250000 2.0197739601 132.36199951  -999.250000  -999.250000 2.9582540989
 1880.1586914 13.000000000 0.2969999015 12.546999931 12.250000954 0.0032784110  -999.250000 0.3892252147 2.4732930660 80.682487488  -999.250000  -999.250000 2.0412919521 132.36199951  -999.250000  -999.250000 2.9258909225
 1880.3110352 13.000000000 0.2969999015 12.546999931 12.250000954 0.0018080650  -999.250000 0.3746877015 2.4703910351 77.370666504  -999.250000  -999.250000 2.0806410313 132.36199951  -999.250000  -999.250000 2.8865270615
 1880.4635010 13.000000000 0.2969999015 12.546999931 12.250000954 -0.000138615  -999.250000 0.3704231083 2.4696431160 75.065956116  -999.250000  -999.250000 2.1387290955 132.23190308  -999.250000  -999.250000 2.9298510551
 1880.6158447 13.000000000 0.2969999015 12.546999931 12.250000954 -0.002496374  -999.250000 0.3748740852 2.4703040123 78.941642761  -999.250000  -999.250000 2.2080020905 131.90240479  -999.250000  -999.250000 3.1115579605
 1880.7683105 13.000000000 0.2969999015 12.546999931 12.250000954 -0.005025696  -999.250000 0.3820542991 2.4717209339 82.999046326  -999.250000  -999.250000 2.2778940201 131.71350098  -999.250000  -999.250000 3.3583428860
 1880.9206543 13.000000000 0.2969999015 12.546999931 12.250000954 -0.006244680  -999.250000 0.3826644123 2.4769461155 82.300544739  -999.250000  -999.250000 2.3564610481 131.61860657  -999.250000  -999.250000 3.5580520630
 1881.0731201 13.000000000 0.2969999015 12.546999931 12.250000954 -0.005695759  -999.250000 0.3740589917 2.4822890759 75.498573303  -999.250000  -999.250000 2.4525980949 131.51519775  -999.250000  -999.250000 3.6736640930
 1881.2254639 13.000000000 0.2969999015 12.546999931 12.250000954 -0.003027016  -999.250000 0.3785394132 2.4838869572 71.372711182  -999.250000  -999.250000 2.5540030003 131.48699951  -999.250000  -999.250000 3.7510070801
 1881.3779297 13.000000000 0.2969999015 12.546999931 12.250000954 0.0002698375  -999.250000 0.3931541145 2.4835829735 68.811859131  -999.250000  -999.250000 2.6648080349 131.43490601  -999.250000  -999.250000 3.8323059082
 1881.5302734 13.000000000 0.2969999015 12.546999931 12.250000954 0.0009402441  -999.250000 0.4029412866 2.4839470387 68.500000000  -999.250000  -999.250000 2.7826600075 131.37609863  -999.250000  -999.250000 3.9098310471
 1881.6827393 13.000000000 0.2969999015 12.546999931 12.250000954 0.0010598470  -999.250000 0.4010699093 2.4914519787 68.504806519  -999.250000  -999.250000 2.8922259808 131.46629333  -999.250000  -999.250000 3.9759778976
 1881.8350830 13.000000000 0.3003377914 12.550339699 12.250000954 0.0030261590  -999.250000 0.3877508938 2.5058720112 71.502601624  -999.250000  -999.250000 2.9883549213 131.58380127  -999.250000  -999.250000 4.0775032043
 1881.9875488 13.000000000 0.3040991127 12.554100037 12.250000954 0.0050793798  -999.250000 0.3772818148 2.5202050209 74.873542786  -999.250000  -999.250000 3.0560550690 131.66419983  -999.250000  -999.250000 4.2450208664
 1882.1398926 13.000000000 0.3016623855 12.551659584 12.250000954 0.0063044219  -999.250000 0.3755859137 2.5272300243 74.117477417  -999.250000  -999.250000 3.0799400806 131.87930298  -999.250000  -999.250000 4.4126071930
 1882.2922363 13.000000000 0.3012399971 12.551239967 12.250000954 0.0073045860  -999.250000 0.3646152020 2.5301990509 69.119621277  -999.250000  -999.250000 3.0640950203 132.12190247  -999.250000  -999.250000 4.4883742332
 1882.4447021 13.000000000 0.3007611930 12.550760269 12.250000954 0.0066358810  -999.250000 0.3514819145 2.5311849117 66.250053406  -999.250000  -999.250000 3.0175158978 132.11860657  -999.250000  -999.250000 4.4842910767
 1882.5970459 13.000000000 0.3012399971 12.551239967 12.250000954 0.0053380672  -999.250000 0.3613084853 2.5303380489 65.750190735  -999.250000  -999.250000 2.9482150078 132.11950684  -999.250000  -999.250000 4.4742069244
 1882.7495117 13.000000000 0.3007611930 12.550760269 12.250000954 0.0029145780  -999.250000 0.3998019099 2.5212409496 65.937171936  -999.250000  -999.250000 2.8807299137 132.10450745  -999.250000  -999.250000 4.3883638382
