# LAS format log file from PETREL
# Project units are specified as depth units
#==================================================================
~Version information
VERS.   2.0:
WRAP.   NO:
#==================================================================
~Well
STRT .m      1003.2490234 :
STOP .m      2879.9025879 :
STEP .m     0.00000000 :
NULL .        -999.250000 :
COMP.           : COMPANY
WELL.  35/9-2   : WELL
FLD.            : FIELD
LOC.            : LOCATION
SRVC.           : SERVICE COMPANY
DATE.  2018-09-11 14:49:01   : Log Export Date {yyyy-MM-dd HH:mm:ss}
PROV.           : PROVINCE
UWI.   35/9-2   : UNIQUE WELL ID
API.            : API NUMBER
#==================================================================
~Curve
DEPT .m                   : DEPTH
Lithology_geolink ._      : Lithology_geolink
DCAL .in                  : DCAL
CALI .in                  : CALI
BS .in                    : BS
DRHO .g/cm3               : DRHO
SGR .gAPI                 : SGR
NPHI .m3/m3               : NPHI
RHOB .g/cm3               : RHOB
GR .gAPI                  : GR
DTC .us/ft                : DTC
DTS .us/ft                : DTS
RDEP .ohm.m               : RDEP
SP .mV                    : SP
RSHA .ohm.m               : RSHA
RMIC .ohm.m               : RMIC
RMED .ohm.m               : RMED
~Parameter
#==================================================================
~Ascii
# ...
 1375.4099121 13.000000000 1.3086019754 13.558600426 12.250000954 0.0414192490  -999.250000  -999.250000 2.3436129093 77.077400208  -999.250000  -999.250000 1.9757909775 173.93780518  -999.250000  -999.250000 2.6621971130
 1375.5623779 13.000000000 1.4546040297 13.704601288 12.250000954 0.0516871810  -999.250000  -999.250000 2.3422329426 87.886444092  -999.250000  -999.250000 1.9728679657 173.21740723  -999.250000  -999.250000 2.7740569115
 1375.7147217 13.000000000 1.6320240498 13.882019997 12.250000954 0.0665170178  -999.250000  -999.250000 2.3759512901 92.376014709  -999.250000  -999.250000 1.9556839466 172.87130737  -999.250000  -999.250000 2.7772390842
 1375.8670654 13.000000000 1.7022069693 13.952210426 12.250000954 0.0663695931  -999.250000  -999.250000 2.3943109512 95.251434326  -999.250000  -999.250000 1.9099830389 173.09790039  -999.250000  -999.250000 2.7314670086
 1376.0195313 13.000000000 1.6718009710 13.921799660 12.250000954 0.0397833101  -999.250000  -999.250000 2.3730340004 96.875938416  -999.250000  -999.250000 1.8629659414 173.37600708  -999.250000  -999.250000 2.7517960072
 1376.1718750 13.000000000 1.5950659513 13.845069885 12.250000954 0.0150613096  -999.250000  -999.250000 2.3484721184 97.615364075  -999.250000  -999.250000 1.8431409597 173.93890381  -999.250000  -999.250000 2.7325439453
 1376.3243408 13.000000000 1.4860919714 13.736089706 12.250000954 0.0098218136  -999.250000  -999.250000 2.3425769806 91.676940918  -999.250000  -999.250000 1.8465410471 174.33290100  -999.250000  -999.250000 2.5040099621
 1376.4766846 13.000000000 1.3063470125 13.556349754 12.250000954 0.0126274703  -999.250000  -999.250000 2.3388409615 86.371330261  -999.250000  -999.250000 1.8584640026 174.11970520  -999.250000  -999.250000 2.1799609661
 1376.6291504 13.000000000 1.1921119690 13.442110062 12.250000954 0.0138870999  -999.250000  -999.250000 2.3372800350 81.504859924  -999.250000  -999.250000 1.8551189899 173.43949890  -999.250000  -999.250000 2.0961070061
 1376.7814941 13.000000000 1.2452080250 13.495209694 12.250000954 0.0219236296  -999.250000  -999.250000 2.3586909771 85.821205139  -999.250000  -999.250000 1.8398430347 172.60009766  -999.250000  -999.250000 2.3453950882
 1376.9339600 13.000000000 1.3584768772 13.608480453 12.250000954 0.0383587107  -999.250000  -999.250000 2.4001560211 91.643989563  -999.250000  -999.250000 1.8245960474 171.82200623  -999.250000  -999.250000 2.6945590973
 1377.0863037 13.000000000 1.4193918705 13.669388771 12.250000954 0.0443816185  -999.250000  -999.250000 2.4242470264 101.81355286  -999.250000  -999.250000 1.8254170418 171.28039551  -999.250000  -999.250000 2.8565518856
 1377.2387695 13.000000000 1.4299999475 13.680000305 12.250000954 0.0349894315  -999.250000  -999.250000 2.4175660610 105.25460052  -999.250000  -999.250000 1.8549879789 171.07820129  -999.250000  -999.250000 2.8411490917
 1377.3911133 13.000000000 1.4037309885 13.653729439 12.250000954 0.0287780594  -999.250000  -999.250000 2.4001688957 107.80258942  -999.250000  -999.250000 1.9170249701 171.36270142  -999.250000  -999.250000 2.7981228828
 1377.5435791 13.000000000 1.3415621519 13.591561317 12.250000954 0.0265161991  -999.250000  -999.250000 2.3832418919 100.53080750  -999.250000  -999.250000 2.0276739597 172.13259888  -999.250000  -999.250000 2.7609260082
 1377.6959229 13.000000000 1.2652701139 13.515270233 12.250000954 0.0242067892  -999.250000  -999.250000 2.3729710579 88.050048828  -999.250000  -999.250000 2.1450510025 173.41700745  -999.250000  -999.250000 2.7126550674
 1377.8483887 13.000000000 1.1188479662 13.368849754 12.250000954 0.0238872506  -999.250000  -999.250000 2.3785679340 67.912467957  -999.250000  -999.250000 2.2431240082 174.97839355  -999.250000  -999.250000 2.6154010296
 1378.0007324 12.000000000 0.9504384995 13.200441360 12.250000954 0.0256680306  -999.250000  -999.250000 2.3994193077 52.985527039  -999.250000  -999.250000 2.3825409412 176.40199280  -999.250000  -999.250000 2.5887360573
 1378.1530762 12.000000000 0.8714056611 13.121410370 12.250000954 0.0217094999  -999.250000  -999.250000 2.4135909081 41.372928619  -999.250000  -999.250000 2.5621309280 177.57609558  -999.250000  -999.250000 2.8046030998
 1378.3055420 12.000000000 0.8590001464 13.108999252 12.250000954 0.0164142009  -999.250000  -999.250000 2.4153389931 40.087001801  -999.250000  -999.250000 2.7073509693 178.29139709  -999.250000  -999.250000 3.1385180950
 1378.4578857 12.000000000 0.8590001464 13.108999252 12.250000954 0.0153573304  -999.250000  -999.250000 2.4116640091 36.687805176  -999.250000  -999.250000 2.7689719200 178.31329346  -999.250000  -999.250000 3.3560318947
 1378.6103516 12.000000000 0.8590001464 13.108999252 12.250000954 0.0167806502  -999.250000  -999.250000 2.4033169746 36.843017578  -999.250000  -999.250000 2.7536060810 177.89799500  -999.250000  -999.250000 3.3662860394
 1378.7626953 12.000000000 0.8590001464 13.108999252 12.250000954 0.0268892609  -999.250000  -999.250000 2.3914020061 36.195495605  -999.250000  -999.250000 2.7149920464 177.29359436  -999.250000  -999.250000 3.2048981190
 1378.9151611 12.000000000 0.8590001464 13.108999252 12.250000954 0.0438287407  -999.250000  -999.250000 2.3769099712 41.578556061  -999.250000  -999.250000 2.6315999031 176.36360168  -999.250000  -999.250000 2.9306509495
 1379.0675049 12.000000000 0.8919429779 13.141941071 12.250000954 0.0528304204  -999.250000  -999.250000 2.3640530109 50.234828949  -999.250000  -999.250000 2.4508481026 175.27409363  -999.250000  -999.250000 2.7113170624
 1379.2199707 12.000000000 1.0266230106 13.276619911 12.250000954 0.0541726090  -999.250000  -999.250000 2.3713560104 72.215637207  -999.250000  -999.250000 2.2509520054 173.93339539  -999.250000  -999.250000 2.6489090919
 1379.3723145 12.000000000 1.1943680048 13.444369316 12.250000954 0.0526894294  -999.250000  -999.250000 2.3970630169 87.882324219  -999.250000  -999.250000 2.1052649021 172.26789856  -999.250000  -999.250000 2.6794950962
 1379.5247803 12.000000000 1.2758110762 13.525810242 12.250000954 0.0384658091  -999.250000  -999.250000 2.4096720219 93.242568970  -999.250000  -999.250000 1.9752089977 171.03869629  -999.250000  -999.250000 2.6887509823
 1379.6771240 12.000000000 1.2923361063 13.542340279 12.250000954 0.0196844507  -999.250000  -999.250000 2.4010388851 90.316093445  -999.250000  -999.250000 1.8688080311 170.18940735  -999.250000  -999.250000 2.6421821117
 1379.8295898 12.000000000 1.3611708879 13.611169815 12.250000954 0.0091546187  -999.250000  -999.250000 2.3877460957 93.697929382  -999.250000  -999.250000 1.8217920065 169.34989929  -999.250000  -999.250000 2.6058340073
 1379.9819336 12.000000000 1.5855170488 13.835519791 12.250000954 0.0059812590  -999.250000  -999.250000 2.3802950382 99.938888550  -999.250000  -999.250000 1.8041939735 168.67610168  -999.250000  -999.250000 2.5929780006
 1380.1342773 12.000000000 1.6710449457 13.921050072 12.250000954 0.0067214109  -999.250000  -999.250000 2.3815619946 101.05949402  -999.250000  -999.250000 1.7879650593 168.25210571  -999.250000  -999.250000 2.6131451130
 1380.2867432 12.000000000 1.5974291563 13.847429276 12.250000954 0.0127778603  -999.250000  -999.250000 2.3771750927 99.188484192  -999.250000  -999.250000 1.7648379803 167.86970520  -999.250000  -999.250000 2.6353850365
 1380.4390869 12.000000000 1.6092029810 13.859200478 12.250000954 0.0157268904  -999.250000  -999.250000 2.3507928848 99.689971924  -999.250000  -999.250000 1.7329770327 167.60639954  -999.250000  -999.250000 2.5841469765
 1380.5915527 12.000000000 1.6959140301 13.945909500 12.250000954 0.0267152693  -999.250000  -999.250000 2.3208799362 102.81465912  -999.250000  -999.250000 1.7129160166 167.65420532  -999.250000  -999.250000 2.4469978809
 1380.7438965 12.000000000 1.8228840828 14.072879791 12.250000954 0.0480085686  -999.250000  -999.250000 2.3091690540 104.75474548  -999.250000  -999.250000 1.7102500200 167.77180481  -999.250000  -999.250000 2.3248770237
 1380.8963623 12.000000000 1.9114789963 14.161480904 12.250000954 0.0637192801  -999.250000  -999.250000 2.3090779781 107.92834473  -999.250000  -999.250000 1.7199690342 167.80000305  -999.250000  -999.250000 2.3032128811
