# LAS format log file from PETREL
# Project units are specified as depth units
#==================================================================
~Version information
VERS.   2.0:
WRAP.   NO:
#==================================================================
~Well
STRT .m      1110.2340088 :
STOP .m      3322.9296875 :
STEP .m     0.00000000 :
NULL .        -999.250000 :
COMP.           : COMPANY
WELL.  35/9-9   : WELL
FLD.            : FIELD
LOC.            : LOCATION
SRVC.           : SERVICE COMPANY
DATE.  2018-09-11 14:49:02   : Log Export Date {yyyy-MM-dd HH:mm:ss}
PROV.           : PROVINCE
UWI.   35/9-9   : UNIQUE WELL ID
API.            : API NUMBER
#==================================================================
~Curve
DEPT .m                   : DEPTH
Lithology_geolink ._      : Lithology_geolink
CALI .in                  : CALI
BS .in                    : BS
ROP .m/h                  : ROP
DRHO .g/cm3               : DRHO
NPHI .m3/m3               : NPHI
RHOB .g/cm3               : RHOB
PEF .b/e                  : PEF
GR .gAPI                  : GR
DTC .us/ft                : DTC
DTS .us/ft                : DTS
RDEP .ohm.m               : RDEP
RMED .ohm.m               : RMED
~Parameter
#==================================================================
~Ascii
# ...
 1720.4436035 13.000000000 12.350799561 12.250000954 177.86286926 0.0520000011 0.3037000000 2.3606998920 3.3587000370 83.723899841 112.66699982  -999.250000 1.5414999723 1.5153000355
 1720.5960693 13.000000000 12.333499908 12.250000954 176.04003906 0.0544000007 0.3005999923 2.3480000496 3.4314999580 81.475997925 112.38539886  -999.250000 1.5532000065 1.5281000137
 1720.7484131 13.000000000 12.326299667 12.250000954 187.11024475 0.0557000004 0.2976999879 2.3405001163 3.3738000393 81.919898987 112.07129669  -999.250000 1.6002000570 1.5708999634
 1720.9008789 13.000000000 12.314499855 12.250000954 180.04067993 0.0619999990 0.2992999852 2.3429999352 3.3833000660 83.883697510 111.00679779  -999.250000 1.6093000174 1.5972000360
 1721.0532227 13.000000000 12.320399284 12.250000954 181.55807495 0.0623999983 0.3055999875 2.3510999680 3.3364000320 87.090499878 112.39880371  -999.250000 1.6145000458 1.5642999411
 1721.2055664 13.000000000 12.364500046 12.250000954 170.07775879 0.0653000027 0.2978999913 2.3652000427 3.4035000801 89.562103271 111.36849976  -999.250000 1.6014000177 1.5640000105
 1721.3580322 13.000000000 12.334099770 12.250000954 155.70669556 0.0685999990 0.2949999869 2.3696999550 3.4869999886 88.567802429 112.34049988  -999.250000 1.6029000282 1.5844000578
 1721.5103760 13.000000000 12.344900131 12.250000954 154.74671936 0.0649000034 0.2899999917 2.3643000126 3.4869999886 87.189903259 110.85209656  -999.250000 1.6175999641 1.5958000422
 1721.6628418 13.000000000 12.349499702 12.250000954 140.05839539 0.0654999986 0.2829999924 2.3566000462 3.4865000248 88.972602844 111.14398956  -999.250000 1.6368000507 1.6239999533
 1721.8151855 13.000000000 12.354701042 12.250000954 141.19554138 0.0615000017 0.2745999992 2.3480999470 3.4544000626 92.768898010 111.50820160  -999.250000 1.6711000204 1.6335999966
 1721.9676514 13.000000000 12.386099815 12.250000954 141.83497620 0.0667999983 0.2870999873 2.3684000969 3.3687000275 93.599899292 111.73309326  -999.250000 1.6894999743 1.6282999516
 1722.1199951 13.000000000 12.371100426 12.250000954 134.31233215 0.0560000017 0.2915999889 2.3594000340 3.2832999229 90.925796509 112.47380066  -999.250000 1.6224000454 1.6115000248
 1722.2724609 13.000000000 12.343899727 12.250000954 129.96916199 0.0509999990 0.2887000144 2.3663001060 3.1594998837 88.827003479 111.66159821  -999.250000 1.6148999929 1.6098999977
 1722.4248047 13.000000000 12.347800255 12.250000954 133.72015381 0.0442999974 0.2739999890 2.3589000702 3.2248001099 87.378097534 111.84619904  -999.250000 1.6277999878 1.6000000238
 1722.5772705 13.000000000 12.350799561 12.250000954 124.78018188 0.0372000001 0.2836000025 2.3638999462 3.1566998959 85.165702820 112.70749664  -999.250000 1.6627000570 1.6107000113
 1722.7296143 13.000000000 12.543899536 12.250000954 139.20832825 0.0364999995 0.2939000130 2.3705999851 3.0831999779 83.581901550 113.11150360  -999.250000 1.6267000437 1.6118999720
 1722.8820801 13.000000000 12.416000366 12.250000954 131.49441528 0.0364000015 0.3059000075 2.3664999008 3.0573000908 85.645103455 111.43990326  -999.250000 1.6469000578 1.6413999796
 1723.0344238 13.000000000 12.450799942 12.250000954 129.75590515 0.0507000014 0.3023999929 2.3754000664 3.1775999069 89.636703491 112.19080353  -999.250000 1.6014000177 1.5906000137
 1723.1867676 13.000000000 12.439999580 12.250000954 134.53216553 0.0575000010 0.3046000004 2.3763000965 3.4635999203 91.810096741 111.94370270  -999.250000 1.5729000568 1.5500999689
 1723.3392334 13.000000000 12.435700417 12.250000954 137.28280640 0.0627999976 0.2847999930 2.3610999584 3.7232999802 92.886100769 111.89559937  -999.250000 1.5664999485 1.5440000296
 1723.4915771 13.000000000 12.430200577 12.250000954 128.38450623 0.0595000014 0.2770000100 2.3464999199 3.7869999409 92.119003296 112.48419952  -999.250000 1.5729000568 1.5571999550
 1723.6440430 13.000000000 12.486399651 12.250000954 129.06266785 0.0537000000 0.2700000107 2.3336999416 3.6545999050 88.578498840 111.42569733  -999.250000 1.5856000185 1.5737999678
 1723.7963867 13.000000000 12.519399643 12.250000954 131.57907104 0.0562999994 0.2761999965 2.3510999680 3.5065000057 86.138702393 111.90419769  -999.250000 1.5621000528 1.5504000187
 1723.9488525 13.000000000 12.491000175 12.250000954 128.01049805 0.0560999997 0.2829999924 2.3531999588 3.5053000450 85.208297729 112.92359924  -999.250000 1.5513000488 1.5475000143
 1724.1011963 13.000000000 12.500499725 12.250000954 121.06430817 0.0631999969 0.2881000042 2.3708000183 3.5114998817 82.118797302 113.44779968  -999.250000 1.5721000433 1.5341000557
 1724.2536621 13.000000000 12.518400192 12.250000954 118.29100800 0.0544000007 0.2777000070 2.3627998829 3.4707999229 77.118598938 113.04360199  -999.250000 1.5451999903 1.5428999662
 1724.4060059 13.000000000 12.486000061 12.250000954 126.70669556 0.0527000017 0.2781000137 2.3736000061 3.3180000782 73.847900391 112.52880096  -999.250000 1.5393999815 1.5378999710
 1724.5584717 13.000000000 12.452699661 12.250000954 119.36483002 0.0513999984 0.2791999876 2.3754000664 3.2662000656 76.617897034 112.75659943  -999.250000 1.5496000051 1.5283000469
 1724.7108154 13.000000000 12.456700325 12.250000954 119.06069946 0.0566000007 0.2955999970 2.3743999004 3.2423000336 83.777198792 111.78459930  -999.250000 1.5532000065 1.5516999960
 1724.8632813 13.000000000 12.422499657 12.250000954 115.62565613 0.0513999984 0.3009999990 2.3540000916 3.2711999416 86.930702209 112.98090363  -999.250000 1.5349999666 1.5255999565
 1725.0156250 13.000000000 12.326299667 12.250000954 111.98982239 0.0524999984 0.3143000007 2.3529999256 3.2718000412 86.777999878 113.06710052  -999.250000 1.5061000586 1.4995000362
 1725.1679688 13.000000000 12.324099541 12.250000954 116.86254883 0.0390999988 0.3244999945 2.3469998837 3.1963999271 90.125000000 113.65809631  -999.250000 1.5005999804 1.4832999706
 1725.3204346 13.000000000 12.320399284 12.250000954 115.90058136 0.0335000008 0.3165999949 2.3592998981 3.1580998898 93.798797607 114.10169983  -999.250000 1.5147999525 1.4996000528
 1725.4727783 13.000000000 12.382499695 12.250000954 114.45111847 0.0241000000 0.3285000026 2.3540000916 3.1533999443 91.696098328 113.37680054  -999.250000 1.5128999949 1.4937000275
 1725.6252441 13.000000000 12.457599640 12.250000954 115.28575897 0.0326000005 0.3287999928 2.3743999004 3.2341001034 85.019401550 112.52019501  -999.250000 1.4973000288 1.4829000235
 1725.7775879 13.000000000 12.492600441 12.250000954 122.12105560 0.0493000001 0.3273999989 2.4426999092 3.5174999237 79.929000854 111.86190033  -999.250000 1.4912999868 1.4753999710
 1725.9300537 13.000000000 12.538000107 12.250000954 119.52164459 0.0228000004 0.2885000110 2.4767000675 4.0342998505 78.979499817 111.33361053  -999.250000 1.5246000290 1.5052000284
 1726.0823975 13.000000000 12.486499786 12.250000954 129.93405151 0.0211999994 0.2777999938 2.4751000404 4.0234999657 79.153503418 111.26348877  -999.250000 1.5807000399 1.5519000292
 1726.2348633 13.000000000 12.456700325 12.250000954 134.57742310 0.0041000000 0.2734999955 2.3847999573 3.6486999989 78.429000854 111.57350159  -999.250000 1.6704000235 1.6290999651
 1726.3872070 13.000000000 12.411599159 12.250000954 136.54002380 0.0300999992 0.2971000075 2.3582999706 3.1507000923 78.947502136 112.63860321  -999.250000 1.6241999865 1.6078000069
 1726.5396729 13.000000000 12.407600403 12.250000954 148.99703979 0.0357999988 0.2940999866 2.3541998863 3.1198999882 83.393600464 113.05339813  -999.250000 1.5544999838 1.5322999954
 1726.6920166 13.000000000 12.413200378 12.250000954 153.80250549 0.0428999998 0.3016999960 2.3722999096 3.1686000824 88.262397766 112.17649841  -999.250000 1.5290000439 1.5300999880
 1726.8444824 13.000000000 12.418399811 12.250000954 152.92651367 0.0383000001 0.3046999872 2.3643999100 3.1054000854 90.769599915 112.46600342  -999.250000 1.5625000000 1.5341999531
 1726.9968262 13.000000000 12.390000343 12.250000954 162.95767212 0.0296999998 0.3124000132 2.3526999950 3.0941998959 93.628303528 112.80970001  -999.250000 1.5705000162 1.5556000471
