# LAS format log file from PETREL
# Project units are specified as depth units
#==================================================================
~Version information
VERS.   2.0:
WRAP.   NO:
#==================================================================
~Well
STRT .m      1003.2490234 :
STOP .m      2879.9025879 :
STEP .m     0.00000000 :
NULL .        -999.250000 :
COMP.           : COMPANY
WELL.  35/9-2   : WELL
FLD.            : FIELD
LOC.            : LOCATION
SRVC.           : SERVICE COMPANY
DATE.  2018-09-11 14:49:01   : Log Export Date {yyyy-MM-dd HH:mm:ss}
PROV.           : PROVINCE
UWI.   35/9-2   : UNIQUE WELL ID
API.            : API NUMBER
#==================================================================
~Curve
DEPT .m                   : DEPTH
Lithology_geolink ._      : Lithology_geolink
DCAL .in                  : DCAL
CALI .in                  : CALI
BS .in                    : BS
DRHO .g/cm3               : DRHO
SGR .gAPI                 : SGR
NPHI .m3/m3               : NPHI
RHOB .g/cm3               : RHOB
GR .gAPI                  : GR
DTC .us/ft                : DTC
DTS .us/ft                : DTS
RDEP .ohm.m               : RDEP
SP .mV                    : SP
RSHA .ohm.m               : RSHA
RMIC .ohm.m               : RMIC
RMED .ohm.m               : RMED
~Parameter
#==================================================================
~Ascii
# ...
 1753.2093506 5.0000000000 0.2969999015 12.546999931 12.250000954 -0.001364104  -999.250000  -999.250000 2.4825479984 73.311820984  -999.250000  -999.250000 1.8414280415 160.45320129  -999.250000  -999.250000 2.6734280586
 1753.3618164 5.0000000000 0.2969999015 12.546999931 12.250000954 -0.002244419  -999.250000  -999.250000 2.4633951187 72.500320435  -999.250000  -999.250000 1.8167430162 160.65930176  -999.250000  -999.250000 2.5628690720
 1753.5141602 5.0000000000 0.2969999015 12.546999931 12.250000954 -0.002946948  -999.250000  -999.250000 2.4461901188 75.374923706  -999.250000  -999.250000 1.7922060490 160.92359924  -999.250000  -999.250000 2.4588990211
 1753.6666260 5.0000000000 0.2969999015 12.546999931 12.250000954 -0.005025066  -999.250000  -999.250000 2.4309639931 78.562629700  -999.250000  -999.250000 1.7656359673 160.88279724  -999.250000  -999.250000 2.3770279884
 1753.8189697 5.0000000000 0.2969999015 12.546999931 12.250000954 -0.006661537  -999.250000  -999.250000 2.4213941097 78.938957214  -999.250000  -999.250000 1.7421250343 160.66090393  -999.250000  -999.250000 2.3338420391
 1753.9714355 5.0000000000 0.2969999015 12.546999931 12.250000954 -0.007416916  -999.250000  -999.250000 2.4186310768 80.997909546  -999.250000  -999.250000 1.7237950563 160.51519775  -999.250000  -999.250000 2.3427510262
 1754.1237793 5.0000000000 0.2969999015 12.546999931 12.250000954 -0.005385111  -999.250000  -999.250000 2.4224081039 79.062797546  -999.250000  -999.250000 1.7105660439 160.38279724  -999.250000  -999.250000 2.3852629662
 1754.2762451 5.0000000000 0.2969999015 12.546999931 12.250000954 -0.002677686  -999.250000  -999.250000 2.4312720299 83.749862671  -999.250000  -999.250000 1.7003049850 160.26519775  -999.250000  -999.250000 2.4332718849
 1754.4285889 5.0000000000 0.2969999015 12.546999931 12.250000954 -0.002416972  -999.250000  -999.250000 2.4338326454 83.125801086  -999.250000  -999.250000 1.6950720549 160.23699951  -999.250000  -999.250000 2.4529049397
 1754.5809326 5.0000000000 0.2969999015 12.546999931 12.250000954 -0.003303870  -999.250000  -999.250000 2.4277420044 84.499877930  -999.250000  -999.250000 1.6960239410 160.44540405  -999.250000  -999.250000 2.4301970005
 1754.7333984 5.0000000000 0.2969999015 12.546999931 12.250000954 -0.004304032  -999.250000  -999.250000 2.4199249744 84.375038147  -999.250000  -999.250000 1.6984939575 160.88900757  -999.250000  -999.250000 2.3894650936
 1754.8857422 5.0000000000 0.2969999015 12.546999931 12.250000954 -0.005721545  -999.250000  -999.250000 2.4175169468 84.312370300  -999.250000  -999.250000 1.7010250092 161.28489685  -999.250000  -999.250000 2.3700668812
 1755.0382080 5.0000000000 0.2969999015 12.546999931 12.250000954 -0.006774318  -999.250000  -999.250000 2.4159870148 82.873451233  -999.250000  -999.250000 1.7072390318 161.25030518  -999.250000  -999.250000 2.3906459808
 1755.1905518 5.0000000000 0.2969999015 12.546999931 12.250000954 -0.006582892  -999.250000  -999.250000 2.4149880409 79.501403809  -999.250000  -999.250000 1.7214779854 160.83479309  -999.250000  -999.250000 2.4091200829
 1755.3430176 5.0000000000 0.2969999015 12.546999931 12.250000954 -0.005695887  -999.250000  -999.250000 2.4168529510 81.186820984  -999.250000  -999.250000 1.7438089848 160.20480347  -999.250000  -999.250000 2.3933770657
 1755.4953613 5.0000000000 0.2969999015 12.546999931 12.250000954 -0.004695724  -999.250000  -999.250000 2.4287309647 76.875152588  -999.250000  -999.250000 1.7655780315 159.55810547  -999.250000  -999.250000 2.3933179379
 1755.6478271 5.0000000000 0.2969999015 12.546999931 12.250000954 -0.005363735  -999.250000  -999.250000 2.4410650730 76.062843323  -999.250000  -999.250000 1.7836619616 159.23139954  -999.250000  -999.250000 2.4789259434
 1755.8001709 5.0000000000 0.2969999015 12.546999931 12.250000954 -0.006244489  -999.250000  -999.250000 2.4452509880 77.065528870  -999.250000  -999.250000 1.8006080389 159.07069397  -999.250000  -999.250000 2.5914700031
 1755.9526367 5.0000000000 0.2969999015 12.546999931 12.250000954 -0.008197478  -999.250000  -999.250000 2.4404079914 81.373931885  -999.250000  -999.250000 1.8184889555 159.16169739  -999.250000  -999.250000 2.6144020557
 1756.1049805 5.0000000000 0.2969999015 12.546999931 12.250000954 -0.010435740  -999.250000  -999.250000 2.4341099262 80.375160217  -999.250000  -999.250000 1.8401030302 159.57710266  -999.250000  -999.250000 2.5660591125
 1756.2574463 5.0000000000 0.2969999015 12.546999931 12.250000954 -0.013084380  -999.250000  -999.250000 2.4349722862 80.625396729  -999.250000  -999.250000 1.8636980057 160.07699585  -999.250000  -999.250000 2.5327389240
 1756.4097900 5.0000000000 0.2969999015 12.546999931 12.250000954 -0.014184700  -999.250000  -999.250000 2.4432730675 82.564552307  -999.250000  -999.250000 1.8819619417 160.36860657  -999.250000  -999.250000 2.5578429699
 1756.5621338 5.0000000000 0.2969999015 12.546999931 12.250000954 -0.012922100  -999.250000  -999.250000 2.4525020123 86.123527527  -999.250000  -999.250000 1.8880870342 160.42500305  -999.250000  -999.250000 2.6219170094
 1756.7145996 5.0000000000 0.2840748131 12.534069061 12.250000954 -0.010445180  -999.250000  -999.250000 2.4522659779 84.562950134  -999.250000  -999.250000 1.8790849447 160.42500305  -999.250000  -999.250000 2.6588931084
 1756.8669434 5.0000000000 0.2824259102 12.532428741 12.250000954 -0.009285259  -999.250000  -999.250000 2.4422869682 81.062553406  -999.250000  -999.250000 1.8663179874 160.52929688  -999.250000  -999.250000 2.6382560730
 1757.0194092 5.0000000000 0.2935019135 12.543498993 12.250000954 -0.006021200  -999.250000  -999.250000 2.4341630936 81.750617981  -999.250000  -999.250000 1.8587009907 160.64680481  -999.250000  -999.250000 2.5863230228
 1757.1717529 5.0000000000 0.2969999015 12.546999931 12.250000954 -0.000346540  -999.250000  -999.250000 2.4321129322 83.125923157  -999.250000  -999.250000 1.8559800386 160.46640015  -999.250000  -999.250000 2.5404179096
 1757.3242188 5.0000000000 0.2969999015 12.546999931 12.250000954 0.0037994441  -999.250000  -999.250000 2.4345018864 84.249526978  -999.250000  -999.250000 1.8550529480 160.04879761  -999.250000  -999.250000 2.5173320770
 1757.4765625 5.0000000000 0.2969999015 12.546999931 12.250000954 0.0052445298  -999.250000  -999.250000 2.4373230934 84.250000000  -999.250000  -999.250000 1.8542250395 159.57789612  -999.250000  -999.250000 2.5082840919
 1757.6290283 5.0000000000 0.2969999015 12.546999931 12.250000954 0.0059467829  -999.250000  -999.250000 2.4425859451 84.750976563  -999.250000  -999.250000 1.8523310423 159.18919373  -999.250000  -999.250000 2.5017549992
 1757.7813721 5.0000000000 0.2969999015 12.546999931 12.250000954 0.0067743440  -999.250000  -999.250000 2.4540140629 87.749389648  -999.250000  -999.250000 1.8471100330 159.01519775  -999.250000  -999.250000 2.5106739998
 1757.9338379 5.0000000000 0.2969999015 12.546999931 12.250000954 0.0078338133  -999.250000  -999.250000 2.4681429863 86.872543335  -999.250000  -999.250000 1.8383049965 158.98699951  -999.250000  -999.250000 2.5717370510
 1758.0861816 5.0000000000 0.2969999015 12.546999931 12.250000954 0.0075232950  -999.250000  -999.250000 2.4755859375 84.562889099  -999.250000  -999.250000 1.8293139935 158.98699951  -999.250000  -999.250000 2.6659278870
 1758.2386475 5.0000000000 0.2969999015 12.546999931 12.250000954 0.0059219920  -999.250000  -999.250000 2.4691390991 83.624862671  -999.250000  -999.250000 1.8272889853 158.77859497  -999.250000  -999.250000 2.6759560108
 1758.3909912 5.0000000000 0.2969999015 12.546999931 12.250000954 0.0059468080  -999.250000  -999.250000 2.4617528915 82.939002991  -999.250000  -999.250000 1.8293219805 158.43919373  -999.250000  -999.250000 2.5797450542
 1758.5434570 5.0000000000 0.2969999015 12.546999931 12.250000954 0.0063572000  -999.250000  -999.250000 2.4578559399 85.562561035  -999.250000  -999.250000 1.8279139996 158.36950684  -999.250000  -999.250000 2.4863350391
 1758.6958008 6.0000000000 0.2969999015 12.546999931 12.250000954 0.0048621278  -999.250000  -999.250000 2.4535400867 85.624977112  -999.250000  -999.250000 1.8205499649 158.56300354  -999.250000  -999.250000 2.4443519115
