# LAS format log file from PETREL
# Project units are specified as depth units
#==================================================================
~Version information
VERS.   2.0:
WRAP.   NO:
#==================================================================
~Well
STRT .m      1110.2340088 :
STOP .m      3322.9296875 :
STEP .m     0.00000000 :
NULL .        -999.250000 :
COMP.           : COMPANY
WELL.  35/9-9   : WELL
FLD.            : FIELD
LOC.            : LOCATION
SRVC.           : SERVICE COMPANY
DATE.  2018-09-11 14:49:02   : Log Export Date {yyyy-MM-dd HH:mm:ss}
PROV.           : PROVINCE
UWI.   35/9-9   : UNIQUE WELL ID
API.            : API NUMBER
#==================================================================
~Curve
DEPT .m                   : DEPTH
Lithology_geolink ._      : Lithology_geolink
CALI .in                  : CALI
BS .in                    : BS
ROP .m/h                  : ROP
DRHO .g/cm3               : DRHO
NPHI .m3/m3               : NPHI
RHOB .g/cm3               : RHOB
PEF .b/e                  : PEF
GR .gAPI                  : GR
DTC .us/ft                : DTC
DTS .us/ft                : DTS
RDEP .ohm.m               : RDEP
RMED .ohm.m               : RMED
~Parameter
#==================================================================
~Ascii
# ...
 1143.7619629 6.0000000000 13.471400261 12.250000954 16.713254929 0.0017000000  -999.250000  -999.250000  -999.250000 88.722389221  -999.250000  -999.250000 1.2752000093 1.2250385284
 1143.9144287 6.0000000000 12.864000320 12.250000954 30.748033524 0.0311999992  -999.250000  -999.250000  -999.250000 86.330497742  -999.250000  -999.250000 1.4887000322 1.4139000177
 1144.0667725 5.0000000000 12.747799873 12.250000954 30.872377396 0.0390000008  -999.250000  -999.250000  -999.250000 85.198608398  -999.250000  -999.250000 1.7044999599 1.5721731186
 1144.2192383 5.0000000000 12.739999771 12.250000954 30.269359589 0.0190999992  -999.250000  -999.250000  -999.250000 86.337600708  -999.250000  -999.250000 1.8249000311 1.6512999535
 1144.3715820 5.0000000000 12.573300362 12.250000954 29.374345779 0.0083999997  -999.250000  -999.250000  -999.250000 86.614379883  -999.250000  -999.250000 1.9797999859 1.7481224537
 1144.5239258 5.0000000000 12.543399811 12.250000954 28.204397202 0.0222999994  -999.250000  -999.250000  -999.250000 86.273971558  -999.250000  -999.250000 2.1415998936 1.9598302841
 1144.6763916 5.0000000000 12.531200409 12.250000954 28.234579086 0.0417999998  -999.250000  -999.250000  -999.250000 85.911788940  -999.250000  -999.250000 2.4372000694 2.1309628487
 1144.8287354 5.0000000000 12.771400452 12.250000954 25.373359680 0.0289999992  -999.250000  -999.250000  -999.250000 83.519813538  -999.250000  -999.250000 3.2390000820 2.6615746021
 1144.9812012 5.0000000000 12.772399902 12.250000954 24.566600800 0.0022000000  -999.250000  -999.250000  -999.250000 81.539901733  -999.250000  -999.250000 4.8140001297 3.6364998817
 1145.1335449 5.0000000000 12.518400192 12.250000954 17.713254929 -0.002200000  -999.250000  -999.250000  -999.250000 81.082168579  -999.250000  -999.250000 5.5949001312 4.2572026253
 1145.2860107 5.0000000000 12.361599922 12.250000954 17.125000000 0.0107000005  -999.250000  -999.250000  -999.250000 78.183998108  -999.250000  -999.250000 5.0704002380 3.9797999859
 1145.4383545 5.0000000000 12.704999924 12.250000954 17.554134369 0.0262000002  -999.250000  -999.250000  -999.250000 73.287223816  -999.250000  -999.250000 4.3046998978 3.4656119347
 1145.5908203 5.0000000000 13.347801208 12.250000954 18.435039520 0.0304000005  -999.250000  -999.250000  -999.250000 70.140403748  -999.250000  -999.250000 3.8192000389 3.0806999207
 1145.7431641 5.0000000000 13.333100319 12.250000954 18.899606705 0.0307999998  -999.250000  -999.250000  -999.250000 69.640106201  -999.250000  -999.250000 3.5485000610 2.9344172478
 1145.8956299 5.0000000000 12.622799873 12.250000954 18.429462433 0.0223999992 0.2874000072 2.2246000767 3.5460000038 71.628402710  -999.250000  -999.250000 2.7551999092 2.3933999538
 1146.0479736 5.0000000000 12.624300003 12.250000954 17.758529663 0.0280000009 0.3140786290 2.2379891872 3.5519952774 77.969421387  -999.250000  -999.250000 1.7522000074 1.6456991434
 1146.2004395 5.0000000000 12.568598747 12.250000954 17.098752975 0.0452000014 0.3607000113 2.2467000484 3.6684000492 86.458396912 134.41189575  -999.250000 1.4636000395 1.3983999491
 1146.3527832 6.0000000000 12.518400192 12.250000954 18.119422913 0.0465000011 0.4019669294 2.2287142277 3.7699186802 90.539024353 133.37294006  -999.250000 1.4551000595 1.3828125000
 1146.5051270 6.0000000000 12.739999771 12.250000954 19.099082947 0.0313000008 0.4105931222 2.2030205727 3.6152241230 91.968757629 135.22392273  -999.250000 1.5820000172 1.5025039911
 1146.6575928 6.0000000000 12.737400055 12.250000954 28.567916870 0.0167999994 0.3943130672 2.1898105145 3.4419388771 94.024353027 137.87777710  -999.250000 1.5823999643 1.4764209986
 1146.8099365 6.0000000000 12.733099937 12.250000954 33.538715363 0.0206000004 0.3850074410 2.1972939968 3.4343059063 94.451858521 138.70504761  -999.250000 1.5478999615 1.4293377399
 1146.9624023 6.0000000000 12.728799820 12.250000954 34.365486145 0.0339000002 0.3768000007 2.1968998909 3.5861001015 95.112701416 140.45640564  -999.250000 1.4003000259 1.3360999823
 1147.1147461 5.0000000000 12.724599838 12.250000954 35.060367584 0.0662000030 0.3939862251 2.2386665344 3.8136177063 99.519767761 140.56871033  -999.250000 1.2846000195 1.2594614029
 1147.2672119 5.0000000000 12.719400406 12.250000954 37.380249023 0.0669000000 0.3892000020 2.2400000095 3.8429999352 104.63710022 142.80960083  -999.250000 1.2512999773 1.2612999678
 1147.4195557 5.0000000000 12.866600037 12.250000954 43.639762878 0.0474999994 0.3866020739 2.1976337433 3.9150424004 105.97842407 146.52001953  -999.250000 1.3334000111 1.3513278961
 1147.5720215 5.0000000000 13.034600258 12.250000954 57.544944763 0.0579000004 0.3910999894 2.1466000080 4.3797998428 102.17610168 148.80740356  -999.250000 1.2743999958 1.2668000460
 1147.7243652 5.0000000000 13.311499596 12.250000954 87.448165894 0.0719999969 0.4200767875 2.1335105896 4.4751238823 96.087081909 148.03453064  -999.250000 1.1402000189 1.0914405584
 1147.8768311 5.0000000000 13.606699944 12.250000954 110.24147034 0.0855000019 0.4338000119 2.1691999435 4.3698000908 91.565002441 146.68859863  -999.250000 1.3206000328 1.3184000254
 1148.0291748 5.0000000000 13.100000381 12.250000954 130.70932007 0.0412000008 0.4414938390 2.1747953892 3.7429022789 89.276329041 146.77671814  -999.250000 1.3459999561 1.2868252993
 1148.1816406 5.0000000000 12.723299980 12.250000954 133.42913818 0.0342000015 0.4555999935 2.1953001022 3.6974999905 89.839103699 147.61349487  -999.250000 1.2863999605 1.2683999538
 1148.3339844 5.0000000000 12.793899536 12.250000954 133.85630798 0.0467000008 0.4648925364 2.2116868496 3.8989386559 90.229484558 148.76856995  -999.250000 1.2513999939 1.2508140802
 1148.4864502 5.0000000000 12.921400070 12.250000954 133.54101563 0.0535999984 0.4683000147 2.2100000381 3.9568998814 86.479698181 149.91409302  -999.250000 1.2697999477 1.2414000034
 1148.6387939 5.0000000000 12.927300453 12.250000954 132.39468384 0.0493000001 0.4351265728 2.2013068199 3.8570799828 81.494194031 150.47444153  -999.250000 1.2877000570 1.2597851753
 1148.7911377 5.0000000000 12.906100273 12.250000954 43.874343872 0.0450999998 0.4385972023 2.1959042549 3.7152137756 80.251792908 150.26246643  -999.250000 1.3033000231 1.2750877142
 1148.9436035 5.0000000000 12.949798584 12.250000954 43.161415100 0.0346999988 0.4415975809 2.1798129082 3.6102838516 81.744705200 150.29446411  -999.250000 1.3044999838 1.2846924067
 1149.0959473 5.0000000000 13.065500259 12.250000954 43.498687744 0.0370000005 0.4665799737 2.1802995205 3.6728496552 81.415870667 150.07388306  -999.250000 1.3513000011 1.3224697113
 1149.2484131 5.0000000000 13.010600090 12.250000954 43.946853638 0.0366000012 0.4690000117 2.1772999763 3.6164999008 81.344596863 149.78720093  -999.250000 1.3361999989 1.3050999641
 1149.4007568 5.0000000000 12.913000107 12.250000954 43.852687836 0.0491000041 0.4124453366 2.1998817921 3.7205164433 84.619773865 149.40060425  -999.250000 1.3579000235 1.3305796385
 1149.5532227 6.0000000000 12.843899727 12.250000954 42.344158173 0.0516999997 0.3729999959 2.2232000828 3.7339999676 89.157302856 148.47479248  -999.250000 1.3463000059 1.3264000416
 1149.7055664 6.0000000000 12.776101112 12.250000954 40.503936768 0.0557999983 0.3724004626 2.2426846027 3.7849593163 91.034393311 147.95130920  -999.250000 1.3473000526 1.3244014978
 1149.8580322 6.0000000000 12.736100197 12.250000954 39.122375488 0.0608999990 0.3813000023 2.2590999603 3.8480000496 89.560699463 147.82470703  -999.250000 1.3408000469 1.3216999769
 1150.0103760 6.0000000000 12.832199097 12.250000954 37.374671936 0.0524000004 0.4208999872 2.2418999672 3.7409000397 90.134140015 146.61387634  -999.250000 1.3523999453 1.3257966042
 1150.1628418 6.0000000000 12.792400360 12.250000954 35.493766785 0.0373999998 0.3991000056 2.2330000401 3.5829999447 92.735496521 146.54829407  -999.250000 1.3445999622 1.3280999660
 1150.3151855 6.0000000000 12.755700111 12.250000954 42.338584900 0.0309999995 0.4198000133 2.2277998924 3.4623999596 94.113693237 146.66131592  -999.250000 1.3581000566 1.3094149828
