# LAS format log file from PETREL
# Project units are specified as depth units
#==================================================================
~Version information
VERS.   2.0:
WRAP.   NO:
#==================================================================
~Well
STRT .m      1110.2340088 :
STOP .m      3322.9296875 :
STEP .m     0.00000000 :
NULL .        -999.250000 :
COMP.           : COMPANY
WELL.  35/9-9   : WELL
FLD.            : FIELD
LOC.            : LOCATION
SRVC.           : SERVICE COMPANY
DATE.  2018-09-11 14:49:02   : Log Export Date {yyyy-MM-dd HH:mm:ss}
PROV.           : PROVINCE
UWI.   35/9-9   : UNIQUE WELL ID
API.            : API NUMBER
#==================================================================
~Curve
DEPT .m                   : DEPTH
Lithology_geolink ._      : Lithology_geolink
CALI .in                  : CALI
BS .in                    : BS
ROP .m/h                  : ROP
DRHO .g/cm3               : DRHO
NPHI .m3/m3               : NPHI
RHOB .g/cm3               : RHOB
PEF .b/e                  : PEF
GR .gAPI                  : GR
DTC .us/ft                : DTC
DTS .us/ft                : DTS
RDEP .ohm.m               : RDEP
RMED .ohm.m               : RMED
~Parameter
#==================================================================
~Ascii
# ...
 3028.0356445 7.0000000000 8.5181999207 8.5000000000 65.789375305 0.0657000020 0.3831999898 2.5639998913 4.4390997887 111.02850342 91.613296509  -999.250000 8.0341644287 8.4504003525
 3028.1879883 7.0000000000 8.5249004364 8.5000000000 64.539039612 0.0702000037 0.3578999937 2.5590999126 4.4109001160 112.34369659 91.370002747  -999.250000 9.0741310120 10.180500031
 3028.3405762 7.0000000000 8.5305995941 8.5000000000 67.344161987 0.0729999989 0.3242000043 2.5527000427 4.3607001305 111.17099762 90.906501770  -999.250000 11.084878922 11.256199837
 3028.4929199 7.0000000000 8.5340995789 8.5000000000 65.147308350 0.0728000030 0.3614000082 2.5589001179 4.3850002289 107.58470154 90.391098022  -999.250000 10.423283577 10.988499641
 3028.6452637 7.0000000000 8.5156002045 8.5000000000 66.237861633 0.0680999979 0.3346000016 2.5618000031 4.4670000076 107.86049652 90.063003540  -999.250000 9.8540277481 10.160599709
 3028.7976074 7.0000000000 8.5262002945 8.5000000000 62.620735168 0.0582999997 0.3334999979 2.5546000004 4.5053000450 107.74749756 89.733901978  -999.250000 10.932250977 11.477999687
 3028.9501953 7.0000000000 8.5340995789 8.5000000000 59.474731445 0.0533999987 0.3242999911 2.5583999157 4.4327001572 109.81179810 89.346397400  -999.250000 11.894845009 12.431799889
 3029.1025391 7.0000000000 8.5340995789 8.5000000000 67.604988098 0.0480999984 0.3450999856 2.5513000488 4.4218001366 111.52519989 89.069099426  -999.250000 10.757040977 12.005000114
 3029.2548828 7.0000000000 8.5340995789 8.5000000000 64.758529663 0.0467999987 0.3192999959 2.5613000393 4.3670997620 111.57730103 88.596900940  -999.250000 11.219199181 11.136699677
 3029.4072266 7.0000000000 8.5340995789 8.5000000000 63.209968567 0.0491999984 0.3036000133 2.5622000694 4.4052000046 109.72129822 87.969909668  -999.250000 11.467888832 12.064399719
 3029.5598145 7.0000000000 8.5340995789 8.5000000000 67.339897156 0.0533000007 0.3152999878 2.5817000866 4.2785000801 104.53230286 87.600097656  -999.250000 11.147424698 11.664500237
 3029.7121582 7.0000000000 8.5340995789 8.5000000000 62.764114380 0.0500000007 0.3240000010 2.5780999660 4.3020000458 104.43859863 87.557701111  -999.250000 10.532346725 11.926500320
 3029.8645020 7.0000000000 8.5347995758 8.5000000000 64.731956482 0.0507999994 0.3093999922 2.5847001076 4.2888998985 105.99479675 88.048599243  -999.250000 10.624780655 11.852800369
 3030.0168457 7.0000000000 8.5346002579 8.5000000000 64.171264648 0.0445000008 0.3722000122 2.5704998970 4.2831997871 109.26989746 88.921203613  -999.250000 11.046766281 12.516300201
 3030.1691895 7.0000000000 8.5340995789 8.5000000000 63.480316162 0.0423000008 0.3104000092 2.5641999245 4.2108001709 109.84690094 89.635704041  -999.250000 9.5952844620 10.718400002
 3030.3217773 7.0000000000 8.5335998535 8.5000000000 65.510169983 0.0307999998 0.3549000025 2.5497999191 4.1728000641 107.67279816 89.912796021  -999.250000 11.077246666 13.270400047
 3030.4741211 7.0000000000 8.5340995789 8.5000000000 69.033134460 0.0291000009 0.3416000009 2.5573999882 4.1547999382 108.81220245 89.487190247  -999.250000 9.9380149841 10.303400040
 3030.6264648 7.0000000000 8.5340995789 8.5000000000 63.448162079 0.0258000009 0.2953999937 2.5587999821 4.1324000359 110.01619720 88.546401978  -999.250000 9.1989412308 10.018199921
 3030.7788086 7.0000000000 8.5314998627 8.5000000000 63.597114563 0.0329000019 0.3601000011 2.5664999485 4.0659999847 112.37020111 87.930099487  -999.250000 8.7268695831 9.4033002853
 3030.9313965 7.0000000000 8.5305995941 8.5000000000 66.085296631 0.0303000007 0.3537000120 2.5525000095 4.0229001045 112.78099823 87.785003662  -999.250000 9.2077674866 9.9497003555
 3031.0837402 7.0000000000 8.5314998627 8.5000000000 65.643043518 0.0417000018 0.3402999938 2.5701999664 3.9862000942 111.90090179 87.962501526  -999.250000 9.6644344330 10.714699745
 3031.2360840 7.0000000000 8.5312004089 8.5000000000 68.303474426 0.0428000018 0.3346000016 2.5906999111 4.1092000008 107.34079742 88.416900635  -999.250000 9.2477350235 9.9963998795
 3031.3884277 7.0000000000 8.5328998566 8.5000000000 63.362861633 0.0364999995 0.3088000119 2.6150000095 4.4338002205 104.52040100 88.528503418  -999.250000 7.8992938995 8.7587995529
 3031.5410156 7.0000000000 8.5340995789 8.5000000000 62.502624512 0.0351999998 0.3359000087 2.6342999935 4.5662999153 101.74890137 88.064903259 151.37829590 8.2111806870 8.7761001587
 3031.6933594 7.0000000000 8.5005998611 8.5000000000 63.815284729 0.0373000018 0.3327000141 2.6157999039 4.4071998596 106.20169830 87.428596497 151.54420471 9.4488201141 9.6410999298
 3031.8457031 7.0000000000 8.5275001526 8.5000000000 64.022308350 0.0403999984 0.3152999878 2.5940999985 4.1273999214 109.25530243 86.823997498 152.29310608 8.0289888382 8.5235004425
 3031.9980469 7.0000000000 8.5195999146 8.5000000000 61.485572815 0.0337000005 0.3084000051 2.5683000088 4.0485000610 114.71369934 86.308998108 154.15100098 8.6453304291 9.0179996490
 3032.1503906 7.0000000000 8.5205001831 8.5000000000 60.608268738 0.0222999994 0.3339000046 2.5638000965 4.0313000679 116.51190186 86.162597656 157.72700500 8.6032285690 9.1361999512
 3032.3029785 7.0000000000 8.5288000107 8.5000000000 62.639438629 0.0237000007 0.3524999917 2.5675001144 4.0050997734 116.03849792 86.590705872 162.65440369 9.4980869293 9.6464004517
 3032.4553223 7.0000000000 8.5255002975 8.5000000000 59.407810211 0.0241999999 0.3310000002 2.5645000935 3.9788999557 114.12979889 87.611701965 166.13020325 11.799256325 12.302700043
 3032.6076660 7.0000000000 8.5235004425 8.5000000000 60.989833832 0.0370000005 0.3393999934 2.5745999813 4.0494999886 112.11039734 88.866088867 166.09579468 14.446311951 14.229599953
 3032.7600098 7.0000000000 8.5288000107 8.5000000000 62.468502045 0.0322999991 0.3181000054 2.5697999001 4.1343998909 112.02590179 89.496101379 162.78399658 11.580290794 15.008299828
 3032.9125977 7.0000000000 8.5246000290 8.5000000000 62.164371490 0.0291000009 0.3512000144 2.5687003136 4.1465997696 112.99870300 88.867599487 157.85040283 6.9678988457 7.4081997871
 3033.0649414 7.0000000000 8.5310001373 8.5000000000 65.364173889 0.0161000006 0.3156000078 2.5578000546 4.0693998337 114.37129974 87.149299622 153.98260498 8.0280237198 8.7349004745
 3033.2172852 7.0000000000 8.5303001404 8.5000000000 61.318897247 0.0148999998 0.3255000114 2.5625998974 3.9423999786 116.71489716 84.669197083 150.36882019 8.8546714783 9.3600997925
 3033.3696289 7.0000000000 8.5340995789 8.5000000000 64.600395203 0.0120999999 0.3057000041 2.5638999939 3.9793999195 119.92469788 81.500808716 145.11109924 10.207097054 10.311800003
 3033.5222168 7.0000000000 8.5340995789 8.5000000000 65.296585083 0.0176999997 0.2761999965 2.5889000893 4.0514001846 126.90920258 78.010894775 138.53129578 9.8292446136 9.6021003723
 3033.6745605 7.0000000000 8.5340995789 8.5000000000 66.502952576 0.0474000014 0.2401999980 2.6735000610 4.2203001976 132.51109314 75.035293579 131.25039673 9.0592584610 8.1138000488
 3033.8269043 7.0000000000 8.5340995789 8.5000000000 65.757225037 0.0549999997 0.2281000018 2.7620999813 4.9738998413 130.62269592 72.813003540 124.94819641 5.9253082275 6.9974999428
 3033.9792480 7.0000000000 8.5446996689 8.5000000000 66.456359863 0.0640000030 0.2118999958 2.8303000927 6.0130000114 120.79260254 71.013000488 120.72940826 10.110065460 16.234699249
 3034.1318359 6.0000000000 8.5340995789 8.5000000000 66.289695740 0.0511000007 0.2034000009 2.8076999187 6.3569998741 107.01519775 69.825897217 118.24530029 13.639514923 13.918399811
 3034.2841797 6.0000000000 8.5343999863 8.5000000000 66.920600891 0.0496999994 0.1988999993 2.7479999065 5.9324998856 98.437896729 69.331497192 117.56639862 13.631394386 12.521699905
 3034.4365234 6.0000000000 8.5389003754 8.5000000000 65.087593079 0.0599999987 0.1903000027 2.7276000977 5.3221001625 90.709999084 69.498703003 118.87889862 25.006517410 17.408399582
 3034.5888672 6.0000000000 8.5615997314 8.5000000000 62.013450623 0.0445999987 0.2085999995 2.6928999424 5.5012001991 91.444099426 70.362197876 121.05300140 11.184312820 12.395500183
