# LAS format log file from PETREL
# Project units are specified as depth units
#==================================================================
~Version information
VERS.   2.0:
WRAP.   NO:
#==================================================================
~Well
STRT .m      1110.2340088 :
STOP .m      3322.9296875 :
STEP .m     0.00000000 :
NULL .        -999.250000 :
COMP.           : COMPANY
WELL.  35/9-9   : WELL
FLD.            : FIELD
LOC.            : LOCATION
SRVC.           : SERVICE COMPANY
DATE.  2018-09-11 14:49:02   : Log Export Date {yyyy-MM-dd HH:mm:ss}
PROV.           : PROVINCE
UWI.   35/9-9   : UNIQUE WELL ID
API.            : API NUMBER
#==================================================================
~Curve
DEPT .m                   : DEPTH
Lithology_geolink ._      : Lithology_geolink
CALI .in                  : CALI
BS .in                    : BS
ROP .m/h                  : ROP
DRHO .g/cm3               : DRHO
NPHI .m3/m3               : NPHI
RHOB .g/cm3               : RHOB
PEF .b/e                  : PEF
GR .gAPI                  : GR
DTC .us/ft                : DTC
DTS .us/ft                : DTS
RDEP .ohm.m               : RDEP
RMED .ohm.m               : RMED
~Parameter
#==================================================================
~Ascii
# ...
 2598.8774414 7.0000000000 8.5594997406 8.5000000000 58.099739075 0.0593772791 0.3122999966 2.5782999992 4.1395998001 114.13710022 92.474502563  -999.250000 3.5453884602 3.5167999268
 2599.0297852 7.0000000000 8.5391998291 8.5000000000 58.836284637 0.0522982366 0.2876999974 2.5836000443 4.0215997696 111.61019897 92.086311340  -999.250000 3.2930214405 3.3485000134
 2599.1821289 7.0000000000 8.5490999222 8.5000000000 60.636486053 0.0512184277 0.2725999951 2.5676000118 3.9911000729 111.64880371 90.773101807  -999.250000 3.5549755096 3.8197000027
 2599.3344727 7.0000000000 8.5466003418 8.5000000000 62.548557281 0.0627153888 0.2809000015 2.5727000237 4.0732002258 108.26409912 88.472900391  -999.250000 3.1784031391 13.412099838
 2599.4870605 7.0000000000 8.5274000168 8.5000000000 63.585628510 0.0723307207 0.2964999974 2.5869998932 4.3947000504 105.21099854 88.348892212  -999.250000 10.947456360 8.0649995804
 2599.6394043 7.0000000000 8.5332002640 8.5000000000 63.679134369 0.0819104165 0.2797000110 2.5996000767 4.3203001022 105.00689697 88.119400024  -999.250000 4.5793776512 5.2459998131
 2599.7917480 7.0000000000 8.5419998169 8.5000000000 64.344490051 0.0884161815 0.2888999879 2.5834000111 4.3056998253 108.46610260 87.124099731  -999.250000 4.6918802261 5.0756998062
 2599.9440918 7.0000000000 8.5332002640 8.5000000000 64.907478333 0.0985174701 0.2935999930 2.5604999065 4.1069002151 109.14510345 87.537597656  -999.250000 5.8058228493 5.9119000435
 2600.0964355 7.0000000000 8.5385999680 8.5000000000 62.976375580 0.1093812436 0.3118000031 2.5513000488 4.2425999641 108.65730286 87.330902100  -999.250000 8.8729152679 7.7112002373
 2600.2490234 7.0000000000 8.5370998383 8.5000000000 62.235237122 0.0976577625 0.3025000095 2.5369999409 4.3517999649 110.11979675 90.101097107  -999.250000 8.9947547913 9.4252004623
 2600.4013672 7.0000000000 8.5215997696 8.5000000000 63.989837646 0.0844307691 0.3079000115 2.5246999264 4.3282999992 117.94930267 92.521499634  -999.250000 5.1806364059 5.7300000191
 2600.5537109 7.0000000000 8.5462999344 8.5000000000 65.244750977 0.0412959941 0.3136999905 2.4816999435 4.1050000191 123.99649811 94.289398193  -999.250000 5.3279242516 6.2031998634
 2600.7060547 7.0000000000 8.5430002213 8.5000000000 64.284774780 0.0387644283 0.3601999879 2.4916000366 3.9683001041 129.23950195 97.320991516  -999.250000 5.2176823616 5.7943000793
 2600.8586426 7.0000000000 8.5552997589 8.5000000000 63.408466339 0.0166780800 0.3738000095 2.4748001099 3.9509999752 134.26980591 99.130096436  -999.250000 4.8937697411 5.2189998627
 2601.0109863 7.0000000000 8.5537004471 8.5000000000 59.952426910 0.0410067327 0.3427000046 2.5074000359 4.0890998840 139.76770020 99.705001831  -999.250000 4.5108547211 4.8074998856
 2601.1633301 7.0000000000 8.5630998611 8.5000000000 59.969493866 0.0452264436 0.3555000126 2.5007216930 4.1681504250 137.08850098 99.338699341  -999.250000 4.6714749336 5.0357999802
 2601.3156738 7.0000000000 8.5895004272 8.5000000000 60.425529480 0.0617033653 0.3420999944 2.5141923428 4.1997308731 130.26150513 98.405296326  -999.250000 5.9671015739 4.8772997856
 2601.4682617 7.0000000000 8.5700998306 8.5000000000 60.943569183 0.0637663975 0.3336000144 2.5093739033 4.2811083794 127.14810181 98.394302368  -999.250000 7.9513463974 6.9643998146
 2601.6206055 7.0000000000 8.5459003448 8.5000000000 61.701770782 0.0532971174 0.3680999875 2.5013120174 4.3148727417 132.79409790 97.920097351  -999.250000 4.7254033089 5.0935997963
 2601.7729492 7.0000000000 8.5459995270 8.5000000000 50.584972382 0.0514987186 0.3459999859 2.5088179111 4.2979025841 135.06990051 96.517997742  -999.250000 4.2284746170 4.4366002083
 2601.9252930 7.0000000000 8.5221996307 8.5000000000 52.204071045 0.0507242009 0.3054000139 2.5199551582 4.2995100021 123.18920135 92.251800537  -999.250000 3.9075181484 4.0781998634
 2602.0776367 7.0000000000 8.5272998810 8.5000000000 52.063320160 0.0658224374 0.2791999876 2.5542333126 4.3682579994 102.96669769 87.702003479 134.84469604 7.9227576256 5.5928997993
 2602.2302246 7.0000000000 8.5522003174 8.5000000000 51.652561188 0.0798387229 0.2700000107 2.5750477314 4.4665064812 84.655403137 80.181701660 132.01049805 18.366783142 16.663900375
 2602.3825684 5.0000000000 8.5583000183 8.5000000000 49.307743073 0.0918939114 0.2761999965 2.5898840427 4.4685196877 78.658699036 76.164398193 131.56260681 19.635471344 20.601400375
 2602.5349121 5.0000000000 8.5628004074 8.5000000000 52.839897156 0.0880851001 0.2651999891 2.5799865723 4.4183745384 77.360298157 75.285209656 131.14419556 17.500259399 17.932199478
 2602.6872559 5.0000000000 8.5678997040 8.5000000000 52.049213409 0.0787660256 0.2469000071 2.5716888905 4.3399152756 79.579803467 74.452499390 129.48210144 18.099037170 19.962900162
 2602.8398438 5.0000000000 8.5764999390 8.5000000000 52.027557373 0.0575824007 0.2231999934 2.5647239685 4.2246747017 79.069198608 75.550201416 129.20669556 18.807704926 18.093999863
 2602.9921875 5.0000000000 8.5777997971 8.5000000000 51.896984100 0.0521237180 0.2334000021 2.5722241402 4.1547603607 79.800903320 75.876502991 129.37370300 18.809104919 15.728799820
 2603.1445313 5.0000000000 8.5857000351 8.5000000000 52.740486145 0.0669150651 0.2305999994 2.5872874260 4.2547774315 80.342796326 75.945388794 129.70660400 18.745094299 15.649000168
 2603.2968750 5.0000000000 8.5851001740 8.5000000000 64.862205505 0.0762991980 0.2428999990 2.5793747902 4.3654179573 82.395896912 77.402801514 131.23699951 15.813094139 14.720800400
 2603.4494629 6.0000000000 8.5822000504 8.5000000000 62.894359589 0.0757740811 0.2395000011 2.5636689663 4.4387383461 84.584396362 77.358497620 136.75860596 15.434298515 15.372799873
 2603.6018066 6.0000000000 8.5808000565 8.5000000000 62.769027710 0.0676838160 0.2375999987 2.5539937019 4.4194569588 86.822097778 77.306610107 138.47770691 14.903859138 14.264499664
 2603.7541504 6.0000000000 8.5777997971 8.5000000000 62.303806305 0.0576193891 0.2563999891 2.5501267910 4.3303971291 87.457901001 77.821899414 140.16130066 14.691337585 13.667300224
 2603.9064941 6.0000000000 8.5771999359 8.5000000000 65.263122559 0.0696865395 0.2680000067 2.5667743683 4.3285541534 89.218696594 78.272697449 139.28680420 14.339547157 13.107999802
 2604.0588379 6.0000000000 8.5662002563 8.5000000000 62.383529663 0.0613322109 0.2750000060 2.5507137775 4.2378926277 88.726699829 79.134902954 138.56210327 13.745665550 12.786600113
 2604.2114258 6.0000000000 8.5635995865 8.5000000000 65.011154175 0.0814060792 0.2750999928 2.5592803955 4.3580880165 88.650001526 78.547401428 139.55079651 13.603415489 12.920900345
 2604.3637695 6.0000000000 8.5700998306 8.5000000000 64.943901062 0.0833056122 0.2590999901 2.5532026291 4.3856110573 87.157699585 78.176002502 140.39259338 14.790946960 13.462900162
 2604.5161133 6.0000000000 8.5761995316 8.5000000000 66.563323975 0.0867742002 0.2474000007 2.5548822880 4.4545621872 87.614501953 78.759902954 139.16149902 14.197646141 12.844599724
 2604.6684570 6.0000000000 8.5635995865 8.5000000000 65.667648315 0.0706591308 0.2465000004 2.5438771248 4.3685131073 87.458503723 78.576103210 139.59779358 14.408945084 15.071599960
 2604.8210449 6.0000000000 8.5629997253 8.5000000000 66.160758972 0.0452192016 0.2536000013 2.5296466351 4.2520790100 86.849403381 78.084396362 139.69479370 11.581097603 11.269399643
 2604.9733887 6.0000000000 8.5631999969 8.5000000000 68.597114563 0.0512256399 0.2612000108 2.5442290306 4.2457323074 86.855201721 77.728103638 138.73899841 14.694047928 14.035300255
 2605.1257324 6.0000000000 8.5708999634 8.5000000000 68.251312256 0.0672113746 0.2799000144 2.5622949600 4.3281216621 89.412902832 77.456001282 140.84509277 13.975570679 12.693400383
 2605.2780762 6.0000000000 8.5734996796 8.5000000000 69.745079041 0.0742929503 0.2538000047 2.5591900349 4.4037036896 90.774803162 76.829093933 140.16960144 13.647020340 12.969099998
 2605.4306641 6.0000000000 8.5651998520 8.5000000000 69.709320068 0.0699006394 0.2495999932 2.5529129505 4.3437285423 90.626197815 76.748901367 139.46069336 14.221542358 12.303099632
