# LAS format log file from PETREL
# Project units are specified as depth units
#==================================================================
~Version information
VERS.   2.0:
WRAP.   NO:
#==================================================================
~Well
STRT .m      1003.2490234 :
STOP .m      2879.9025879 :
STEP .m     0.00000000 :
NULL .        -999.250000 :
COMP.           : COMPANY
WELL.  35/9-2   : WELL
FLD.            : FIELD
LOC.            : LOCATION
SRVC.           : SERVICE COMPANY
DATE.  2018-09-11 14:49:01   : Log Export Date {yyyy-MM-dd HH:mm:ss}
PROV.           : PROVINCE
UWI.   35/9-2   : UNIQUE WELL ID
API.            : API NUMBER
#==================================================================
~Curve
DEPT .m                   : DEPTH
Lithology_geolink ._      : Lithology_geolink
DCAL .in                  : DCAL
CALI .in                  : CALI
BS .in                    : BS
DRHO .g/cm3               : DRHO
SGR .gAPI                 : SGR
NPHI .m3/m3               : NPHI
RHOB .g/cm3               : RHOB
GR .gAPI                  : GR
DTC .us/ft                : DTC
DTS .us/ft                : DTS
RDEP .ohm.m               : RDEP
SP .mV                    : SP
RSHA .ohm.m               : RSHA
RMIC .ohm.m               : RMIC
RMED .ohm.m               : RMED
~Parameter
#==================================================================
~Ascii
# ...
 1251.3562012 4.0000000000 1.0080000162 13.258000374 12.250000954 -0.009833300  -999.250000  -999.250000 2.2318379879 60.219379425  -999.250000  -999.250000 1.7210429907 164.64900208  -999.250000  -999.250000 2.1477460861
 1251.5086670 4.0000000000 1.0080000162 13.258000374 12.250000954 -0.011190700  -999.250000  -999.250000 2.2278439999 60.875251770  -999.250000  -999.250000 1.6812560558 164.25929260  -999.250000  -999.250000 2.1478130817
 1251.6610107 5.0000000000 0.9980010986 13.248000145 12.250000954 -0.010637320  -999.250000  -999.250000 2.2274749279 64.377563477  -999.250000  -999.250000 1.6373239756 163.76570129  -999.250000  -999.250000 2.1159389019
 1251.8134766 5.0000000000 0.9804517031 13.230451584 12.250000954 -0.008921207  -999.250000  -999.250000 2.2319970131 70.195198059  -999.250000  -999.250000 1.5964399576 163.17610168  -999.250000  -999.250000 2.0349690914
 1251.9658203 5.0000000000 0.9869431853 13.236940384 12.250000954 -0.006862691  -999.250000  -999.250000 2.2390151024 79.683448792  -999.250000  -999.250000 1.5421760082 162.64799500  -999.250000  -999.250000 1.9431560040
 1252.1182861 5.0000000000 1.0719579458 13.321962357 12.250000954 -0.002003818  -999.250000  -999.250000 2.2486290932 76.250183105  -999.250000  -999.250000 1.4746370316 162.25219727  -999.250000  -999.250000 1.8873790503
 1252.2706299 5.0000000000 1.2022500038 13.452249527 12.250000954 0.0012642530  -999.250000  -999.250000 2.2530329227 80.623916626  -999.250000  -999.250000 1.4113179445 161.86990356  -999.250000  -999.250000 1.8567819595
 1252.4229736 5.0000000000 1.2758100033 13.525810242 12.250000954 0.0003919601  -999.250000  -999.250000 2.2495930195 77.189903259  -999.250000  -999.250000 1.3577909470 161.50219727  -999.250000  -999.250000 1.8030899763
 1252.5754395 5.0000000000 1.2565029860 13.506499290 12.250000954 0.0000589000  -999.250000  -999.250000 2.2461481094 80.681846619  -999.250000  -999.250000 1.3213490248 161.22410583  -999.250000  -999.250000 1.7268919945
 1252.7277832 5.0000000000 1.1547880173 13.404789925 12.250000954 -0.000475667  -999.250000  -999.250000 2.2438631058 75.313461304  -999.250000  -999.250000 1.3075460196 161.07820129  -999.250000  -999.250000 1.6645740271
 1252.8802490 5.0000000000 1.0530270338 13.303030014 12.250000954 -0.002911193  -999.250000  -999.250000 2.2435879707 74.250572205  -999.250000  -999.250000 1.3104579449 161.15409851  -999.250000  -999.250000 1.6223950386
 1253.0325928 5.0000000000 1.0228849649 13.272890091 12.250000954 -0.004244959  -999.250000  -999.250000 2.2529950142 77.253318787  -999.250000  -999.250000 1.3182489872 161.27180481  -999.250000  -999.250000 1.5971950293
 1253.1850586 5.0000000000 1.0708919764 13.320890427 12.250000954 -0.004112886  -999.250000  -999.250000 2.2752389908 83.183273315  -999.250000  -999.250000 1.3210719824 161.40409851  -999.250000  -999.250000 1.6275739670
 1253.3374023 5.0000000000 1.1377420425 13.387740135 12.250000954 -0.004000000  -999.250000  -999.250000 2.2978649139 78.626388550  -999.250000  -999.250000 1.3157429695 161.62600708  -999.250000  -999.250000 1.7772899866
 1253.4898682 5.0000000000 1.1026190519 13.352619171 12.250000954 -0.006082595  -999.250000  -999.250000 2.2995591164 73.249542236  -999.250000  -999.250000 1.3001769781 161.66760254  -999.250000  -999.250000 1.9817990065
 1253.6422119 16.000000000 1.0365190506 13.286519051 12.250000954 -0.008852401  -999.250000  -999.250000 2.2772049904 66.127250671  -999.250000  -999.250000 1.2860150337 161.36990356  -999.250000  -999.250000 1.9788049459
 1253.7946777 16.000000000 1.0743130445 13.324309349 12.250000954 -0.010304140  -999.250000  -999.250000 2.2454929352 71.311447144  -999.250000  -999.250000 1.2868549824 161.31480408  -999.250000  -999.250000 1.7716180086
 1253.9470215 5.0000000000 1.0788990259 13.328899384 12.250000954 -0.011303910  -999.250000  -999.250000 2.2207748890 70.003067017  -999.250000  -999.250000 1.2979220152 161.59779358  -999.250000  -999.250000 1.5810159445
 1254.0994873 5.0000000000 1.0275429487 13.277540207 12.250000954 -0.009803381  -999.250000  -999.250000 2.2018249035 72.624839783  -999.250000  -999.250000 1.3042780161 161.66760254  -999.250000  -999.250000 1.5007870197
 1254.2518311 5.0000000000 1.0380690098 13.288069725 12.250000954 -0.005064101  -999.250000  -999.250000 2.1887021065 68.564270020  -999.250000  -999.250000 1.2925950289 161.36990356  -999.250000  -999.250000 1.5050460100
 1254.4041748 5.0000000000 1.1484580040 13.398460388 12.250000954 0.0004073264  -999.250000  -999.250000 2.1790330410 74.313560486  -999.250000  -999.250000 1.2656589746 160.89799500  -999.250000  -999.250000 1.5520609617
 1254.5566406 5.0000000000 1.2477029562 13.497699738 12.250000954 0.0076020318  -999.250000  -999.250000 2.1803829670 75.878402710  -999.250000  -999.250000 1.2417010069 160.71060181  -999.250000  -999.250000 1.5922479630
 1254.7089844 5.0000000000 1.2463740110 13.496370316 12.250000954 0.0187063403  -999.250000  -999.250000 2.1924409866 79.124389648  -999.250000  -999.250000 1.2269690037 160.77180481  -999.250000  -999.250000 1.6227829456
 1254.8614502 5.0000000000 1.1917519569 13.441749573 12.250000954 0.0314189605  -999.250000  -999.250000 2.1947600842 73.938049316  -999.250000  -999.250000 1.2239819765 160.90409851  -999.250000  -999.250000 1.6641139984
 1255.0137939 5.0000000000 1.1846899986 13.434691429 12.250000954 0.0373964906  -999.250000  -999.250000 2.1795198917 76.936950684  -999.250000  -999.250000 1.2410240173 161.12600708  -999.250000  -999.250000 1.6682939529
 1255.1662598 5.0000000000 1.7608300447 14.010829926 12.250000954 0.0294242203  -999.250000  -999.250000 2.1496899128 75.942092896  -999.250000  -999.250000 1.2643229961 161.16760254  -999.250000  -999.250000 1.6225810051
 1255.3186035 6.0000000000 2.7417259216 14.991730690 12.250000954 0.0172270499  -999.250000  -999.250000 2.1388161182 80.935943604  -999.250000  -999.250000 1.2736330032 161.07820129  -999.250000  -999.250000 1.5803190470
 1255.4710693 6.0000000000 2.4675810337 14.717579842 12.250000954 0.0105408803  -999.250000  -999.250000 2.1611719131 78.250343323  -999.250000  -999.250000 1.2730339766 161.05000305  -999.250000  -999.250000 1.5836340189
 1255.6234131 6.0000000000 1.5420398712 13.792039871 12.250000954 0.0033392599  -999.250000  -999.250000 2.1926019192 84.249656677  -999.250000  -999.250000 1.2696089745 160.84170532  -999.250000  -999.250000 1.6177109480
 1255.7758789 6.0000000000 1.2034629583 13.453457832 12.250000954 -0.004315056  -999.250000  -999.250000 2.2148470879 83.436408997  -999.250000  -999.250000 1.2549220324 160.60629272  -999.250000  -999.250000 1.6519000530
 1255.9282227 6.0000000000 1.2025409937 13.452540398 12.250000954 -0.007548870  -999.250000  -999.250000 2.2232298851 82.056762695  -999.250000  -999.250000 1.2381980419 160.44580078  -999.250000  -999.250000 1.6659549475
 1256.0806885 5.0000000000 1.1231919527 13.373189926 12.250000954 -0.009250334  -999.250000  -999.250000 2.2236959934 77.125343323  -999.250000  -999.250000 1.2384350300 160.32820129  -999.250000  -999.250000 1.6629250050
 1256.2330322 5.0000000000 0.9548682570 13.204872131 12.250000954 -0.011494870  -999.250000  -999.250000 2.2210299969 75.001266479  -999.250000  -999.250000 1.2447689772 160.40420532  -999.250000  -999.250000 1.6520370245
 1256.3853760 5.0000000000 0.8714017868 13.121400833 12.250000954 -0.011524290  -999.250000  -999.250000 2.2189800739 79.248199463  -999.250000  -999.250000 1.2465289831 160.31340027  -999.250000  -999.250000 1.6338039637
 1256.5378418 5.0000000000 0.8785810471 13.128580093 12.250000954 -0.009088665  -999.250000  -999.250000 2.2197198868 76.562889099  -999.250000  -999.250000 1.2456359863 160.10639954  -999.250000  -999.250000 1.6147719622
 1256.6901855 5.0000000000 0.9465379715 13.196539879 12.250000954 -0.007338298  -999.250000  -999.250000 2.2207739353 76.937423706  -999.250000  -999.250000 1.2338559628 160.15420532  -999.250000  -999.250000 1.5938980579
 1256.8426514 5.0000000000 1.0294120312 13.279410362 12.250000954 -0.005750258  -999.250000  -999.250000 2.2209999561 71.500450134  -999.250000  -999.250000 1.2125619650 160.37590027  -999.250000  -999.250000 1.5761510134
