# LAS format log file from PETREL
# Project units are specified as depth units
#==================================================================
~Version information
VERS.   2.0:
WRAP.   NO:
#==================================================================
~Well
STRT .m      1110.2340088 :
STOP .m      3322.9296875 :
STEP .m     0.00000000 :
NULL .        -999.250000 :
COMP.           : COMPANY
WELL.  35/9-9   : WELL
FLD.            : FIELD
LOC.            : LOCATION
SRVC.           : SERVICE COMPANY
DATE.  2018-09-11 14:49:02   : Log Export Date {yyyy-MM-dd HH:mm:ss}
PROV.           : PROVINCE
UWI.   35/9-9   : UNIQUE WELL ID
API.            : API NUMBER
#==================================================================
~Curve
DEPT .m                   : DEPTH
Lithology_geolink ._      : Lithology_geolink
CALI .in                  : CALI
BS .in                    : BS
ROP .m/h                  : ROP
DRHO .g/cm3               : DRHO
NPHI .m3/m3               : NPHI
RHOB .g/cm3               : RHOB
PEF .b/e                  : PEF
GR .gAPI                  : GR
DTC .us/ft                : DTC
DTS .us/ft                : DTS
RDEP .ohm.m               : RDEP
RMED .ohm.m               : RMED
~Parameter
#==================================================================
~Ascii
# ...
 1572.9204102 13.000000000 12.543899536 12.250000954 149.00886536 0.0315999985 0.3515999913 2.3580000401 3.2966001034 107.85279846 126.75360107  -999.250000 1.2874000072 1.2692999840
 1573.0728760 13.000000000 12.568400383 12.250000954 141.73884583 0.0379000008 0.3695999980 2.3775999546 3.3396999836 103.39060211 125.62200928  -999.250000 1.3238999844 1.3107000589
 1573.2252197 13.000000000 12.550800323 12.250000954 152.95506287 0.0436999984 0.3553000093 2.3861000538 3.4477000237 96.774696350 124.38980103  -999.250000 1.3545999527 1.3458000422
 1573.3775635 13.000000000 12.581199646 12.250000954 121.91010284 0.0480999984 0.3598999977 2.4037001133 3.6486999989 92.275299072 122.52709961  -999.250000 1.3645000458 1.3510999680
 1573.5300293 13.000000000 12.524299622 12.250000954 113.03018188 0.0540000014 0.3359000087 2.4233000278 3.7042000294 90.990402222 122.07920074  -999.250000 1.3638999462 1.3632999659
 1573.6823730 13.000000000 12.604700089 12.250000954 103.57709503 0.0555999987 0.3025000095 2.4309000969 3.6972000599 92.695701599 122.66339874  -999.250000 1.3579000235 1.3573999405
 1573.8348389 13.000000000 12.519200325 12.250000954 103.10236359 0.0463999994 0.2994999886 2.4198999405 3.7211000919 92.016700745 122.71630096  -999.250000 1.3704999685 1.3562999964
 1573.9871826 13.000000000 12.465499878 12.250000954 99.970802307 0.0423000008 0.2948000133 2.3956000805 3.7655999660 90.350502014 122.70120239  -999.250000 1.4629000425 1.4356000423
 1574.1396484 13.000000000 12.566399574 12.250000954 97.230972290 0.0474000014 0.3075000048 2.4024000168 3.7664999962 91.085601807 122.07389832  -999.250000 1.4795999527 1.4313000441
 1574.2919922 13.000000000 12.643400192 12.250000954 97.825462341 0.0586999990 0.3109000027 2.4207999706 3.7973999977 92.097702026 121.43530273  -999.250000 1.4351999760 1.4041999578
 1574.4444580 13.000000000 12.668399811 12.250000954 104.12106323 0.0653999969 0.2996000051 2.4509999752 3.8921000957 91.948501587 122.90850067  -999.250000 1.3578000069 1.3414000273
 1574.5968018 13.000000000 12.635700226 12.250000954 105.68208313 0.0649000034 0.3206000030 2.4435999393 3.9786000252 90.765998840 123.63150024  -999.250000 1.3114000559 1.3047000170
 1574.7492676 13.000000000 12.594900131 12.250000954 96.604988098 0.0780000016 0.3075999916 2.4198000431 4.0721998215 88.922897339 123.98139191  -999.250000 1.3028000593 1.2820999622
 1574.9016113 13.000000000 12.640999794 12.250000954 85.949150085 0.0885999948 0.3264000118 2.3880999088 4.2488999367 87.150802612 124.70619965  -999.250000 1.3322999477 1.3057999611
 1575.0540771 13.000000000 12.812499046 12.250000954 94.238845825 0.0847999975 0.3213000000 2.3578000069 4.2698998451 87.179298401 125.26309967  -999.250000 1.3565000296 1.3387000561
 1575.2064209 13.000000000 12.734399796 12.250000954 88.225723267 0.0575000010 0.3203000128 2.3492999077 4.1529998779 91.369697571 125.31800079  -999.250000 1.3408000469 1.3072999716
 1575.3587646 13.000000000 12.579500198 12.250000954 78.172569275 0.0364000015 0.3152999878 2.3585000038 3.8808000088 99.043899536 126.10269928  -999.250000 1.2910000086 1.2797000408
 1575.5112305 13.000000000 12.567500114 12.250000954 74.563980103 0.0368999988 0.3151000142 2.3801999092 3.7479999065 105.19110107 125.82299805  -999.250000 1.3162000179 1.2839000225
 1575.6635742 13.000000000 12.482199669 12.250000954 71.767715454 0.0460000001 0.3307000101 2.3808000088 3.7221000195 104.19319916 125.74018860  -999.250000 1.3222999573 1.2999000549
 1575.8160400 13.000000000 12.672300339 12.250000954 71.112533569 0.0518000014 0.3312999904 2.3729000092 3.6872000694 99.242797852 125.09600067  -999.250000 1.3214999437 1.3186000586
 1575.9683838 13.000000000 12.671899796 12.250000954 67.661087036 0.0498000011 0.3316999972 2.3677999973 3.6314001083 98.433097839 124.70459747  -999.250000 1.3485000134 1.3245999813
 1576.1208496 13.000000000 12.671399117 12.250000954 66.548561096 0.0436999984 0.3262999952 2.3584001064 3.4749999046 99.658302307 124.48410034  -999.250000 1.3389999866 1.3243999481
 1576.2731934 13.000000000 12.586099625 12.250000954 68.127624512 0.0368000008 0.3226000071 2.3466999531 3.4565000534 97.634101868 124.66179657  -999.250000 1.3341000080 1.3134000301
 1576.4256592 13.000000000 12.514499664 12.250000954 84.203742981 0.0454000011 0.3172000051 2.3743000031 3.5074999332 95.361297607 124.49009705  -999.250000 1.3135999441 1.2917000055
 1576.5780029 13.000000000 12.808600426 12.250000954 79.856956482 0.0504000001 0.3215000033 2.3859999180 3.6038999557 94.345596313 124.88050079  -999.250000 1.3008999825 1.2900999784
 1576.7304688 13.000000000 12.723299980 12.250000954 84.753608704 0.0636999980 0.3278000057 2.4231998920 3.5755000114 94.447196960 125.04689789  -999.250000 1.3007999659 1.2860000134
 1576.8828125 13.000000000 12.632299423 12.250000954 99.855644226 0.0449000001 0.3097999990 2.3868000507 3.5506999493 98.128402710 125.71749878  -999.250000 1.3009999990 1.2877000570
 1577.0352783 13.000000000 12.532600403 12.250000954 107.05249786 0.0366000012 0.3113000095 2.3770999908 3.3938999176 98.123596191 125.44909668  -999.250000 1.3121000528 1.2905999422
 1577.1876221 13.000000000 12.462600708 12.250000954 116.95668793 0.0335000008 0.3149999976 2.3592000008 3.4670999050 90.966598511 125.00900269  -999.250000 1.3098000288 1.2906999588
 1577.3400879 13.000000000 12.375300407 12.250000954 115.17816162 0.0370000005 0.3305999935 2.3633999825 3.5552999973 84.765296936 124.57408905  -999.250000 1.3349000216 1.3151999712
 1577.4924316 13.000000000 12.360699654 12.250000954 126.41240692 0.0388000049 0.3416999876 2.3817000389 3.6946001053 82.232398987 123.90780640  -999.250000 1.3884999752 1.3630000353
 1577.6447754 13.000000000 12.361599922 12.250000954 117.85957336 0.0346999988 0.3556999862 2.3975000381 3.7205998898 84.358901978 123.40290070  -999.250000 1.3855999708 1.3681999445
 1577.7972412 13.000000000 12.413500786 12.250000954 116.89009094 0.0326000005 0.3612999916 2.3908998966 3.7000000477 91.719902039 123.86720276  -999.250000 1.3488999605 1.3366999626
 1577.9495850 13.000000000 12.592899323 12.250000954 118.54428864 0.0264999997 0.3705999851 2.3685998917 3.5782001019 97.853599548 124.69529724  -999.250000 1.3208999634 1.3101999760
 1578.1020508 13.000000000 12.673300743 12.250000954 118.73753357 0.0210999995 0.3883000016 2.3578999043 3.3601000309 97.630500793 125.26499939  -999.250000 1.3106000423 1.3134000301
 1578.2543945 13.000000000 12.440999031 12.250000954 118.87532806 0.0241999999 0.3621000051 2.3689999580 3.3814001083 93.557296753 125.30239868  -999.250000 1.3528000116 1.3488999605
 1578.4068604 13.000000000 12.419799805 12.250000954 117.88089752 0.0373000018 0.3476000130 2.4061999321 3.4514000416 91.607597351 125.49510193  -999.250000 1.3308000565 1.3427000046
 1578.5592041 13.000000000 12.403699875 12.250000954 119.42650604 0.0368000008 0.3375999928 2.3980998993 3.4623999596 94.548103333 125.17639923  -999.250000 1.3486000299 1.3237999678
 1578.7116699 13.000000000 12.392000198 12.250000954 109.51280212 0.0318000019 0.3702000082 2.4028999805 3.3680000305 98.990699768 125.68710327  -999.250000 1.3305000067 1.3072999716
 1578.8640137 13.000000000 12.541000366 12.250000954 111.70866394 0.0156999994 0.3680000007 2.3817000389 3.2239000797 99.832298279 125.51730347  -999.250000 1.3066999912 1.2932000160
 1579.0164795 13.000000000 12.476499557 12.250000954 110.72080231 0.0135000004 0.3542000055 2.3887999058 3.2244000435 99.075897217 125.62020111  -999.250000 1.3243000507 1.3099000454
 1579.1688232 13.000000000 12.462499619 12.250000954 124.52034760 0.0068000001 0.3799000084 2.3808000088 3.2139999866 99.874900818 125.09571075  -999.250000 1.3481999636 1.3483999968
 1579.3212891 13.000000000 12.688500404 12.250000954 125.92520905 0.0044999998 0.3811999857 2.3619999886 3.3238999844 99.540100098 124.62740326  -999.250000 1.3367999792 1.3223999739
 1579.4736328 13.000000000 12.592000008 12.250000954 124.03838348 0.0041000000 0.3783999979 2.3678998947 3.3190999031 99.372100830 123.98600006  -999.250000 1.3372999430 1.3156000376
