# LAS format log file from PETREL
# Project units are specified as depth units
#==================================================================
~Version information
VERS.   2.0:
WRAP.   NO:
#==================================================================
~Well
STRT .m      1003.2490234 :
STOP .m      2879.9025879 :
STEP .m     0.00000000 :
NULL .        -999.250000 :
COMP.           : COMPANY
WELL.  35/9-2   : WELL
FLD.            : FIELD
LOC.            : LOCATION
SRVC.           : SERVICE COMPANY
DATE.  2018-09-11 14:49:01   : Log Export Date {yyyy-MM-dd HH:mm:ss}
PROV.           : PROVINCE
UWI.   35/9-2   : UNIQUE WELL ID
API.            : API NUMBER
#==================================================================
~Curve
DEPT .m                   : DEPTH
Lithology_geolink ._      : Lithology_geolink
DCAL .in                  : DCAL
CALI .in                  : CALI
BS .in                    : BS
DRHO .g/cm3               : DRHO
SGR .gAPI                 : SGR
NPHI .m3/m3               : NPHI
RHOB .g/cm3               : RHOB
GR .gAPI                  : GR
DTC .us/ft                : DTC
DTS .us/ft                : DTS
RDEP .ohm.m               : RDEP
SP .mV                    : SP
RSHA .ohm.m               : RSHA
RMIC .ohm.m               : RMIC
RMED .ohm.m               : RMED
~Parameter
#==================================================================
~Ascii
# ...
 2627.2233887 6.0000000000 0.0532569885 8.5532569885 8.5000000000 0.0064313160 119.57975006 0.3383133113 2.4577770233 113.65366364  -999.250000  -999.250000 6.4006881714 133.25979614  -999.250000  -999.250000 13.398799896
 2627.3759766 6.0000000000 0.0659999773 8.5659999847 8.5000000000 0.0019094360 119.31147003 0.3984859884 2.3635709286 114.81205750  -999.250000  -999.250000 7.4300761223 130.75579834  -999.250000  -999.250000 11.889399529
 2627.5283203 6.0000000000 0.0659999773 8.5659999847 8.5000000000 0.0054608630 115.81604004 0.4216544926 2.3338179588 113.90740967  -999.250000  -999.250000 8.3493604660 127.94490051  -999.250000  -999.250000 10.558549881
 2627.6806641 6.0000000000 0.0659999773 8.5659999847 8.5000000000 0.0158717502 116.30396271 0.4241696894 2.3919470310 121.07553101  -999.250000  -999.250000 8.4779710770 125.16559601  -999.250000  -999.250000 9.5598201752
 2627.8330078 6.0000000000 0.0818319321 8.5818319321 8.5000000000 0.0179453306 128.73573303 0.4334841073 2.4444220066 118.23572540  -999.250000  -999.250000 8.2070207596 122.93530273  -999.250000  -999.250000 9.5665588379
 2627.9855957 6.0000000000 0.0996990129 8.5996990204 8.5000000000 0.0068715401 132.50595093 0.4355531931 2.4125959873 122.72396088  -999.250000  -999.250000 8.2459888458 120.77529907  -999.250000  -999.250000 10.799799919
 2628.1379395 6.0000000000 0.0881862566 8.5881862640 8.5000000000 -0.000998920 129.63552856 0.4140143096 2.3754940033 119.41469574  -999.250000  -999.250000 8.2847843170 118.79119873  -999.250000  -999.250000 13.036259651
 2628.2902832 6.0000000000 0.0548906326 8.5548906326 8.5000000000 0.0003850425 120.52050781 0.4039196968 2.3687970638 122.14598846  -999.250000  -999.250000 8.5706233978 117.37090302  -999.250000  -999.250000 16.254819870
 2628.4426270 18.000000000 0.0331764184 8.5331764221 8.5000000000 0.0004068006 117.08334351 0.4225288928 2.2308659554 117.39000702  -999.250000  -999.250000 9.7378082275 116.32869720  -999.250000  -999.250000 20.326229095
 2628.5952148 18.000000000 0.0602569655 8.5602569580 8.5000000000 -0.003877987 113.07635498 0.4588609934 1.9589899778 110.01554871  -999.250000  -999.250000 11.290160179 115.62619781  -999.250000  -999.250000 22.505319595
 2628.7475586 18.000000000 0.0955190733 8.5955190659 8.5000000000 -0.000719435 103.72376251 0.4788927138 1.7721060514 102.39435577  -999.250000  -999.250000 12.327349663 115.30650330  -999.250000  -999.250000 21.724840164
 2628.8999023 18.000000000 0.1040000916 8.6040000916 8.5000000000 0.0037514491 100.98751831 0.4741392136 1.7201620340 99.200637817  -999.250000  -999.250000 12.917530060 115.25000000  -999.250000  -999.250000 21.001689911
 2629.0522461 18.000000000 0.0881729200 8.5881729126 8.5000000000 0.0017858230 104.22093964 0.4612458050 1.7455749512 104.17177582  -999.250000  -999.250000 12.556019783 115.66649628  -999.250000  -999.250000 20.133119583
 2629.2045898 6.0000000000 0.0702857971 8.5702857971 8.5000000000 0.0036180320 110.61907959 0.4589641988 1.8822150230 115.12425995  -999.250000  -999.250000 11.338569641 116.44969940  -999.250000  -999.250000 18.251010895
 2629.3571777 6.0000000000 0.0659999773 8.5659999847 8.5000000000 0.0041225241 125.34132385 0.4786635935 1.9671009779 116.90643311  -999.250000  -999.250000 10.380399704 116.70700073  -999.250000  -999.250000 16.974390030
 2629.5095215 6.0000000000 0.0659999773 8.5659999847 8.5000000000 -0.001478823 127.83077240 0.4927676022 1.9401730299 116.32051086  -999.250000  -999.250000 9.7147474289 116.45249939  -999.250000  -999.250000 17.056390762
 2629.6618652 6.0000000000 0.0659999773 8.5659999847 8.5000000000 -0.007820512 119.71826172 0.4629972875 1.9811789989 114.52300262  -999.250000  -999.250000 9.4244928360 116.69470215  -999.250000  -999.250000 15.923859596
 2629.8142090 6.0000000000 0.0818319321 8.5818319321 8.5000000000 -0.011739620 117.97582245 0.3859606087 2.1593620777 115.94885254  -999.250000  -999.250000 9.4746246338 117.03299713  -999.250000  -999.250000 12.266280174
 2629.9667969 6.0000000000 0.0214605294 8.5214605331 8.5000000000 -0.009141353 113.24613190 0.3091597855 2.3539741039 110.04076385  -999.250000  -999.250000 9.2901420593 117.34040070  -999.250000  -999.250000 9.0141210556
 2630.1191406 5.0000000000 -0.109739304 8.3902606964 8.5000000000 -0.005435057 108.24035645 0.2663958073 2.4347660542 102.67643738  -999.250000  -999.250000 8.5497112274 117.56109619  -999.250000  -999.250000 8.3414297104
 2630.2714844 5.0000000000 -0.168404594 8.3315954208 8.5000000000 0.0009418674 103.14065552 0.2530378103 2.4548959732 101.27120972  -999.250000  -999.250000 7.5644030571 117.84049988  -999.250000  -999.250000 9.8366384506
 2630.4238281 5.0000000000 -0.147877693 8.3521223068 8.5000000000 0.0065864548 107.25381470 0.2471722066 2.4776198864 106.75856781  -999.250000  -999.250000 6.7933568954 118.26950073  -999.250000  -999.250000 10.845959663
 2630.5764160 5.0000000000 -0.126171097 8.3738288879 8.5000000000 0.0059751789 105.89405823 0.2398051023 2.4738891125 104.29078674  -999.250000  -999.250000 6.6230611801 118.47180176  -999.250000  -999.250000 9.5774230957
 2630.7287598 5.0000000000 -0.137402505 8.3625974655 8.5000000000 0.0030903679 98.985527039 0.2357442975 2.4648449421 97.954627991  -999.250000  -999.250000 7.1851911545 118.81220245  -999.250000  -999.250000 7.8504490852
 2630.8811035 5.0000000000 -0.170633286 8.3293666840 8.5000000000 -0.000325776 95.209999084 0.2441577017 2.4606969357 92.062416077  -999.250000  -999.250000 7.9884829521 118.64479828  -999.250000  -999.250000 7.1616921425
 2631.0334473 5.0000000000 -0.192707986 8.3072919846 8.5000000000 -0.002131744 98.376312256 0.2725045085 2.4261291027 94.266426086  -999.250000  -999.250000 8.4595985413 117.93289948  -999.250000  -999.250000 8.3884010315
 2631.1857910 5.0000000000 -0.165748596 8.3342514038 8.5000000000 0.0020540941 105.78679657 0.3093304038 2.4217240810 106.52603149  -999.250000  -999.250000 8.6355495453 117.24389648  -999.250000  -999.250000 12.740429878
 2631.3383789 5.0000000000 -0.099268921 8.4007310867 8.5000000000 0.0151931299 122.24967957 0.3339510858 2.4899508953 115.05434418  -999.250000  -999.250000 8.8470020294 116.62670135  -999.250000  -999.250000 21.226520538
 2631.4907227 6.0000000000 -0.023855211 8.4761447906 8.5000000000 0.0169964992 128.55696106 0.3329837918 2.5326099396 126.03739929  -999.250000  -999.250000 9.7994365692 115.47419739  -999.250000  -999.250000 27.203340530
 2631.6430664 6.0000000000 0.0358200110 8.5358200073 8.5000000000 0.0089565730 135.81445313 0.3226997852 2.5316441059 127.85072327  -999.250000  -999.250000 11.689430237 114.16369629  -999.250000  -999.250000 25.051029205
 2631.7954102 6.0000000000 0.0464105569 8.5464105606 8.5000000000 0.0036131339 138.58291626 0.3175022900 2.5166289806 131.59576416  -999.250000  -999.250000 13.729419708 112.75140381  -999.250000  -999.250000 21.390110016
 2631.9479980 6.0000000000 0.0331888199 8.5331888199 8.5000000000 0.0040084431 138.77961731 0.3112975061 2.5188570023 127.96577454  -999.250000  -999.250000 15.068490028 111.72640228  -999.250000  -999.250000 19.420440674
 2632.1003418 6.0000000000 0.0290002804 8.5290002823 8.5000000000 0.0066781351 134.58050537 0.2985072136 2.5434539318 127.58628845  -999.250000  -999.250000 15.491680145 111.29190063  -999.250000  -999.250000 19.201719284
 2632.2526855 6.0000000000 0.0290002804 8.5290002823 8.5000000000 0.0079457341 129.56587219 0.2864606977 2.5489962101 129.26164246  -999.250000  -999.250000 15.211299896 110.74430084  -999.250000  -999.250000 20.317369461
 2632.4050293 6.0000000000 0.0131711997 8.5131711960 8.5000000000 0.0071080290 127.93532562 0.2868025899 2.5205440521 131.83792114  -999.250000  -999.250000 14.667409897 109.91809845  -999.250000  -999.250000 21.757709503
 2632.5576172 6.0000000000 -0.004715919 8.4952840805 8.5000000000 0.0067011798 131.58988953 0.2975378036 2.4825510979 130.42906189  -999.250000  -999.250000 14.452059746 109.15440369  -999.250000  -999.250000 22.199789047
 2632.7099609 7.0000000000 0.0068197255 8.5068197250 8.5000000000 0.0101584904 138.87872314 0.3310374916 2.4820129871 132.89361572  -999.250000  -999.250000 14.709679604 109.22280121  -999.250000  -999.250000 21.525890350
