# LAS format log file from PETREL
# Project units are specified as depth units
#==================================================================
~Version information
VERS.   2.0:
WRAP.   NO:
#==================================================================
~Well
STRT .m      1003.2490234 :
STOP .m      2879.9025879 :
STEP .m     0.00000000 :
NULL .        -999.250000 :
COMP.           : COMPANY
WELL.  35/9-2   : WELL
FLD.            : FIELD
LOC.            : LOCATION
SRVC.           : SERVICE COMPANY
DATE.  2018-09-11 14:49:01   : Log Export Date {yyyy-MM-dd HH:mm:ss}
PROV.           : PROVINCE
UWI.   35/9-2   : UNIQUE WELL ID
API.            : API NUMBER
#==================================================================
~Curve
DEPT .m                   : DEPTH
Lithology_geolink ._      : Lithology_geolink
DCAL .in                  : DCAL
CALI .in                  : CALI
BS .in                    : BS
DRHO .g/cm3               : DRHO
SGR .gAPI                 : SGR
NPHI .m3/m3               : NPHI
RHOB .g/cm3               : RHOB
GR .gAPI                  : GR
DTC .us/ft                : DTC
DTS .us/ft                : DTS
RDEP .ohm.m               : RDEP
SP .mV                    : SP
RSHA .ohm.m               : RSHA
RMIC .ohm.m               : RMIC
RMED .ohm.m               : RMED
~Parameter
#==================================================================
~Ascii
# ...
 2001.3166504 13.000000000 0.7429999709 9.2430000305 8.5000000000 0.0037220090 85.793045044 0.2561110854 2.5005490780 82.332229614 94.268470764 200.06730652 2.4490718842 44.688549042  -999.250000  -999.250000 3.3917679787
 2001.4689941 13.000000000 0.7429999709 9.2430000305 8.5000000000 0.0022705081 84.049957275 0.2498604953 2.4821970463 81.973785400 94.046028137 198.88909912 2.5352559090 45.551689148  -999.250000  -999.250000 3.3602321148
 2001.6214600 13.000000000 0.7429999709 9.2430000305 8.5000000000 -0.003245089 82.245590210 0.2410808057 2.4655458927 82.598152161 94.057220459 199.41879272 2.5998868942 46.287929535  -999.250000  -999.250000 3.3437569141
 2001.7738037 13.000000000 0.7429999709 9.2430000305 8.5000000000 -0.008046760 83.565780640 0.2302691936 2.4857950211 80.862083435 94.043663025 200.64930725 2.6353659630 47.871410370  -999.250000  -999.250000 3.4547669888
 2001.9262695 13.000000000 0.7429999709 9.2430000305 8.5000000000 -0.011026390 83.813041687 0.2234258056 2.4920680523 80.933326721 93.934844971 201.64559937 2.6430070400 49.681808472  -999.250000  -999.250000 3.5957040787
 2002.0786133 13.000000000 0.7429999709 9.2430000305 8.5000000000 -0.008906232 81.892257690 0.2234032005 2.4798159599 78.342285156 94.470367432 202.18202209 2.6167330742 49.700191498  -999.250000  -999.250000 3.5819530487
 2002.2310791 13.000000000 0.7588538527 9.2588539124 8.5000000000 -0.003762635 81.874397278 0.2253589928 2.4857800007 75.886138916 96.005302429 205.36360168 2.5735850334 49.140869141  -999.250000  -999.250000 3.4322309494
 2002.3834229 13.000000000 0.7608633637 9.2608633041 8.5000000000 -0.003424349 79.702072144 0.2251224965 2.4832289219 73.658409119 96.838302612 208.84350586 2.5245990753 48.687030792  -999.250000  -999.250000 3.2679560184
 2002.5358887 13.000000000 0.7631387711 9.2631387711 8.5000000000 -0.006690206 77.927337646 0.2201980948 2.4701209068 74.073867798 97.135162354 210.32429504 2.4646530151 47.708091736  -999.250000  -999.250000 3.1098780632
 2002.6882324 13.000000000 0.7767229080 9.2767229080 8.5000000000 -0.007827567 77.227790833 0.2204329967 2.4745199680 72.762603760 97.605033875 211.04280090 2.4088859558 47.649250031  -999.250000  -999.250000 2.9678649902
 2002.8406982 13.000000000 0.7651367188 9.2651367188 8.5000000000 -0.006807508 77.615936279 0.2275809050 2.4770109653 72.152679443 97.737327576 207.88340759 2.3695139885 48.616249084  -999.250000  -999.250000 2.8722050190
 2002.9930420 13.000000000 0.7631369233 9.2631368637 8.5000000000 -0.006529929 77.003967285 0.2383891046 2.4781219959 71.709365845 97.768440247 204.93429565 2.3331799507 49.165561676  -999.250000  -999.250000 2.8494970798
 2003.1453857 13.000000000 0.7449988723 9.2449989319 8.5000000000 -0.005217752 77.886001587 0.2496163994 2.4903490543 73.440650940 97.738403320 204.93730164 2.2950930595 49.041278839  -999.250000  -999.250000 2.8950710297
 2003.2978516 13.000000000 0.7294159532 9.2294158936 8.5000000000 -0.002615849 79.048088074 0.2584221065 2.4980590343 77.643119812 97.403366089 207.29299927 2.2667930126 48.910629272  -999.250000  -999.250000 2.9535140991
 2003.4501953 13.000000000 0.7387228012 9.2387228012 8.5000000000 0.0021140950 82.687934875 0.2607356012 2.4983379841 80.146591187 97.226058960 210.14469910 2.2486279011 49.389259338  -999.250000  -999.250000 2.9840309620
 2003.6026611 13.000000000 0.7271441221 9.2271442413 8.5000000000 0.0065161302 87.573387146 0.2541987002 2.5009210110 77.453369141 97.454864502 211.62359619 2.2346661091 49.574409485  -999.250000  -999.250000 2.9920980930
 2003.7550049 13.000000000 0.7092780471 9.2092781067 8.5000000000 0.0053832550 82.070556641 0.2479403019 2.4858479500 77.098381042 97.917343140 212.19960022 2.2168729305 49.334430695  -999.250000  -999.250000 2.9858930111
 2003.9074707 13.000000000 0.7049999237 9.2049999237 8.5000000000 0.0022587860 76.161285400 0.2489373982 2.4797260761 76.941413879 98.380012512 212.79170227 2.1865799427 49.458618164  -999.250000  -999.250000 2.9594609737
 2004.0598145 13.000000000 0.7208576202 9.2208576202 8.5000000000 0.0006952715 77.689880371 0.2591288984 2.4819378853 79.348007202 98.915367126 213.41709900 2.1524019241 49.589370728  -999.250000  -999.250000 2.9044840336
 2004.2122803 13.000000000 0.7228642106 9.2228641510 8.5000000000 -0.001138903 78.963584900 0.2670361102 2.4808430672 80.287666321 99.595550537 213.63902283 2.1208190918 49.632469177  -999.250000  -999.250000 2.8230030537
 2004.3646240 13.000000000 0.7092800140 9.2092800140 8.5000000000 -0.003913997 86.022636414 0.2702077031 2.4758329391 81.355010986 99.730888367 217.77799988 2.0828039646 49.617519379  -999.250000  -999.250000 2.7285909653
 2004.5170898 13.000000000 0.6895532608 9.1895532608 8.5000000000 -0.006080107 89.269920349 0.2668457031 2.4664669037 85.193344116 99.483856201 222.71090698 2.0412409306 49.841239929  -999.250000  -999.250000 2.6567409039
 2004.6694336 13.000000000 0.6876078248 9.1876077652 8.5000000000 -0.009391669 85.740661621 0.2600112855 2.4541029930 82.890411377 99.387397766 224.62120056 2.0052180290 49.852550507  -999.250000  -999.250000 2.6382570267
 2004.8218994 13.000000000 0.7008380294 9.2008380890 8.5000000000 -0.011072660 80.940284729 0.2536664009 2.4592781067 81.875785828 99.269927979 225.23019409 1.9755480289 48.958171844  -999.250000  -999.250000 2.6536118984
 2004.9742432 13.000000000 0.7049999237 9.2049999237 8.5000000000 -0.012007120 78.966720581 0.2534663081 2.4701910019 75.199020386 99.453193665 225.36239624 1.9594919682 48.273220062  -999.250000  -999.250000 2.6510899067
 2005.1265869 13.000000000 0.7049999237 9.2049999237 8.5000000000 -0.010627920 80.218612671 0.2646555901 2.4762740135 75.369613647 99.751518250 225.33929443 1.9681669474 47.804439545  -999.250000  -999.250000 2.6018929482
 2005.2790527 13.000000000 0.6895598173 9.1895599365 8.5000000000 -0.006953727 83.456596375 0.2821531892 2.4689569473 71.773376465 99.855926514 225.30790710 1.9941560030 47.884250641  -999.250000  -999.250000 2.5495569706
 2005.4313965 13.000000000 0.6876078248 9.1876077652 8.5000000000 -0.001885947 83.236419678 0.2919178903 2.4672880173 74.409736633 99.686683655 225.06208801 2.0240480900 48.776710510  -999.250000  -999.250000 2.5786330700
 2005.5838623 13.000000000 0.6853932738 9.1853933334 8.5000000000 0.0000125000 84.454444885 0.2840991020 2.4622418880 77.170486450 99.080032349 221.94052124 2.0581669807 48.865768433  -999.250000  -999.250000 2.7020099163
 2005.7362061 13.000000000 0.6721658707 9.1721658707 8.5000000000 -0.003523919 80.240951538 0.2703644931 2.4602088928 83.612564087 98.204353333 216.24569702 2.0994930267 49.121089935  -999.250000  -999.250000 2.8390440941
 2005.8886719 13.000000000 0.6521453857 9.1521453857 8.5000000000 -0.004767708 77.700805664 0.2606722116 2.4856469631 82.162590027 97.657379150 212.75599670 2.1419129372 50.845901489  -999.250000  -999.250000 2.9073250294
 2006.0410156 13.000000000 0.6342793107 9.1342792511 8.5000000000 -0.002615762 76.725936890 0.2536079884 2.5033230782 82.947738647 97.732063293 211.77349854 2.1809070110 51.592510223  -999.250000  -999.250000 2.9443030357
 2006.1934814 13.000000000 0.6145638824 9.1145639420 8.5000000000 0.0021121649 81.134910583 0.2412566990 2.4985380173 79.879844666 97.988136292 217.62869263 2.2061259747 51.273349762  -999.250000  -999.250000 3.0216209888
 2006.3458252 13.000000000 0.6126070023 9.1126070023 8.5000000000 0.0056816768 83.490493774 0.2339341044 2.4943249226 82.023025513 98.419616699 224.39250183 2.2032148838 50.908878326  -999.250000  -999.250000 3.1051559448
 2006.4982910 13.000000000 0.6417035460 9.1417036057 8.5000000000 0.0040249941 86.393661499 0.2384462953 2.4908449650 81.098976135 99.299720764 226.14089966 2.1839458942 50.375598907  -999.250000  -999.250000 3.0694820881
 2006.6506348 13.000000000 0.6637229919 9.1637229919 8.5000000000 0.0011454660 91.146614075 0.2531437874 2.4933340549 84.586120605 100.22010040 227.28280640 2.1645920277 50.682331085  -999.250000  -999.250000 2.8911631107
 2006.8031006 13.000000000 0.6521366835 9.1521368027 8.5000000000 -0.002392262 92.590484619 0.2681544125 2.4817190170 87.983474731 100.89241028 231.54211426 2.1393229961 50.913799286  -999.250000  -999.250000 2.6911799908
