# LAS format log file from PETREL
# Project units are specified as depth units
#==================================================================
~Version information
VERS.   2.0:
WRAP.   NO:
#==================================================================
~Well
STRT .m      1003.2490234 :
STOP .m      2879.9025879 :
STEP .m     0.00000000 :
NULL .        -999.250000 :
COMP.           : COMPANY
WELL.  35/9-2   : WELL
FLD.            : FIELD
LOC.            : LOCATION
SRVC.           : SERVICE COMPANY
DATE.  2018-09-11 14:49:01   : Log Export Date {yyyy-MM-dd HH:mm:ss}
PROV.           : PROVINCE
UWI.   35/9-2   : UNIQUE WELL ID
API.            : API NUMBER
#==================================================================
~Curve
DEPT .m                   : DEPTH
Lithology_geolink ._      : Lithology_geolink
DCAL .in                  : DCAL
CALI .in                  : CALI
BS .in                    : BS
DRHO .g/cm3               : DRHO
SGR .gAPI                 : SGR
NPHI .m3/m3               : NPHI
RHOB .g/cm3               : RHOB
GR .gAPI                  : GR
DTC .us/ft                : DTC
DTS .us/ft                : DTS
RDEP .ohm.m               : RDEP
SP .mV                    : SP
RSHA .ohm.m               : RSHA
RMIC .ohm.m               : RMIC
RMED .ohm.m               : RMED
~Parameter
#==================================================================
~Ascii
# ...
 2249.4238281 1.0000000000 -0.219162002 8.2808380127 8.5000000000 -0.014554420 93.642028809 0.1532624066 2.1611390114 84.481430054 102.94129944 167.75729370 118.25749969 45.876140594 5.5452160835 5.5907649994 71.150932312
 2249.5761719 1.0000000000 -0.217120200 8.2828798294 8.5000000000 -0.019466400 93.127990723 0.1544128060 2.1653718948 83.293769836 102.62470245 168.20010376 111.66690063 44.931221008 5.2577672005 5.2965750694 68.094848633
 2249.7287598 1.0000000000 -0.214877084 8.2851228714 8.5000000000 -0.021961160 94.414451599 0.1524156928 2.1482479572 83.569808960 102.09393311 168.65080261 118.13240051 44.064609528 5.0880103111 5.0490131378 71.473892212
 2249.8811035 1.0000000000 -0.201271117 8.2987289429 8.5000000000 -0.019668519 92.289680481 0.1523260027 2.1284899712 79.943260193 101.49012756 168.77270508 131.89770508 43.465221405 5.3154010773 5.2646198273 77.259262085
 2250.0334473 1.0000000000 -0.196999505 8.3030004501 8.5000000000 -0.015779439 91.835304260 0.1507703066 2.1237010956 80.572097778 100.19470215 165.28729248 137.56730652 42.666801453 5.5002717972 5.5709252357 78.658233643
 2250.1857910 1.0000000000 -0.196999505 8.3030004501 8.5000000000 -0.010531980 92.573684692 0.1511847973 2.1380040646 84.820701599 98.369850159 157.31709290 125.84639740 41.695678711 5.0568799973 5.1153240204 72.406242371
 2250.3383789 1.0000000000 -0.196999505 8.3030004501 8.5000000000 -0.005537652 92.801612854 0.1583528966 2.1642360687 89.530616760 97.110511780 144.20889282 111.61979675 40.904170990 4.6567330360 4.7069082260 65.433990479
 2250.4907227 1.0000000000 -0.196999505 8.3030004501 8.5000000000 -0.005005777 90.669265747 0.1673779041 2.1750710011 91.536834717 96.278961182 134.52909851 108.95480347 40.243400574 4.3807568550 4.3716611862 64.422813416
 2250.6430664 1.0000000000 -0.196999505 8.3030004501 8.5000000000 -0.008637363 88.362266541 0.1620585024 2.1865360737 85.228096008 95.631645203 129.96859741 122.23390198 39.416908264 4.3898367882 4.3554239273 71.654159546
 2250.7954102 1.0000000000 -0.181160018 8.3188400269 8.5000000000 -0.007268244 87.201324463 0.1317027062 2.2770359516 79.176208496 95.385223389 131.43800354 149.32449341 38.758449554 5.0337362289 4.5293397903 85.492362976
 2250.9479980 16.000000000 -0.147859603 8.3521404266 8.5000000000 0.0047929110 83.301475525 0.0980018377 2.4415209293 75.929183960 97.216621399 135.48719788 171.50709534 38.215549469 13.159031868 6.8965392113 96.363769531
 2251.1003418 16.000000000 -0.126162499 8.3738374710 8.5000000000 0.0131941400 77.312431335 0.0867831632 2.5630118847 73.576751709 99.465057373 140.97799683 173.44610596 37.730129242 61.897800446 35.371875763 99.276359558
 2251.2526855 16.000000000 -0.106144004 8.3938560486 8.5000000000 0.0063563539 78.179901123 0.0997512564 2.5156669617 75.082969666 100.21659851 154.61749268 149.94520569 37.528091431 69.932487488 68.764480591 89.864242554
 2251.4050293 16.000000000 -0.135378793 8.3646211624 8.5000000000 -0.007085230 86.020034790 0.1222916991 2.3336110115 75.298538208 100.52629852 165.62899780 123.11820221 37.291610718 18.012559891 19.621629715 75.929000854
 2251.5573730 1.0000000000 -0.200097993 8.2999019623 8.5000000000 -0.013813730 87.371170044 0.1416961998 2.1917328835 81.240859985 100.36849976 168.05529785 107.28939819 37.473121643 6.6611771584 6.8191680908 66.055923462
 2251.7099609 1.0000000000 -0.230722383 8.2692775726 8.5000000000 -0.013808170 90.876663208 0.1534920037 2.1577351093 84.605323792 99.830032349 168.14508057 95.711410522 37.991668701 5.5391354561 5.3065843582 58.292308807
 2251.8623047 1.0000000000 -0.234999701 8.2650003433 8.5000000000 -0.014363910 93.105628967 0.1599660069 2.1638851166 88.077835083 99.368919373 166.95770264 84.626861572 37.700439453 6.6200394630 6.5102939606 51.410579681
 2252.0146484 1.0000000000 -0.234999701 8.2650003433 8.5000000000 -0.013159020 92.708724976 0.1678052992 2.1882328987 84.730003357 98.946319580 165.55090332 74.737220764 37.662021637 6.3987970352 6.4886250496 45.661140442
 2252.1669922 1.0000000000 -0.234999701 8.2650003433 8.5000000000 -0.007757234 94.283546448 0.1724005044 2.2176179886 88.485038757 98.616821289 165.05131531 69.014427185 38.213470459 5.4943470955 5.4702439308 41.874359131
 2252.3195801 1.0000000000 -0.234999701 8.2650003433 8.5000000000 -0.005872811 97.065811157 0.1699348986 2.2062489986 90.697982788 98.670608521 165.11839294 70.679313660 38.784511566 5.4595623016 5.5063886642 41.227531433
 2252.4719238 1.0000000000 -0.219149604 8.2808504105 8.5000000000 -0.006186406 93.125434875 0.1614716947 2.1820731163 92.107719421 98.885536194 165.35429382 78.012588501 39.061378479 5.2159490585 5.1891531944 42.354980469
 2252.6242676 1.0000000000 -0.217124894 8.2828750610 8.5000000000 -0.007423416 88.209213257 0.1567613930 2.1789209843 90.311203003 99.172004700 165.32589722 85.257202148 38.610771179 5.3972020149 5.2220797539 41.995010376
 2252.7766113 1.0000000000 -0.214878112 8.2851219177 8.5000000000 -0.008603015 94.645195007 0.1615875065 2.1863799095 89.422897339 99.567916870 165.90060425 89.938796997 38.425289154 6.2378292084 6.2409939766 39.928131104
 2252.9291992 2.0000000000 -0.201281503 8.2987184525 8.5000000000 -0.009892635 93.979873657 0.1725381017 2.2031269073 93.704353333 99.958488464 166.60009766 87.984931946 38.561290741 5.9510045052 6.0397210121 35.819599152
 2253.0815430 2.0000000000 -0.196999505 8.3030004501 8.5000000000 -0.010715880 98.630676270 0.1837764978 2.2186300755 94.980751038 100.15964508 166.73400879 79.568489075 38.632389069 5.2508811951 5.3354272842 30.803930283
 2253.2338867 2.0000000000 -0.196999505 8.3030004501 8.5000000000 -0.008973005 100.65389252 0.1922270060 2.2248020172 96.475936890 100.12463379 166.88259888 71.692230225 38.617599487 4.6530790329 4.7556157112 27.262149811
 2253.3862305 2.0000000000 -0.196999505 8.3030004501 8.5000000000 -0.006087826 101.81967163 0.1985207051 2.2279119492 94.863136292 99.899208069 166.33340454 66.850082397 38.528179169 4.0535330772 4.0975971222 25.482500076
 2253.5385742 2.0000000000 -0.212836310 8.2871637344 8.5000000000 -0.005588448 99.021316528 0.2087730020 2.2346630096 95.114646912 100.08280182 165.55250549 62.744380951 38.812561035 3.8212099075 3.8091220856 24.513950348
 2253.6911621 2.0000000000 -0.214877084 8.2851228714 8.5000000000 -0.008747069 100.11892700 0.2194104046 2.2448189259 90.772171021 99.394912720 164.77879333 58.875469208 39.269809723 3.8975276947 3.8747916222 23.981220245
 2253.8435059 2.0000000000 -0.201271117 8.2987289429 8.5000000000 -0.012689450 101.57868195 0.2220295072 2.2458701134 93.917617798 99.087043762 163.45050049 56.165378571 39.784770966 3.9955487251 4.0139489174 23.888559341
 2253.9958496 2.0000000000 -0.196999505 8.3030004501 8.5000000000 -0.013828290 100.74441528 0.2226113975 2.2455201149 95.348968506 98.638450623 160.42979431 53.377120972 40.269599915 3.8942830563 3.8985729218 23.425149918
 2254.1481934 2.0000000000 -0.196999505 8.3030004501 8.5000000000 -0.011142180 104.28173065 0.2267346978 2.2551217079 102.04869843 96.759613037 157.87379456 50.296871185 40.263458252 3.8781108856 3.8537819386 22.363729477
 2254.3005371 2.0000000000 -0.181158096 8.3188419342 8.5000000000 -0.006061816 105.27806091 0.2327282876 2.2670629025 103.21289825 94.243957520 156.24250793 48.274848938 40.264759064 3.9765279293 3.9964671135 21.445339203
 2254.4528809 2.0000000000 -0.179122895 8.3208770752 8.5000000000 -0.004760248 103.54174042 0.2307722569 2.2704849243 102.05069733 91.559226990 153.89904785 47.127510071 40.339500427 3.8844509125 3.8647499084 20.796430588
 2254.6054688 2.0000000000 -0.192731902 8.3072681427 8.5000000000 -0.007690392 101.57300568 0.2190960050 2.2828619480 102.75060272 90.247253418 152.31948853 46.754131317 40.069419861 3.9900410175 3.9364509583 20.346540451
 2254.7578125 2.0000000000 -0.196999505 8.3030004501 8.5000000000 -0.012163040 100.80398560 0.2023268044 2.3023378849 97.212860107 90.789306641 151.81069946 49.028518677 39.806331635 4.2461881638 4.2455368042 20.683820724
 2254.9101563 2.0000000000 -0.212839097 8.2871608734 8.5000000000 -0.015323910 98.852668762 0.1915094256 2.3129570484 95.501823425 91.836151123 152.71075439 55.123081207 39.645801544 4.2505488396 4.2439379692 21.953710556
