# LAS format log file from PETREL
# Project units are specified as depth units
#==================================================================
~Version information
VERS.   2.0:
WRAP.   NO:
#==================================================================
~Well
STRT .m      1110.2340088 :
STOP .m      3322.9296875 :
STEP .m     0.00000000 :
NULL .        -999.250000 :
COMP.           : COMPANY
WELL.  35/9-9   : WELL
FLD.            : FIELD
LOC.            : LOCATION
SRVC.           : SERVICE COMPANY
DATE.  2018-09-11 14:49:02   : Log Export Date {yyyy-MM-dd HH:mm:ss}
PROV.           : PROVINCE
UWI.   35/9-9   : UNIQUE WELL ID
API.            : API NUMBER
#==================================================================
~Curve
DEPT .m                   : DEPTH
Lithology_geolink ._      : Lithology_geolink
CALI .in                  : CALI
BS .in                    : BS
ROP .m/h                  : ROP
DRHO .g/cm3               : DRHO
NPHI .m3/m3               : NPHI
RHOB .g/cm3               : RHOB
PEF .b/e                  : PEF
GR .gAPI                  : GR
DTC .us/ft                : DTC
DTS .us/ft                : DTS
RDEP .ohm.m               : RDEP
RMED .ohm.m               : RMED
~Parameter
#==================================================================
~Ascii
# ...
 1432.1027832 13.000000000 12.782199860 12.250000954 164.90486145 0.0494000018 0.3540000021 2.3268001080 3.9565000534 115.47190094 125.25330353  -999.250000 1.4223999977 1.4065999985
 1432.2552490 13.000000000 12.791000366 12.250000954 166.33432007 0.0463000014 0.3614000082 2.3225998878 3.8812999725 115.50389862 125.16239929  -999.250000 1.4262000322 1.4329999685
 1432.4075928 13.000000000 12.559800148 12.250000954 170.66830444 0.0364000015 0.3472000062 2.3055999279 3.8210000992 114.60900116 124.70928955  -999.250000 1.3837000132 1.3769999743
 1432.5600586 13.000000000 12.394901276 12.250000954 170.13058472 0.0406000018 0.3364000022 2.3097999096 3.8285999298 109.51650238 123.77839661  -999.250000 1.3444999456 1.3553999662
 1432.7124023 13.000000000 12.376299858 12.250000954 177.18864441 0.0489000008 0.3176000118 2.3350000381 3.7718000412 103.10299683 123.65489197  -999.250000 1.3184000254 1.3489999771
 1432.8648682 13.000000000 12.388899803 12.250000954 178.04101563 0.0562000014 0.3104999959 2.3510999680 3.7918000221 102.55429840 123.79720306  -999.250000 1.3787000179 1.3934999704
 1433.0172119 13.000000000 12.402699471 12.250000954 171.75852966 0.0719999969 0.3064000010 2.3796000481 3.8629999161 107.90779877 124.42620087  -999.250000 1.4241000414 1.4198000431
 1433.1696777 13.000000000 12.387100220 12.250000954 113.12828064 0.0744000003 0.3492999971 2.3791999817 4.0187997818 109.95149994 125.07820129  -999.250000 1.4313000441 1.4297000170
 1433.3220215 13.000000000 12.431200027 12.250000954 110.47376251 0.0673000067 0.3914000094 2.3701000214 4.0219001770 106.75360107 125.34400177  -999.250000 1.4738999605 1.4636000395
 1433.4744873 13.000000000 12.416500092 12.250000954 108.51181793 0.0555999987 0.3862000108 2.3587999344 3.9735999107 104.76850128 125.93769836  -999.250000 1.4861999750 1.4846999645
 1433.6268311 13.000000000 12.353699684 12.250000954 106.66699982 0.0480000004 0.3158999979 2.3461999893 3.8373999596 103.62500000 126.53450012  -999.250000 1.4809000492 1.4796999693
 1433.7792969 13.000000000 12.427300453 12.250000954 109.34382629 0.0461999997 0.3280999959 2.3531000614 3.7597999573 102.33950043 127.07469940  -999.250000 1.4515999556 1.4507000446
 1433.9316406 13.000000000 12.409600258 12.250000954 105.73064423 0.0362999998 0.3307000101 2.3477001190 3.5864000320 103.46170044 127.41819763  -999.250000 1.4394999743 1.4334000349
 1434.0839844 13.000000000 12.408200264 12.250000954 103.32874298 0.0288999993 0.3716999888 2.3289000988 3.5227000713 106.32389832 127.61959839  -999.250000 1.4441000223 1.4316999912
 1434.2364502 13.000000000 12.406700134 12.250000954 98.811355591 0.0193000007 0.3594000041 2.3129000664 3.4535000324 108.98739624 127.36959839  -999.250000 1.4534000158 1.4572999477
 1434.3887939 13.000000000 12.469400406 12.250000954 98.173233032 0.0183000006 0.3519999981 2.3076999187 3.5201001167 110.05280304 126.26979828  -999.250000 1.5019999743 1.4743000269
 1434.5412598 13.000000000 12.473199844 12.250000954 99.675857544 0.0188999996 0.3409999907 2.3313000202 3.4776999950 110.53569794 126.12419891  -999.250000 1.4831999540 1.4620000124
 1434.6936035 13.000000000 12.479200363 12.250000954 141.51148987 0.0210999995 0.3061999977 2.3510000706 3.3568000793 110.80210114 125.43509674  -999.250000 1.4757000208 1.4632999897
 1434.8460693 13.000000000 12.455699921 12.250000954 146.58201599 0.0208000001 0.3095999956 2.3573000431 3.2723999023 111.54070282 124.60910034  -999.250000 1.4737999439 1.4693000317
 1434.9984131 13.000000000 12.439000130 12.250000954 145.87696838 0.0146000003 0.3165000081 2.3480000496 3.2395999432 114.62319946 122.33619690  -999.250000 1.4917999506 1.4802999496
 1435.1508789 13.000000000 12.426300049 12.250000954 148.53739929 0.0317000002 0.3219999969 2.4091000557 3.3689000607 117.14099884 120.93440247  -999.250000 1.4898999929 1.4846999645
 1435.3032227 13.000000000 12.413500786 12.250000954 145.35957336 -0.010500000 0.3156000078 2.4333999157 4.0820999146 116.93499756 122.75141144  -999.250000 1.5151000023 1.5127999783
 1435.4556885 13.000000000 12.416399956 12.250000954 161.65583801 -0.006500000 0.2992999852 2.4793999195 4.1118001938 115.55719757 124.23269653  -999.250000 1.5678000450 1.5491000414
 1435.6080322 13.000000000 12.419400215 12.250000954 159.85171509 -0.018999999 0.3023999929 2.4258000851 3.9077999592 113.57559967 124.64899445  -999.250000 1.6741000414 1.6523000002
 1435.7604980 13.000000000 12.408699989 12.250000954 159.57153320 0.0133999996 0.3206000030 2.3935999870 3.1716001034 110.60320282 124.21089935  -999.250000 1.6689000130 1.6496000290
 1435.9128418 13.000000000 12.402699471 12.250000954 151.99803162 0.0127999997 0.3413000107 2.3529999256 3.1710000038 109.29280090 123.84190369  -999.250000 1.5406999588 1.5367000103
 1436.0651855 13.000000000 12.439599991 12.250000954 149.13255310 0.0163000003 0.3395999968 2.3508000374 3.2546000481 112.33969879 125.09329987  -999.250000 1.4652999640 1.4546999931
 1436.2176514 13.000000000 12.461600304 12.250000954 156.98590088 0.0270000007 0.3316000104 2.3666000366 3.3464999199 117.41799927 126.34560394  -999.250000 1.4424999952 1.4479999542
 1436.3699951 13.000000000 12.449600220 12.250000954 152.15419006 0.0227000006 0.3350999951 2.3696000576 3.2895998955 120.81300354 126.51439667  -999.250000 1.4527000189 1.4550000429
 1436.5224609 13.000000000 12.442000389 12.250000954 159.51673889 0.0186000001 0.3485000134 2.3540000916 3.2853999138 119.44750214 126.38520050  -999.250000 1.4785000086 1.4651000500
 1436.6748047 13.000000000 12.411800385 12.250000954 170.46096802 0.0195000004 0.3524000049 2.3480000496 3.3176000118 112.40720367 126.26249695  -999.250000 1.4801000357 1.4643000364
 1436.8272705 13.000000000 12.395899773 12.250000954 168.11712646 0.0192000009 0.3506999910 2.3289999962 3.4145998955 104.41519928 126.24250031  -999.250000 1.5080000162 1.4815000296
 1436.9796143 13.000000000 12.410599709 12.250000954 161.51606750 0.0217000004 0.3459999859 2.3341999054 3.4753999710 101.16760254 126.64949799  -999.250000 1.4866000414 1.4699000120
 1437.1320801 13.000000000 12.437100410 12.250000954 166.29330444 0.0239000004 0.3472000062 2.3405001163 3.5785999298 101.47299957 127.38220215  -999.250000 1.4441000223 1.4404000044
 1437.2844238 13.000000000 12.482999802 12.250000954 171.87927246 0.0335000008 0.3479000032 2.3717999458 3.5230000019 101.11789703 126.93830109  -999.250000 1.4337999821 1.4380999804
 1437.4368896 13.000000000 12.539999008 12.250000954 186.36253357 0.0306000002 0.3348999918 2.3619000912 3.3873999119 100.56030273 126.87500763  -999.250000 1.4611999989 1.4569000006
 1437.5892334 13.000000000 12.492000580 12.250000954 202.39076233 0.0209999997 0.3395999968 2.3345999718 3.3348999023 101.87419891 127.42610168  -999.250000 1.4960000515 1.4883999825
 1437.7416992 13.000000000 12.615400314 12.250000954 208.16403198 0.0197999999 0.3341000080 2.3231000900 3.3475999832 104.50930023 127.07820129  -999.250000 1.4524999857 1.4451999664
 1437.8940430 13.000000000 12.732199669 12.250000954 213.31825256 0.0240000002 0.3513000011 2.3248000145 3.5251998901 105.72380066 126.83889771  -999.250000 1.3921999931 1.3982000351
 1438.0465088 13.000000000 12.549799919 12.250000954 207.99377441 0.0310999993 0.3467999995 2.3351998329 3.6110000610 103.54329681 126.20520020  -999.250000 1.4003000259 1.4002000093
 1438.1988525 13.000000000 12.519100189 12.250000954 213.36581421 0.0364999995 0.3343000114 2.3383998871 3.8266000748 100.79820251 124.58910370  -999.250000 1.4257999659 1.4294999838
 1438.3511963 13.000000000 12.454700470 12.250000954 185.53839111 0.0384000018 0.3506000042 2.3471000195 3.8485000134 99.953002930 124.71559906  -999.250000 1.4608999491 1.4449000359
 1438.5036621 13.000000000 12.537699699 12.250000954 173.91830444 0.0361000001 0.3456999958 2.3538000584 3.7328999043 100.81250000 124.90959930  -999.250000 1.4614000320 1.4563000202
 1438.6560059 13.000000000 12.673300743 12.250000954 161.45504761 0.0386000015 0.3743000031 2.3568000793 3.6540999413 103.25219727 125.82360077  -999.250000 1.4530999660 1.4415999651
