# LAS format log file from PETREL
# Project units are specified as depth units
#==================================================================
~Version information
VERS.   2.0:
WRAP.   NO:
#==================================================================
~Well
STRT .m      1110.2340088 :
STOP .m      3322.9296875 :
STEP .m     0.00000000 :
NULL .        -999.250000 :
COMP.           : COMPANY
WELL.  35/9-9   : WELL
FLD.            : FIELD
LOC.            : LOCATION
SRVC.           : SERVICE COMPANY
DATE.  2018-09-11 14:49:02   : Log Export Date {yyyy-MM-dd HH:mm:ss}
PROV.           : PROVINCE
UWI.   35/9-9   : UNIQUE WELL ID
API.            : API NUMBER
#==================================================================
~Curve
DEPT .m                   : DEPTH
Lithology_geolink ._      : Lithology_geolink
CALI .in                  : CALI
BS .in                    : BS
ROP .m/h                  : ROP
DRHO .g/cm3               : DRHO
NPHI .m3/m3               : NPHI
RHOB .g/cm3               : RHOB
PEF .b/e                  : PEF
GR .gAPI                  : GR
DTC .us/ft                : DTC
DTS .us/ft                : DTS
RDEP .ohm.m               : RDEP
RMED .ohm.m               : RMED
~Parameter
#==================================================================
~Ascii
# ...
 2290.4196777 13.000000000 12.421400070 12.250000954 48.281826019 0.0675000027 0.2188999951 2.4798998833 3.6271998882 60.392299652 92.388496399 176.52549744 2.3106000423 2.3020999432
 2290.5720215 13.000000000 12.401800156 12.250000954 52.181758881 0.0621999986 0.2150000036 2.4797999859 3.8076999187 62.677501678 90.396003723 173.61001587 2.1974999905 2.1995999813
 2290.7246094 13.000000000 12.441100121 12.250000954 51.333614349 0.0784913450 0.2044000030 2.5026884079 4.0327410698 65.971298218 90.150398254  -999.250000 2.0903878212 2.0806999207
 2290.8769531 13.000000000 12.440501213 12.250000954 47.215591431 0.0731153861 0.1982000023 2.4954328537 4.0582008362 69.642501831 91.717796326  -999.250000 2.0203533173 2.0462000370
 2291.0292969 13.000000000 12.423100471 12.250000954 48.257518768 0.0826708823 0.1899999976 2.5159611702 3.9959933758 69.687896729 93.537193298  -999.250000 1.9913150072 1.9951000214
 2291.1816406 13.000000000 12.392499924 12.250000954 46.603672028 0.0644999966 0.1947000027 2.4916999340 3.8046000004 67.140701294 95.028503418  -999.250000 2.0006999969 1.9644999504
 2291.3342285 13.000000000 12.408200264 12.250000954 46.557403564 0.0669809282 0.2034000009 2.5001773834 3.7853085995 66.560798645 95.893402100  -999.250000 2.0422360897 2.0125999451
 2291.4865723 13.000000000 12.450799942 12.250000954 49.007930756 0.0550908670 0.2117000073 2.4861183167 3.6657774448 67.445098877 96.168701172  -999.250000 2.0647881031 2.0336999893
 2291.6389160 13.000000000 12.420399666 12.250000954 52.512832642 0.0493934415 0.2136999965 2.4975874424 3.5272033215 66.264602661 95.181289673  -999.250000 2.1198737621 2.0650999546
 2291.7912598 13.000000000 12.476300240 12.250000954 49.260826111 0.0452999994 0.2039999962 2.4897000790 3.5292999744 63.515998840 94.649696350  -999.250000 2.1658999920 2.1261999607
 2291.9436035 13.000000000 12.457698822 12.250000954 52.718502045 0.0346999988 0.2014999986 2.4683001041 3.5497000217 62.325599670 93.896697998  -999.250000 2.2630999088 2.1761999130
 2292.0961914 13.000000000 12.448200226 12.250000954 48.616592407 0.0374899060 0.1983000040 2.4761147499 3.6873774529 61.409400940 92.253601074  -999.250000 2.3161146641 2.2421000004
 2292.2485352 13.000000000 12.419899940 12.250000954 54.410434723 0.0312177595 0.2020000070 2.4853582382 3.6111366749 60.001701355 90.922599792  -999.250000 2.2627837658 2.2530999184
 2292.4008789 13.000000000 12.427900314 12.250000954 51.955055237 0.0423000008 0.1949000061 2.5216000080 3.6963999271 61.780799866 90.842788696  -999.250000 2.1278998852 2.0926001072
 2292.5532227 13.000000000 12.424301147 12.250000954 55.986221313 0.0401000008 0.1949999928 2.5137000084 3.6858999729 69.639701843 91.491706848  -999.250000 2.0271000862 1.9742000103
 2292.7058105 13.000000000 12.427599907 12.250000954 55.978893280 0.0471019223 0.1930000037 2.5275022984 3.6841278076 77.743598938 93.140502930  -999.250000 1.9444171190 1.9381999969
 2292.8581543 13.000000000 12.430500984 12.250000954 56.733585358 0.0482777245 0.2085999995 2.5289812088 3.6389465332 80.264999390 94.916099548  -999.250000 1.9550879002 1.9246000051
 2293.0104980 13.000000000 12.425800323 12.250000954 59.792327881 0.0343924798 0.2211000025 2.5172688961 3.5432426929 79.054000854 94.523200989  -999.250000 1.9474382401 1.9305000305
 2293.1628418 13.000000000 12.425299644 12.250000954 58.566276550 0.0296999998 0.2248000056 2.4979000092 3.5074999332 78.381103516 93.690002441  -999.250000 1.9089000225 1.8571000099
 2293.3154297 13.000000000 12.426300049 12.250000954 64.963569641 0.0239227563 0.2205999941 2.4773154259 3.5558028221 80.346702576 93.997398376  -999.250000 1.8188362122 1.7941000462
 2293.4677734 13.000000000 12.427900314 12.250000954 63.736434937 0.0381142646 0.2146999985 2.4868192673 3.6822800636 83.312202454 94.347602844  -999.250000 1.7167898417 1.7007999420
 2293.6201172 13.000000000 12.446900368 12.250000954 69.989685059 0.0470337570 0.2239000052 2.4989526272 3.7320387363 83.593002319 96.905899048  -999.250000 1.7107332945 1.7101000547
 2293.7724609 13.000000000 12.438500404 12.250000954 61.506237030 0.0680999979 0.2242999971 2.5318999290 3.6314001083 79.748596191 97.970802307  -999.250000 1.8562999964 1.8203999996
 2293.9248047 13.000000000 12.474300385 12.250000954 70.505905151 0.0700000003 0.2228000015 2.5211000443 3.5332999229 74.497802734 98.511802673  -999.250000 1.9982000589 1.9746999741
 2294.0773926 13.000000000 12.467900276 12.250000954 62.629352570 0.0804799646 0.2269999981 2.5221509933 3.5771472454 70.087196350 97.385101318  -999.250000 2.1525938511 2.1010999680
 2294.2297363 13.000000000 12.489399910 12.250000954 60.426666260 0.0680139214 0.2321999967 2.4915339947 3.6066362858 66.962097168 96.218101501  -999.250000 2.2738764286 2.2132000923
 2294.3820801 13.000000000 12.463999748 12.250000954 55.409446716 0.0767000020 0.2360000014 2.5127999783 3.6918001175 64.412300110 94.827590942 175.82589722 2.5710999966 2.5295000076
 2294.5344238 13.000000000 12.461700439 12.250000954 50.137142181 0.0720999986 0.2161000073 2.5044000149 3.7657001019 61.717399597 92.913703918 171.65840149 2.7202000618 2.6756000519
 2294.6870117 13.000000000 12.453200340 12.250000954 52.283126831 0.0672817379 0.2057999969 2.5029733181 3.8388304710 58.969299316 90.263389587 166.23309326 2.7100882530 2.6714999676
 2294.8393555 13.000000000 12.450201035 12.250000954 48.387584686 0.0558907054 0.1928000003 2.4863166809 3.7952208519 58.477699280 87.653800964 162.69030762 2.6403181553 2.6210000515
 2294.9916992 13.000000000 12.437499046 12.250000954 45.595077515 0.0501140803 0.1715999991 2.4967157841 3.6836438179 59.780200958 86.855003357 161.54568481 2.5891575813 2.6231999397
 2295.1440430 13.000000000 12.445899963 12.250000954 42.686351776 0.0588999987 0.1642999947 2.5065000057 3.7109999657 58.393398285 86.780998230 164.06440735 2.5004000664 2.4839999676
 2295.2963867 13.000000000 12.442900658 12.250000954 45.437992096 0.0697000027 0.1617041528 2.5271000862 3.8199000359 54.745346069 87.820137024 169.35751343 2.4240000248 2.4014322758
 2295.4487305 13.000000000 12.486100197 12.250000954 43.233924866 0.0571000017 0.1756775528 2.5000000000 3.9500999451 54.089942932 89.147567749 174.09152222 2.4237999916 2.3797345161
 2295.6010742 13.000000000 12.443900108 12.250000954 43.753936768 0.0505999997 0.1684117019 2.4941000938 3.8861000538 57.028079987 90.035087585 173.14294434 2.4151999950 2.3933780193
 2295.7536621 13.000000000 12.443400383 12.250000954 42.492126465 0.0522000007 0.1684000045 2.4776999950 3.8477001190 53.683998108 90.373001099 170.08650208 2.4051001072 2.3408999443
 2295.9060059 13.000000000 12.455599785 12.250000954 45.269031525 0.0771000013 0.1682000011 2.5104000568 3.7834000587 46.755599976 90.341201782 167.89901733 2.3231999874 2.2906000614
 2296.0583496 13.000000000 12.466500282 12.250000954 51.468177795 0.0843999982 0.1754883230 2.5067999363 3.8645000458 50.546821594 90.619155884 168.68174744 2.3031001091 2.2656400204
 2296.2106934 13.000000000 12.439999580 12.250000954 50.532482147 0.0891999975 0.1808913350 2.5287001133 3.7871000767 58.978076935 90.409538269 171.73840332 2.3529000282 2.2802762985
 2296.3632813 13.000000000 12.439299583 12.250000954 49.730316162 0.0843999982 0.1758999974 2.5137999058 3.7809000015 60.514099121 90.828697205 177.12489319 2.4045999050 2.3496000767
 2296.5156250 13.000000000 12.437499046 12.250000954 51.739173889 0.0821999982 0.1761000007 2.5188999176 3.7843000889 60.104698181 91.045898438 178.39889526 2.4655001163 2.4203999043
 2296.6679688 13.000000000 12.449199677 12.250000954 49.706695557 0.0851999968 0.1758004725 2.5051000118 3.9307000637 64.249458313 90.176597595 177.18713379 2.4179999828 2.3789665699
 2296.8203125 13.000000000 12.452699661 12.250000954 47.897312164 0.0750999972 0.1860834956 2.4885001183 4.0229997635 67.397354126 89.938179016 176.92730713 2.3703000546 2.2787606716
 2296.9729004 13.000000000 12.447400093 12.250000954 50.491798401 0.0910999998 0.1886000037 2.5032000542 3.9976999760 66.235900879 89.531501770 178.12800598 2.2976999283 2.2630000114
