# LAS format log file from PETREL
# Project units are specified as depth units
#==================================================================
~Version information
VERS.   2.0:
WRAP.   NO:
#==================================================================
~Well
STRT .m      1110.2340088 :
STOP .m      3322.9296875 :
STEP .m     0.00000000 :
NULL .        -999.250000 :
COMP.           : COMPANY
WELL.  35/9-9   : WELL
FLD.            : FIELD
LOC.            : LOCATION
SRVC.           : SERVICE COMPANY
DATE.  2018-09-11 14:49:02   : Log Export Date {yyyy-MM-dd HH:mm:ss}
PROV.           : PROVINCE
UWI.   35/9-9   : UNIQUE WELL ID
API.            : API NUMBER
#==================================================================
~Curve
DEPT .m                   : DEPTH
Lithology_geolink ._      : Lithology_geolink
CALI .in                  : CALI
BS .in                    : BS
ROP .m/h                  : ROP
DRHO .g/cm3               : DRHO
NPHI .m3/m3               : NPHI
RHOB .g/cm3               : RHOB
PEF .b/e                  : PEF
GR .gAPI                  : GR
DTC .us/ft                : DTC
DTS .us/ft                : DTS
RDEP .ohm.m               : RDEP
RMED .ohm.m               : RMED
~Parameter
#==================================================================
~Ascii
# ...
 3175.5588379 5.0000000000 8.6287002563 8.5000000000 43.257217407 0.0001000000 0.1796000004 2.5337998867 3.7014999390 80.260803223 73.264602661 124.22059631 17.596277237 14.862299919
 3175.7111816 5.0000000000 8.6005001068 8.5000000000 41.838584900 0.0034000000 0.1871999949 2.5687999725 3.8789999485 81.970901489 71.703903198 120.49829865 20.821605682 20.220500946
 3175.8637695 5.0000000000 8.5999002457 8.5000000000 42.910758972 0.0088000000 0.1937000006 2.5852999687 3.9574000835 85.834701538 71.368202209 118.53730011 20.691331863 21.404399872
 3176.0161133 5.0000000000 8.5832004547 8.5000000000 41.367126465 0.0153000001 0.2022999972 2.5894000530 3.8447000980 87.686302185 71.749702454 118.71559906 17.710916519 20.651100159
 3176.1684570 5.0000000000 8.6091003418 8.5000000000 42.959316254 0.0189999994 0.2158000022 2.5757000446 3.7353000641 87.623596191 72.681503296 119.96990204 17.589559555 20.530599594
 3176.3208008 5.0000000000 8.6246004105 8.5000000000 41.006893158 0.0274000000 0.2011000067 2.5601999760 3.6830999851 85.457000732 73.669197083 121.38439941 12.709546089 14.114899635
 3176.4733887 5.0000000000 8.6237001419 8.5000000000 40.659446716 0.0313000008 0.1898999959 2.5385999680 3.7952001095 83.623298645 73.541603088 122.38819885 15.544154167 13.690699577
 3176.6257324 5.0000000000 8.6216001511 8.5000000000 54.554790497 0.0390000008 0.1914999932 2.5408000946 4.0036001205 84.264099121 73.531600952 122.17488861 16.342611313 17.892000198
 3176.7780762 5.0000000000 8.6230001450 8.5000000000 54.257873535 0.0366000012 0.1941000074 2.5457003117 4.0349001884 85.045501709 74.427001953 121.16719818 18.155271530 19.226999283
 3176.9304199 6.0000000000 8.6212997437 8.5000000000 51.233596802 0.0427000001 0.1782000065 2.5539999008 4.1388001442 87.930801392 74.554100037 120.96769714 17.511274338 19.069499969
 3177.0830078 6.0000000000 8.6175003052 8.5000000000 52.575458527 0.0442999974 0.2040999979 2.5476000309 4.1191000938 89.395202637 74.099502563 122.11260223 15.178997993 16.058599472
 3177.2353516 6.0000000000 8.6307001114 8.5000000000 50.697181702 0.0581000000 0.2038999945 2.5392000675 4.0441999435 89.280097961 73.817596436 123.81179047 11.531152725 11.354200363
 3177.3876953 6.0000000000 8.6170997620 8.5000000000 52.312664032 0.0637999997 0.1993000060 2.5234999657 3.9339001179 87.965599060 73.598701477 126.11029816 9.8234968185 9.4895000458
 3177.5400391 6.0000000000 8.6477003098 8.5000000000 54.381233215 0.0612999983 0.1976000071 2.5090999603 3.8640000820 86.004699707 73.359703064 128.58200073 12.191027641 11.550200462
 3177.6923828 5.0000000000 8.6519002914 8.5000000000 52.894355774 0.0527000017 0.2108999938 2.5078001022 4.0707998276 84.386001587 72.811798096 129.84689331 13.584292412 12.376600266
 3177.8449707 5.0000000000 8.6653995514 8.5000000000 57.161094666 0.0419000015 0.1919000000 2.5271000862 4.1501002312 85.569396973 71.739997864 129.35549927 16.886804581 15.503600121
 3177.9973145 6.0000000000 8.6349000931 8.5000000000 59.352691650 0.0520999990 0.1749999970 2.5638000965 4.2595000267 86.858100891 70.846199036 126.29389954 17.138883591 17.591199875
 3178.1496582 6.0000000000 8.6181001663 8.5000000000 57.290683746 0.0675999969 0.1710000038 2.6119000912 4.3751997948 89.728202820 70.812400818 121.26629639 17.580907822 15.963600159
 3178.3020020 6.0000000000 8.6630001068 8.5000000000 56.408794403 0.0750000030 0.1807000041 2.6308999062 4.6114997864 91.684097290 71.275703430 118.12049866 27.975538254 26.695299149
 3178.4545898 6.0000000000 8.6342000961 8.5000000000 58.760501862 0.0785999969 0.1770000011 2.6414000988 4.6816000938 93.074096680 72.714698792 120.22789764 18.940706253 11.570699692
 3178.6069336 6.0000000000 8.5978002548 8.5000000000 51.706367493 0.0768999979 0.1764999926 2.6177000999 4.5373997688 93.836997986 74.293701172 126.15930176 11.226299286 14.227299690
 3178.7592773 6.0000000000 8.5967998505 8.5000000000 54.733596802 0.0967999995 0.1714999974 2.6173999310 4.3557000160 92.560997009 75.009101868 130.68220520 16.641332626 18.422000885
 3178.9116211 6.0000000000 8.5895996094 8.5000000000 51.940944672 0.0979999974 0.1783999950 2.5931999683 4.3468999863 90.941802979 74.737297058 131.46339417 13.675683975 15.297300339
 3179.0642090 6.0000000000 8.5923995972 8.5000000000 48.794948578 0.1045000032 0.1946000010 2.5892999172 4.3366999626 91.587898254 74.537498474 130.61839294 16.402561188 13.248100281
 3179.2165527 6.0000000000 8.5998001099 8.5000000000 48.992782593 0.0956000015 0.1876000017 2.5817999840 4.3404998779 91.026397705 74.472000122 129.73350525 15.050714493 17.229900360
 3179.3688965 6.0000000000 8.5902996063 8.5000000000 46.741142273 0.0965000018 0.1926999986 2.5982000828 4.2894001007 90.480003357 74.702903748 128.55450439 15.121392250 16.810600281
 3179.5212402 6.0000000000 8.5896997452 8.5000000000 46.831039429 0.0978000015 0.1952999979 2.6094000340 4.2607998848 90.534400940 74.938102722 127.66690826 14.619327545 16.389999390
 3179.6738281 6.0000000000 8.5966997147 8.5000000000 46.871063232 0.1167000011 0.1969999969 2.6384000778 4.2767000198 93.625099182 74.609809875 127.79889679 15.506289482 17.091600418
 3179.8261719 6.0000000000 8.5968999863 8.5000000000 46.208332062 0.1058000028 0.2049999982 2.6470000744 4.8001999855 96.146499634 74.137199402 128.52099609 14.724198341 17.100900650
 3179.9785156 6.0000000000 8.6043996811 8.5000000000 44.622375488 0.1289000064 0.1929000020 2.7012000084 5.1669001579 95.799499512 73.571197510 128.56790161 14.534267426 15.364999771
 3180.1308594 6.0000000000 8.6421003342 8.5000000000 48.160434723 0.1190999970 0.1842000037 2.6961998940 5.5866999626 90.172401428 72.897796631 126.63819885 13.199896812 15.639599800
 3180.2832031 5.0000000000 8.6855001450 8.5000000000 48.467193604 0.1511999965 0.1570000052 2.6928999424 5.1291999817 84.076400757 70.968597412 121.90029144 9.5263385773 10.850299835
 3180.4357910 5.0000000000 8.6768999100 8.5000000000 47.299869537 0.1353000104 0.1477999985 2.6398999691 4.8428001404 77.287399292 67.879898071 115.48539734 12.324870110 8.2257995605
 3180.5881348 16.000000000 8.6569004059 8.5000000000 49.576442719 0.1366000026 0.1262000054 2.6206998825 4.4692997932 72.377502441 65.191902161 110.32389832 22.692228317 20.191499710
 3180.7404785 16.000000000 8.6295003891 8.5000000000 48.556758881 0.1351999938 0.1322000027 2.6112999916 4.3631000519 71.013603210 64.586799622 108.35600281 25.079015732 21.238399506
 3180.8928223 16.000000000 8.6449003220 8.5000000000 45.805446625 0.1430999935 0.1468999982 2.5982999802 4.3118000031 74.462196350 65.620002747 110.70610046 26.459190369 27.514099121
 3181.0454102 16.000000000 8.6195001602 8.5000000000 41.760826111 0.1509999931 0.1389999986 2.5945000648 4.2399001122 76.671501160 67.418899536 113.07370758 26.049694061 23.829399109
 3181.1977539 5.0000000000 8.6354999542 8.5000000000 40.960304260 0.1260000020 0.1537999958 2.5776998997 4.4334001541 77.764900208 69.683998108 117.13220215 16.825370789 16.715400696
 3181.3500977 5.0000000000 8.6178998947 8.5000000000 40.533794403 0.1213999987 0.1759999990 2.5903999805 4.4274001122 79.415496826 71.657897949 120.08149719 15.683816910 20.676700592
 3181.5024414 5.0000000000 8.6097002029 8.5000000000 43.802165985 0.1156999990 0.1773999929 2.6150000095 4.9067001343 84.548599243 72.857902527 122.49179077 14.756368637 18.577299118
 3181.6550293 5.0000000000 8.6050996780 8.5000000000 42.854331970 0.1080000028 0.1703000069 2.6175999641 4.8866000175 88.528099060 73.741096497 124.81369019 12.559786797 14.097200394
 3181.8073730 5.0000000000 8.6043996811 8.5000000000 42.672897339 0.1064999998 0.1736000031 2.5975999832 4.8287000656 87.711997986 74.185897827 126.25140381 13.647377968 14.123800278
 3181.9597168 5.0000000000 8.6225996017 8.5000000000 42.425853729 0.1088000014 0.1799000055 2.5480000973 4.3282999992 85.073303223 74.147903442 126.24910736 14.629007339 16.287399292
 3182.1120605 4.0000000000 8.6250000000 8.5000000000 41.866142273 0.1346000135 0.1704999954 2.5366001129 3.9697000980 80.124298096 74.107200623 125.50569916 13.449806213 16.731300354
