# LAS format log file from PETREL
# Project units are specified as depth units
#==================================================================
~Version information
VERS.   2.0:
WRAP.   NO:
#==================================================================
~Well
STRT .m      1003.2490234 :
STOP .m      2879.9025879 :
STEP .m     0.00000000 :
NULL .        -999.250000 :
COMP.           : COMPANY
WELL.  35/9-2   : WELL
FLD.            : FIELD
LOC.            : LOCATION
SRVC.           : SERVICE COMPANY
DATE.  2018-09-11 14:49:01   : Log Export Date {yyyy-MM-dd HH:mm:ss}
PROV.           : PROVINCE
UWI.   35/9-2   : UNIQUE WELL ID
API.            : API NUMBER
#==================================================================
~Curve
DEPT .m                   : DEPTH
Lithology_geolink ._      : Lithology_geolink
DCAL .in                  : DCAL
CALI .in                  : CALI
BS .in                    : BS
DRHO .g/cm3               : DRHO
SGR .gAPI                 : SGR
NPHI .m3/m3               : NPHI
RHOB .g/cm3               : RHOB
GR .gAPI                  : GR
DTC .us/ft                : DTC
DTS .us/ft                : DTS
RDEP .ohm.m               : RDEP
SP .mV                    : SP
RSHA .ohm.m               : RSHA
RMIC .ohm.m               : RMIC
RMED .ohm.m               : RMED
~Parameter
#==================================================================
~Ascii
# ...
 1505.1022949 6.0000000000 0.8590001464 13.108999252 12.250000954 0.0082063256  -999.250000  -999.250000 2.3679089546 88.126548767  -999.250000  -999.250000 1.2940590382 165.46629333  -999.250000  -999.250000 1.8492889404
 1505.2546387 6.0000000000 0.8135214448 13.063520432 12.250000954 0.0099735213  -999.250000  -999.250000 2.3685491085 90.376060486  -999.250000  -999.250000 1.3034939766 165.79240417  -999.250000  -999.250000 1.8408479691
 1505.4071045 6.0000000000 0.7526988387 13.002698898 12.250000954 0.0124361599  -999.250000  -999.250000 2.3710849285 91.374816895  -999.250000  -999.250000 1.3177690506 166.02980042  -999.250000  -999.250000 1.8494410515
 1505.5594482 6.0000000000 0.7295923233 12.979592323 12.250000954 0.0125828004  -999.250000  -999.250000 2.3742709160 96.436653137  -999.250000  -999.250000 1.3277829885 165.97850037  -999.250000  -999.250000 1.8772610426
 1505.7119141 6.0000000000 0.7270001769 12.977000237 12.250000954 0.0116957203  -999.250000  -999.250000 2.3774430752 92.060806274  -999.250000  -999.250000 1.3371969461 165.88319397  -999.250000  -999.250000 1.9163889885
 1505.8642578 6.0000000000 0.7270001769 12.977000237 12.250000954 0.0106955599  -999.250000  -999.250000 2.3787150383 89.061096191  -999.250000  -999.250000 1.3482149839 165.94039917  -999.250000  -999.250000 1.9563620090
 1506.0167236 6.0000000000 0.7270001769 12.977000237 12.250000954 0.0080276197  -999.250000  -999.250000 2.3736379147 87.562950134  -999.250000  -999.250000 1.3572510481 166.02879333  -999.250000  -999.250000 1.9838349819
 1506.1690674 6.0000000000 0.7270001769 12.977000237 12.250000954 0.0051466222  -999.250000  -999.250000 2.3674058914 92.562767029  -999.250000  -999.250000 1.3654830456 166.18009949  -999.250000  -999.250000 1.9852169752
 1506.3215332 6.0000000000 0.7270001769 12.977000237 12.250000954 0.0045299279  -999.250000  -999.250000 2.3656430244 96.376808167  -999.250000  -999.250000 1.3700360060 166.11819458  -999.250000  -999.250000 1.9626079798
 1506.4738770 6.0000000000 0.7270001769 12.977000237 12.250000954 0.0048873122  -999.250000  -999.250000 2.3663051128 100.49710083  -999.250000  -999.250000 1.3698079586 165.89250183  -999.250000  -999.250000 1.9363059998
 1506.6263428 6.0000000000 0.7270001769 12.977000237 12.250000954 0.0058346079  -999.250000  -999.250000 2.3656349182 96.878303528  -999.250000  -999.250000 1.3666050434 165.70269775  -999.250000  -999.250000 1.9236600399
 1506.7786865 6.0000000000 0.7270001769 12.977000237 12.250000954 0.0113635203  -999.250000  -999.250000 2.3664240837 99.687339783  -999.250000  -999.250000 1.3603299856 165.39540100  -999.250000  -999.250000 1.9181280136
 1506.9310303 6.0000000000 0.7270001769 12.977000237 12.250000954 0.0134227602  -999.250000  -999.250000 2.3688540459 96.312950134  -999.250000  -999.250000 1.3546450138 165.16130066  -999.250000  -999.250000 1.9123409986
 1507.0834961 6.0000000000 0.7203255296 12.970329285 12.250000954 0.0104847997  -999.250000  -999.250000 2.3690528870 97.743606567  -999.250000  -999.250000 1.3556699753 165.19039917  -999.250000  -999.250000 1.9136170149
 1507.2358398 6.0000000000 0.7128028870 12.962800980 12.250000954 0.0099471388  -999.250000  -999.250000 2.3694770336 93.438995361  -999.250000  -999.250000 1.3628419638 165.17449951  -999.250000  -999.250000 1.9274280071
 1507.3883057 6.0000000000 0.6655360460 12.915538788 12.250000954 0.0095231393  -999.250000  -999.250000 2.3635709286 94.247055054  -999.250000  -999.250000 1.3750419617 165.18249512  -999.250000  -999.250000 1.9443819523
 1507.5406494 6.0000000000 0.6042718887 12.854268074 12.250000954 0.0054177102  -999.250000  -999.250000 2.3521609306 90.749259949  -999.250000  -999.250000 1.3931969404 165.29769897  -999.250000  -999.250000 1.9605430365
 1507.6931152 6.0000000000 0.5807076097 12.830710411 12.250000954 0.0080456575  -999.250000  -999.250000 2.3652009964 89.993721008  -999.250000  -999.250000 1.4100699425 165.35499573  -999.250000  -999.250000 1.9820519686
 1507.8454590 6.0000000000 0.5780001283 12.828000069 12.250000954 0.0205665398  -999.250000  -999.250000 2.4104270935 85.372413635  -999.250000  -999.250000 1.4160870314 165.46629333  -999.250000  -999.250000 2.0379989147
 1507.9979248 16.000000000 0.5196151733 12.769620895 12.250000954 0.0330609418  -999.250000  -999.250000 2.4533519745 83.872299194  -999.250000  -999.250000 1.4154510498 165.58380127  -999.250000  -999.250000 2.1168200970
 1508.1502686 16.000000000 0.5121831894 12.762181282 12.250000954 0.0364824496  -999.250000  -999.250000 2.4554429054 79.939872742  -999.250000  -999.250000 1.4112390280 165.82060242  -999.250000  -999.250000 2.1296169758
 1508.3027344 16.000000000 0.5751276016 12.825129509 12.250000954 0.0309241097  -999.250000  -999.250000 2.4186038971 82.700073242  -999.250000  -999.250000 1.4036689997 165.95129395  -999.250000  -999.250000 2.0481910706
 1508.4550781 16.000000000 0.6480473876 12.898051262 12.250000954 0.0235124808  -999.250000  -999.250000 2.3861110210 88.883102417  -999.250000  -999.250000 1.3955550194 166.09869385  -999.250000  -999.250000 1.9482090473
 1508.6075439 6.0000000000 0.7061901093 12.956190109 12.250000954 0.0167546198  -999.250000  -999.250000 2.3714230061 93.937835693  -999.250000  -999.250000 1.3816690445 166.20140076  -999.250000  -999.250000 1.8972610235
 1508.7598877 6.0000000000 0.7251967788 12.975200653 12.250000954 0.0098688230  -999.250000  -999.250000 2.3635709286 94.064643860  -999.250000  -999.250000 1.3612250090 166.14019775  -999.250000  -999.250000 1.8898390532
 1508.9122314 6.0000000000 0.7073888779 12.957390785 12.250000954 0.0041194740  -999.250000  -999.250000 2.3566949368 96.753097534  -999.250000  -999.250000 1.3446910381 166.00770569  -999.250000  -999.250000 1.8889820576
 1509.0646973 6.0000000000 0.6786251068 12.928629875 12.250000954 0.0010338490  -999.250000  -999.250000 2.3549349308 99.559364319  -999.250000  -999.250000 1.3338279724 165.78590393  -999.250000  -999.250000 1.8871519566
 1509.2170410 6.0000000000 0.6562060714 12.906208992 12.250000954 -0.001139013  -999.250000  -999.250000 2.3555419445 97.429450989  -999.250000  -999.250000 1.3243570328 165.64019775  -999.250000  -999.250000 1.8947349787
 1509.3695068 6.0000000000 0.6369199753 12.886919975 12.250000954 -0.002244575  -999.250000  -999.250000 2.3569540977 93.060523987  -999.250000  -999.250000 1.3160849810 165.61199951  -999.250000  -999.250000 1.9059890509
 1509.5218506 6.0000000000 0.6234654784 12.873470306 12.250000954 -0.001695509  -999.250000  -999.250000 2.3609919548 89.566726685  -999.250000  -999.250000 1.3105340004 165.48179626  -999.250000  -999.250000 1.9057780504
 1509.6743164 6.0000000000 0.6212387085 12.871237755 12.250000954 -0.000278667  -999.250000  -999.250000 2.3685541153 93.879219055  -999.250000  -999.250000 1.3079210520 165.33520508  -999.250000  -999.250000 1.8878819942
 1509.8266602 6.0000000000 0.6336926818 12.883689880 12.250000954 -0.000059800  -999.250000  -999.250000 2.3708930016 97.002357483  -999.250000  -999.250000 1.3075300455 165.30000305  -999.250000  -999.250000 1.8631320000
 1509.9791260 6.0000000000 0.6487417817 12.898739815 12.250000954 -0.000357310  -999.250000  -999.250000 2.3701009750 98.377174377  -999.250000  -999.250000 1.3083039522 165.19569397  -999.250000  -999.250000 1.8486340046
 1510.1314697 6.0000000000 0.6584349275 12.908430099 12.250000954 0.0011386130  -999.250000  -999.250000 2.3739390373 101.62234497  -999.250000  -999.250000 1.3084700108 165.20829773  -999.250000  -999.250000 1.8502219915
 1510.2839355 6.0000000000 0.6535062790 12.903510094 12.250000954 0.0047464129  -999.250000  -999.250000 2.3798251152 98.550987244  -999.250000  -999.250000 1.3093630075 165.19670105  -999.250000  -999.250000 1.8684970140
 1510.4362793 6.0000000000 0.6402578950 12.890259743 12.250000954 0.0074360739  -999.250000  -999.250000 2.3758161068 92.866638184  -999.250000  -999.250000 1.3114949465 165.18949890  -999.250000  -999.250000 1.8927789927
 1510.5887451 6.0000000000 0.6272240281 12.877220154 12.250000954 0.0067481138  -999.250000  -999.250000 2.3613510132 87.621215820  -999.250000  -999.250000 1.3123569489 165.48049927  -999.250000  -999.250000 1.9019809961
