# LAS format log file from PETREL
# Project units are specified as depth units
#==================================================================
~Version information
VERS.   2.0:
WRAP.   NO:
#==================================================================
~Well
STRT .m      1003.2490234 :
STOP .m      2879.9025879 :
STEP .m     0.00000000 :
NULL .        -999.250000 :
COMP.           : COMPANY
WELL.  35/9-2   : WELL
FLD.            : FIELD
LOC.            : LOCATION
SRVC.           : SERVICE COMPANY
DATE.  2018-09-11 14:49:01   : Log Export Date {yyyy-MM-dd HH:mm:ss}
PROV.           : PROVINCE
UWI.   35/9-2   : UNIQUE WELL ID
API.            : API NUMBER
#==================================================================
~Curve
DEPT .m                   : DEPTH
Lithology_geolink ._      : Lithology_geolink
DCAL .in                  : DCAL
CALI .in                  : CALI
BS .in                    : BS
DRHO .g/cm3               : DRHO
SGR .gAPI                 : SGR
NPHI .m3/m3               : NPHI
RHOB .g/cm3               : RHOB
GR .gAPI                  : GR
DTC .us/ft                : DTC
DTS .us/ft                : DTS
RDEP .ohm.m               : RDEP
SP .mV                    : SP
RSHA .ohm.m               : RSHA
RMIC .ohm.m               : RMIC
RMED .ohm.m               : RMED
~Parameter
#==================================================================
~Ascii
 1003.2490234 5.0000000000 -4.722072124 12.777930260 17.500000000 -0.142904207  -999.250000  -999.250000 1.9472969770 61.938201904  -999.250000  -999.250000 1.1551439762 164.10710144  -999.250000  -999.250000 0.9004204273
 1003.4014282 5.0000000000 -4.744382858 12.755620003 17.500000000 -0.053733919  -999.250000  -999.250000 1.9284620285 63.906108856  -999.250000  -999.250000 1.0005170107 164.09700012  -999.250000  -999.250000 0.9004871249
 1003.5538330 5.0000000000 -4.784080029 12.715920448 17.500000000 -0.019480020  -999.250000  -999.250000 1.9311820269 65.750076294  -999.250000  -999.250000 0.7452983856 164.08700562  -999.250000  -999.250000 0.9005537033
 1003.7062378 5.0000000000 -4.807600975 12.692399979 17.500000000 -0.018408591  -999.250000  -999.250000 1.9077969790 65.999969482  -999.250000  -999.250000 0.6048088074 164.07699585  -999.250000  -999.250000 0.9006202817
 1003.8586426 5.0000000000 -4.665613174 12.834389687 17.500000000 -0.025606509  -999.250000  -999.250000 1.8181689978 74.000633240  -999.250000  -999.250000 0.5535537004 164.06700134  -999.250000  -999.250000 0.9006869793
 1004.0110474 6.0000000000 -3.343736887 14.156259537 17.500000000 -0.033791032  -999.250000  -999.250000 1.6501820087 76.690017700  -999.250000  -999.250000 0.6996073127 164.05700684  -999.250000  -999.250000 0.9007536173
 1004.1634521 6.0000000000 -0.625511229 16.874490738 17.500000000 -0.037376091  -999.250000  -999.250000 1.4759089947 80.875076294  -999.250000  -999.250000 0.9091405869 163.42559814  -999.250000  -999.250000 0.9008203149
 1004.3158569 6.0000000000 2.1298470497 19.629850388 17.500000000 -0.035557691  -999.250000  -999.250000 1.3606530428 81.314117432  -999.250000  -999.250000 1.0315740108 162.09379578  -999.250000  -999.250000 0.9008868933
 1004.4682617 6.0000000000 4.1467609406 21.646759033 17.500000000 -0.033451460  -999.250000  -999.250000 1.3090879917 84.312866211  -999.250000  -999.250000 1.0804810524 161.11509705  -999.250000  -999.250000 0.9009535909
 1004.6206665 6.0000000000 5.0172839165 22.517280579 17.500000000 -0.032166060  -999.250000  -999.250000 1.2933230400 87.750633240  -999.250000  -999.250000 0.9560887218 160.82820129  -999.250000  -999.250000 0.9468814731
 1004.7730713 6.0000000000 5.2176990509 22.717697144 17.500000000 -0.031642739  -999.250000  -999.250000 1.2867051363 89.062500000  -999.250000  -999.250000 0.8084087968 160.69580078  -999.250000  -999.250000 1.0391139984
 1004.9254761 6.0000000000 5.3397731781 22.839769363 17.500000000 -0.033554830  -999.250000  -999.250000 1.2802289724 88.999122620  -999.250000  -999.250000 0.7503355742 160.47399902  -999.250000  -999.250000 1.1223520041
 1005.0778809 6.0000000000 5.3749995232 22.875001907 17.500000000 -0.037217170  -999.250000  -999.250000 1.2746510506 86.875038147  -999.250000  -999.250000 0.7908855081 160.64100647  -999.250000  -999.250000 1.1662089825
 1005.2302246 6.0000000000 5.3749995232 22.875001907 17.500000000 -0.039131839  -999.250000  -999.250000 1.2765100002 85.937629700  -999.250000  -999.250000 0.8705465794 160.96539307  -999.250000  -999.250000 1.1849230528
 1005.3826294 6.0000000000 5.3749995232 22.875001907 17.500000000 -0.039112769  -999.250000  -999.250000 1.2858769894 86.312469482  -999.250000  -999.250000 0.9168071747 160.63290405  -999.250000  -999.250000 1.1994669437
 1005.5350342 6.0000000000 5.3749995232 22.875001907 17.500000000 -0.036914561  -999.250000  -999.250000 1.2938979864 89.124687195  -999.250000  -999.250000 0.9394956231 160.16279602  -999.250000  -999.250000 1.1987340450
 1005.6874390 6.0000000000 5.3749995232 22.875001907 17.500000000 -0.032895721  -999.250000  -999.250000 1.2933249474 88.062652588  -999.250000  -999.250000 0.9571763277 160.05000305  -999.250000  -999.250000 1.2007340193
 1005.8398438 6.0000000000 5.3749995232 22.875001907 17.500000000 -0.027948940  -999.250000  -999.250000 1.2882339954 88.437049866  -999.250000  -999.250000 0.9962266088 159.94569397  -999.250000  -999.250000 1.2176109552
 1005.9922485 6.0000000000 5.3749995232 22.875001907 17.500000000 -0.023008831  -999.250000  -999.250000 1.2912900448 86.440017700  -999.250000  -999.250000 1.1331310272 159.82820129  -999.250000  -999.250000 1.2281229496
 1006.1446533 6.0000000000 5.3620729446 22.862070084 17.500000000 -0.016281189  -999.250000  -999.250000 1.3207730055 90.686973572  -999.250000  -999.250000 1.3478189707 159.69580078  -999.250000  -999.250000 1.2404160500
 1006.2970581 6.0000000000 5.3604240417 22.860420227 17.500000000 -0.011962550  -999.250000  -999.250000 1.3653600216 87.375396729  -999.250000  -999.250000 1.5256570578 159.47399902  -999.250000  -999.250000 1.2714509964
 1006.4494629 6.0000000000 5.0912895203 22.591287613 17.500000000 -0.011357280  -999.250000  -999.250000 1.4225929976 88.124832153  -999.250000  -999.250000 1.6742990017 159.11970520  -999.250000  -999.250000 1.3057559729
 1006.6018677 6.0000000000 4.6550202370 22.155019760 17.500000000 -0.008611099  -999.250000  -999.250000 1.5054210424 86.439956665  -999.250000  -999.250000 1.7795499563 158.85639954  -999.250000  -999.250000 1.3469129801
 1006.7542725 6.0000000000 4.0747032166 21.574699402 17.500000000 -0.003592644  -999.250000  -999.250000 1.6124650240 91.687370300  -999.250000  -999.250000 1.7302670479 158.38310242  -999.250000  -999.250000 1.4030820131
 1006.9066772 6.0000000000 3.1674230099 20.667419434 17.500000000 -0.002232263  -999.250000  -999.250000 1.6870620251 88.062118530  -999.250000  -999.250000 1.6061069965 158.01719666  -999.250000  -999.250000 1.4566689730
 1007.0590820 6.0000000000 2.7490179539 20.249015808 17.500000000 -0.006466683  -999.250000  -999.250000 1.6611419916 87.125022888  -999.250000  -999.250000 1.5352849960 158.33450317  -999.250000  -999.250000 1.4694360495
 1007.2114868 6.0000000000 3.2100727558 20.710069656 17.500000000 -0.010627410  -999.250000  -999.250000 1.5617250204 82.376197815  -999.250000  -999.250000 1.5506249666 158.71539307  -999.250000  -999.250000 1.4186999798
 1007.3638306 6.0000000000 3.4733920097 20.973390579 17.500000000 -0.012721430  -999.250000  -999.250000 1.4704200029 85.874687195  -999.250000  -999.250000 1.6314619780 158.80000305  -999.250000  -999.250000 1.3317550421
 1007.5162354 6.0000000000 3.8908538818 21.390850067 17.500000000 -0.011689010  -999.250000  -999.250000 1.4250069857 84.875350952  -999.250000  -999.250000 1.6369600296 158.80000305  -999.250000  -999.250000 1.2642869949
 1007.6686401 6.0000000000 4.7279620171 22.227960587 17.500000000 -0.008312819  -999.250000  -999.250000 1.4141349792 86.124809265  -999.250000  -999.250000 1.4902160168 158.69569397  -999.250000  -999.250000 1.2544339895
 1007.8210449 6.0000000000 5.2097868919 22.709791183 17.500000000 -0.006338450  -999.250000  -999.250000 1.4120459557 85.126136780  -999.250000  -999.250000 1.3109220266 158.47390747  -999.250000  -999.250000 1.2818590403
 1007.9734497 6.0000000000 5.3335528374 22.833549500 17.500000000 -0.008919211  -999.250000  -999.250000 1.4013359547 90.375137329  -999.250000  -999.250000 1.2031929493 158.22399902  -999.250000  -999.250000 1.2900530100
 1008.1258545 6.0000000000 5.3680028915 22.868001938 17.500000000 -0.015129180  -999.250000  -999.250000 1.3845851421 90.625183105  -999.250000  -999.250000 1.2030379772 158.28669739  -999.250000  -999.250000 1.2683919668
 1008.2782593 6.0000000000 5.3749995232 22.875001907 17.500000000 -0.022128960  -999.250000  -999.250000 1.3914860487 91.747650146  -999.250000  -999.250000 1.2813980579 158.38929749  -999.250000  -999.250000 1.2479989529
 1008.4306641 6.0000000000 5.2253065109 22.725311279 17.500000000 -0.029128740  -999.250000  -999.250000 1.4193270206 87.249687195  -999.250000  -999.250000 1.3507670164 158.32820129  -999.250000  -999.250000 1.2400649786
 1008.5830688 6.0000000000 5.1932888031 22.693290710 17.500000000 -0.032375880  -999.250000  -999.250000 1.4306449890 83.873252869  -999.250000  -999.250000 1.3600889444 158.30000305  -999.250000  -999.250000 1.2235070467
 1008.7354736 6.0000000000 5.3198928833 22.819889069 17.500000000 -0.029724151  -999.250000  -999.250000 1.4020340443 80.062683105  -999.250000  -999.250000 1.3298540115 158.50849915  -999.250000  -999.250000 1.1908570528
