# LAS format log file from PETREL
# Project units are specified as depth units
#==================================================================
~Version information
VERS.   2.0:
WRAP.   NO:
#==================================================================
~Well
STRT .m      1003.2490234 :
STOP .m      2879.9025879 :
STEP .m     0.00000000 :
NULL .        -999.250000 :
COMP.           : COMPANY
WELL.  35/9-2   : WELL
FLD.            : FIELD
LOC.            : LOCATION
SRVC.           : SERVICE COMPANY
DATE.  2018-09-11 14:49:01   : Log Export Date {yyyy-MM-dd HH:mm:ss}
PROV.           : PROVINCE
UWI.   35/9-2   : UNIQUE WELL ID
API.            : API NUMBER
#==================================================================
~Curve
DEPT .m                   : DEPTH
Lithology_geolink ._      : Lithology_geolink
DCAL .in                  : DCAL
CALI .in                  : CALI
BS .in                    : BS
DRHO .g/cm3               : DRHO
SGR .gAPI                 : SGR
NPHI .m3/m3               : NPHI
RHOB .g/cm3               : RHOB
GR .gAPI                  : GR
DTC .us/ft                : DTC
DTS .us/ft                : DTS
RDEP .ohm.m               : RDEP
SP .mV                    : SP
RSHA .ohm.m               : RSHA
RMIC .ohm.m               : RMIC
RMED .ohm.m               : RMED
~Parameter
#==================================================================
~Ascii
# ...
 2875.3305664  -999.250000 -0.062420849 8.4375791550 8.5000000000 0.1102306992 113.74500275 0.1587219983 2.7711749077 145.84948730  -999.250000  -999.250000 127.15049744 -108.8249969  -999.250000  -999.250000 331.97378540
 2875.4829102  -999.250000 -0.095681183 8.4043188095 8.5000000000 0.0898463130 113.74500275 0.1596830934 2.7542209625 142.16813660  -999.250000  -999.250000 78.700347900 -110.3095016  -999.250000  -999.250000 348.90521240
 2875.6354980  -999.250000 -0.054814331 8.4451856613 8.5000000000 0.0774210691 113.74500275 0.1635193974 2.7226729393 143.48527527  -999.250000  -999.250000 56.921451569 -111.6442032  -999.250000  -999.250000 355.37811279
 2875.7878418  -999.250000 -0.050943371 8.4490566254 8.5000000000 0.0994155407 113.74500275 0.1665319949 2.7567679882 139.49400330  -999.250000  -999.250000 96.147621155 -113.0729980  -999.250000  -999.250000 348.09570313
 2875.9401855  -999.250000 -0.057884220 8.4421157837 8.5000000000 0.1123858988 113.74500275 0.1661186069 2.8023550510 139.93618774  -999.250000  -999.250000 171.64930725 -114.4841003  -999.250000  -999.250000 333.08670044
 2876.0925293  -999.250000 -0.005880356 8.4941196442 8.5000000000 0.0796176270 113.74500275 0.1610191017 2.7657608986 140.80818176  -999.250000  -999.250000 154.45350647 -115.9564972  -999.250000  -999.250000 310.67788696
 2876.2451172  -999.250000 0.0247278195 8.5247278214 8.5000000000 0.0636413693 113.74500275 0.1563013047 2.7525188923 142.29284668  -999.250000  -999.250000 102.55370331 -117.5613022  -999.250000  -999.250000 287.16329956
 2876.3974609  -999.250000 0.0290002804 8.5290002823 8.5000000000 0.0848404393 113.74500275 0.1540621072 2.7961220741 141.41018677  -999.250000  -999.250000 78.884552002 -119.2817993  -999.250000  -999.250000 274.80218506
 2876.5498047  -999.250000 0.0290002804 8.5290002823 8.5000000000 0.0901070237 113.74500275 0.1538428962 2.7856180668 145.26336670  -999.250000  -999.250000 108.82330322 -121.2399979  -999.250000  -999.250000 283.19171143
 2876.7021484  -999.250000 0.0290002804 8.5290002823 8.5000000000 0.0665257573 113.74500275 0.1541756988 2.6902709007 144.93014526  -999.250000  -999.250000 94.921020508 -122.9133987  -999.250000  -999.250000 309.53619385
 2876.8544922  -999.250000 -0.065253258 8.4347467422 8.5000000000 0.0433555096 113.74500275 0.1528576016 2.6022970676 145.69807434  -999.250000  -999.250000 60.375820160 -124.4716034  -999.250000  -999.250000 342.80938721
 2877.0070801  -999.250000 -0.140249297 8.3597507477 8.5000000000 0.0482877195 113.74500275 0.1518431008 2.5769090652 137.00305176  -999.250000  -999.250000 65.732322693 -126.0450058  -999.250000  -999.250000 370.24429321
 2877.1594238  -999.250000 -0.114635505 8.3853645325 8.5000000000 0.0732775927 113.74500275 0.1517765969 2.6121430397 131.59346008  -999.250000  -999.250000 79.232261658 -127.5878983  -999.250000  -999.250000 381.70318604
 2877.3117676  -999.250000 -0.119541198 8.3804588318 8.5000000000 0.1052645966 113.74500275 0.1555662006 2.7030210495 127.70639801  -999.250000  -999.250000 73.616493225 -129.0737000  -999.250000  -999.250000 372.49179077
 2877.4641113  -999.250000 -0.088011742 8.4119882584 8.5000000000 0.1183298975 113.74500275 0.1610126942 2.8076839447 127.70610046  -999.250000  -999.250000 81.113029480 -130.3804932  -999.250000  -999.250000 346.03118896
 2877.6166992  -999.250000 -0.057175640 8.4428243637 8.5000000000 0.1036193967 113.74500275 0.1622200012 2.8392629623 127.70610046  -999.250000  -999.250000 77.758872986 -131.9418945  -999.250000  -999.250000 314.76528931
 2877.7690430  -999.250000 -0.044292450 8.4557075500 8.5000000000 0.0927387625 113.74500275 0.1575874984 2.8387389183 127.70610046  -999.250000  -999.250000 57.610080719 -133.6488953  -999.250000  -999.250000 297.21749878
 2877.9213867  -999.250000 -0.079963677 8.4200363159 8.5000000000 0.0969609395 113.74500275 0.1505188048 2.8488759995 127.70610046  -999.250000  -999.250000 69.695999146 -135.3101044  -999.250000  -999.250000 298.11370850
 2878.0737305  -999.250000 -0.173794717 8.3262052536 8.5000000000 0.0974005237 113.74500275 0.1478382051 2.8477571011 127.70610046  -999.250000  -999.250000 126.60649872 -136.8240967  -999.250000  -999.250000 315.09060669
 2878.2263184  -999.250000 -0.210602790 8.2893972397 8.5000000000 0.0903170705 113.74500275 0.1487922072 2.8296048641 127.70610046  -999.250000  -999.250000 111.15679932 -138.1307983  -999.250000  -999.250000 350.42779541
 2878.3786621  -999.250000 -0.201286286 8.2987136841 8.5000000000 0.0853729919 113.74500275 0.1512147039 2.8032519817 127.70610046  -999.250000  -999.250000 90.786712646 -139.4839935  -999.250000  -999.250000 397.67980957
 2878.5310059  -999.250000 -0.228247598 8.2717523575 8.5000000000 0.0857793540 113.74500275 0.1521887928 2.8015110493 127.70610046  -999.250000  -999.250000 80.390708923 -140.9557037  -999.250000  -999.250000 445.43869019
 2878.6833496  -999.250000 -0.263550788 8.2364492416 8.5000000000 0.0854651481 113.74500275 0.1515458971 2.8047540188 127.70610046  -999.250000  -999.250000 56.666240692 -142.6647034  -999.250000  -999.250000 481.99951172
 2878.8356934  -999.250000 -0.272000313 8.2279996872 8.5000000000 0.0831454471 113.74500275 0.1506593972 2.8046178818 127.70610046  -999.250000  -999.250000 54.391601563 -144.6091003  -999.250000  -999.250000 503.95040894
 2878.9882813  -999.250000 -0.287831306 8.2121686935 8.5000000000 0.0896114185 113.74500275 0.1516564041 2.8176391125 127.70610046  -999.250000  -999.250000 79.710296631 -146.5032959  -999.250000  -999.250000 496.54251099
 2879.1406250  -999.250000 -0.305710793 8.1942892075 8.5000000000 0.0946356729 113.74500275 0.1556079984 2.8183279037 127.70610046  -999.250000  -999.250000 84.794563293 -148.3856049  -999.250000  -999.250000 461.25479126
 2879.2929688  -999.250000 -0.310000390 8.1899995804 8.5000000000 0.0924849734 113.74500275 0.1575741023 2.8092350960 127.70610046  -999.250000  -999.250000 107.05059814 -150.2539063  -999.250000  -999.250000 430.49011230
 2879.4453125  -999.250000 -0.325429052 8.1745710373 8.5000000000 0.0819390714 113.74500275 0.1689592004 2.7960457802 127.70610046  -999.250000  -999.250000 123.32379913 -152.3455048  -999.250000  -999.250000 420.44918823
 2879.5979004  -999.250000 -0.342822105 8.1571779251 8.5000000000 0.0743997693 113.74500275 0.1934958994 2.7781050205 127.70610046  -999.250000  -999.250000 96.919380188 -154.1342010  -999.250000  -999.250000 425.26458740
 2879.7502441  -999.250000 -0.362827301 8.1371726990 8.5000000000 0.0772919133 113.74500275 0.2227233946 2.7664990425 127.70610046  -999.250000  -999.250000 77.411132813 -155.6159058  -999.250000  -999.250000 426.91299438
 2879.9025879  -999.250000 -0.380715400 8.1192846298 8.5000000000 0.0821029395 113.74500275 0.2406398952 2.7563130856 127.70610046  -999.250000  -999.250000 62.641010284 -157.1777039  -999.250000  -999.250000 425.75628662
