# LAS format log file from PETREL
# Project units are specified as depth units
#==================================================================
~Version information
VERS.   2.0:
WRAP.   NO:
#==================================================================
~Well
STRT .m      1110.2340088 :
STOP .m      3322.9296875 :
STEP .m     0.00000000 :
NULL .        -999.250000 :
COMP.           : COMPANY
WELL.  35/9-9   : WELL
FLD.            : FIELD
LOC.            : LOCATION
SRVC.           : SERVICE COMPANY
DATE.  2018-09-11 14:49:02   : Log Export Date {yyyy-MM-dd HH:mm:ss}
PROV.           : PROVINCE
UWI.   35/9-9   : UNIQUE WELL ID
API.            : API NUMBER
#==================================================================
~Curve
DEPT .m                   : DEPTH
Lithology_geolink ._      : Lithology_geolink
CALI .in                  : CALI
BS .in                    : BS
ROP .m/h                  : ROP
DRHO .g/cm3               : DRHO
NPHI .m3/m3               : NPHI
RHOB .g/cm3               : RHOB
PEF .b/e                  : PEF
GR .gAPI                  : GR
DTC .us/ft                : DTC
DTS .us/ft                : DTS
RDEP .ohm.m               : RDEP
RMED .ohm.m               : RMED
~Parameter
#==================================================================
~Ascii
# ...
 2149.6020508 13.000000000 12.489399910 12.250000954 42.572834015 0.0606999993 0.1875000000 2.5432000160 4.4078998566 68.294601440 87.930496216  -999.250000 2.4723000526 2.4340000153
 2149.7543945 13.000000000 12.503399849 12.250000954 42.162731171 0.0700000003 0.1864017546 2.5522000790 4.3968000412 74.512138367 86.544120789  -999.250000 2.4718999863 2.4213202000
 2149.9067383 13.000000000 12.506199837 12.250000954 42.019027710 0.0706000030 0.1836044788 2.5448999405 4.4693999290 78.485435486 86.944252014  -999.250000 2.6103999615 2.5744543076
 2150.0590820 13.000000000 12.493399620 12.250000954 46.817588806 0.0793000013 0.1887916774 2.5492999554 4.5770001411 77.537429810 87.247413635  -999.250000 2.6389999390 2.5823876858
 2150.2116699 13.000000000 12.508199692 12.250000954 48.039039612 0.0798999965 0.1977999955 2.5415999889 4.6528000832 72.896202087 86.692298889  -999.250000 2.6347000599 2.5718998909
 2150.3640137 13.000000000 12.516099930 12.250000954 47.718177795 0.0860999972 0.2023999989 2.5411000252 4.5794000626 66.777397156 86.076103210  -999.250000 2.6831998825 2.6196000576
 2150.5163574 13.000000000 12.513899803 12.250000954 46.383201599 0.0891000032 0.2046963125 2.5394001007 4.6002001762 65.333511353 86.212280273  -999.250000 2.7437999249 2.6559417248
 2150.6687012 13.000000000 12.505000114 12.250000954 48.391403198 0.0998999998 0.1988094598 2.5492999554 4.6876997948 66.778381348 87.609756470  -999.250000 2.6568000317 2.6143667698
 2150.8212891 13.000000000 12.511300087 12.250000954 49.145999908 0.1093999967 0.1937000006 2.5541000366 4.7529001236 66.723701477 89.186096191  -999.250000 2.5536999702 2.5269000530
 2150.9736328 13.000000000 12.515000343 12.250000954 49.625984192 0.1182999983 0.1870999932 2.5497999191 4.7729997635 66.129096985 89.408996582  -999.250000 2.5292000771 2.5009000301
 2151.1259766 13.000000000 12.492899895 12.250000954 49.154197693 0.1163000017 0.1909937561 2.5366001129 4.7293000221 65.032852173 87.733688354  -999.250000 2.6231999397 2.5498216152
 2151.2783203 13.000000000 12.489300728 12.250000954 51.797901154 0.1169999987 0.1988873333 2.5385000706 4.7912001610 62.683368683 85.834846497  -999.250000 2.7300999165 2.6728029251
 2151.4309082 13.000000000 12.492600441 12.250000954 51.010169983 0.1158000007 0.2057999969 2.5490000248 4.7799000740 62.051200867 87.336997986  -999.250000 2.6937000751 2.6291000843
 2151.5832520 13.000000000 12.494199753 12.250000954 48.658138275 0.1222999990 0.2046999931 2.5631000996 4.8401999474 63.427101135 88.770103455  -999.250000 2.6050999165 2.5376999378
 2151.7355957 13.000000000 12.491499901 12.250000954 49.985237122 0.1186000034 0.1944164783 2.5604000092 4.7329998016 64.369987488 88.639602661  -999.250000 2.5376999378 2.4985628128
 2151.8879395 13.000000000 12.489700317 12.250000954 50.213909149 0.1136000007 0.1909056008 2.5502998829 4.6925997734 67.677688599 88.129119873  -999.250000 2.5397999287 2.5162713528
 2152.0402832 13.000000000 12.501999855 12.250000954 50.540683746 0.1045999974 0.1900014430 2.5390999317 4.6353998184 71.694763184 87.101753235  -999.250000 2.5590999126 2.5533406734
 2152.1928711 13.000000000 12.514900208 12.250000954 51.976375580 0.0993999988 0.1995999962 2.5350999832 4.6669998169 72.111396790 87.514701843  -999.250000 2.5710000992 2.4885001183
 2152.3452148 13.000000000 12.502300262 12.250000954 52.559383392 0.0979999974 0.2054905593 2.5369000435 4.6915001869 69.564285278 88.871726990  -999.250000 2.5343999863 2.4665353298
 2152.4975586 13.000000000 12.499798775 12.250000954 49.833988190 0.0995000005 0.2056996673 2.5485999584 4.6844000816 67.388885498 88.055122375  -999.250000 2.4623000622 2.4403419495
 2152.6499023 13.000000000 12.540599823 12.250000954 52.805446625 0.0983999968 0.2065985501 2.5483000278 4.6669998169 68.334671021 86.909538269  -999.250000 2.4807999134 2.4254238605
 2152.8024902 13.000000000 12.559398651 12.250000954 49.915027618 0.0921000019 0.2070000023 2.5487999916 4.5602002144 70.068199158 84.761001587  -999.250000 2.6500000954 2.5739998817
 2152.9548340 13.000000000 12.567199707 12.250000954 49.593833923 0.0794000030 0.2106000036 2.5416998863 4.4842000008 66.639198303 83.105110168  -999.250000 3.1928999424 3.0199000835
 2153.1071777 13.000000000 12.522100449 12.250000954 50.912071228 0.0610999987 0.2130960077 2.5431001186 4.2898001671 61.743747711 83.304977417  -999.250000 3.5329000950 3.4119718075
 2153.2595215 13.000000000 12.519700050 12.250000954 49.981300354 0.0507999994 0.2133995295 2.5639998913 4.3959999084 64.675582886 83.129180908  -999.250000 2.7160000801 2.7243049145
 2153.4121094 13.000000000 12.493899345 12.250000954 37.937007904 0.0370000005 0.2089000046 2.5768001080 4.6163001060 71.377502441 85.075996399  -999.250000 2.3652999401 2.3640999794
 2153.5644531 13.000000000 12.502699852 12.250000954 38.839237213 0.0350000001 0.1833000034 2.5896000862 4.6483998299 74.945999146 87.776298523  -999.250000 2.3213999271 2.3087000847
 2153.7167969 13.000000000 12.490300179 12.250000954 38.827754974 0.0253999997 0.1625332683 2.5662999153 4.5099000931 75.631904602 89.430648804  -999.250000 2.3552000523 2.3640112877
 2153.8691406 13.000000000 12.520099640 12.250000954 40.167324066 0.0230999999 0.1646964699 2.5381999016 4.1911997795 75.496322632 89.496597290  -999.250000 2.4070999622 2.3816719055
 2154.0214844 13.000000000 12.491499901 12.250000954 40.555446625 0.0208999999 0.1787774116 2.5309000015 4.1445999146 74.865516663 90.789924622  -999.250000 2.4361999035 2.3473551273
 2154.1740723 13.000000000 12.487098694 12.250000954 40.346786499 0.0196000002 0.1990000010 2.5329000950 4.0665998459 72.098602295 89.933502197  -999.250000 2.3661000729 2.2664999962
 2154.3264160 13.000000000 12.509599686 12.250000954 39.467193604 0.0232999995 0.2002979070 2.5494000912 4.0812997818 70.182769775 90.203063965  -999.250000 2.2946999073 2.2555177212
 2154.4787598 13.000000000 12.531900406 12.250000954 41.194225311 0.0233999994 0.2024964690 2.5488998890 4.0707998276 69.605026245 90.899383545  -999.250000 2.2967000008 2.2701764107
 2154.6311035 13.000000000 12.526900291 12.250000954 41.251640320 0.0241000000 0.2011022568 2.5481998920 3.9855999947 67.906623840 90.499839783  -999.250000 2.3103001118 2.3066415787
 2154.7836914 13.000000000 12.510800362 12.250000954 41.536090851 0.0214000009 0.2020000070 2.5397000313 3.9927999973 66.860496521 90.031402588  -999.250000 2.3282999992 2.3080000877
 2154.9360352 13.000000000 12.519900322 12.250000954 56.621063232 0.0182000007 0.2045000046 2.5311000347 4.0047001839 67.226303101 89.438697815  -999.250000 2.3589000702 2.3129000664
 2155.0883789 13.000000000 12.529000282 12.250000954 54.321853638 0.0174000002 0.2054000050 2.5234000683 4.1064000130 67.634742737 89.507492065  -999.250000 2.3835000992 2.3154959679
 2155.2407227 13.000000000 12.520099640 12.250000954 52.982608795 0.0208000001 0.2094999999 2.5299999714 4.1020998955 67.624214172 89.853141785  -999.250000 2.4268999100 2.4327118397
 2155.3933105 13.000000000 12.519100189 12.250000954 51.359252930 0.0262000002 0.2081999928 2.5374000072 4.1427001953 69.495201111 89.799201965  -999.250000 2.5397999287 2.4979999065
 2155.5456543 13.000000000 12.524099350 12.250000954 51.403545380 0.0287999995 0.2044000030 2.5450000763 4.0956001282 71.176399231 88.828598022  -999.250000 2.4395999908 2.4124000072
 2155.6979980 13.000000000 12.509400368 12.250000954 48.002296448 0.0275999997 0.1983000040 2.5423998833 4.1392998695 70.885467529 89.112144470  -999.250000 2.3764998913 2.3666732311
 2155.8503418 13.000000000 12.504699707 12.250000954 52.566272736 0.0286999997 0.1976999938 2.5387001038 4.2126002312 70.236236572 90.195251465  -999.250000 2.3671998978 2.3415403366
 2156.0026855 13.000000000 12.512100220 12.250000954 49.883201599 0.0337000005 0.2006999999 2.5392000675 4.2258000374 67.070884705 91.291847229  -999.250000 2.4172000885 2.3792395592
 2156.1552734 13.000000000 12.547499657 12.250000954 52.908462524 0.0364999995 0.2021999955 2.5323998928 4.1519999504 66.815002441 90.758201599  -999.250000 2.4358000755 2.4110999107
