# LAS format log file from PETREL
# Project units are specified as depth units
#==================================================================
~Version information
VERS.   2.0:
WRAP.   NO:
#==================================================================
~Well
STRT .m      1110.2340088 :
STOP .m      3322.9296875 :
STEP .m     0.00000000 :
NULL .        -999.250000 :
COMP.           : COMPANY
WELL.  35/9-9   : WELL
FLD.            : FIELD
LOC.            : LOCATION
SRVC.           : SERVICE COMPANY
DATE.  2018-09-11 14:49:02   : Log Export Date {yyyy-MM-dd HH:mm:ss}
PROV.           : PROVINCE
UWI.   35/9-9   : UNIQUE WELL ID
API.            : API NUMBER
#==================================================================
~Curve
DEPT .m                   : DEPTH
Lithology_geolink ._      : Lithology_geolink
CALI .in                  : CALI
BS .in                    : BS
ROP .m/h                  : ROP
DRHO .g/cm3               : DRHO
NPHI .m3/m3               : NPHI
RHOB .g/cm3               : RHOB
PEF .b/e                  : PEF
GR .gAPI                  : GR
DTC .us/ft                : DTC
DTS .us/ft                : DTS
RDEP .ohm.m               : RDEP
RMED .ohm.m               : RMED
~Parameter
#==================================================================
~Ascii
# ...
 3316.3764648 6.0000000000 8.5804996490 8.5000000000 31.987531662 0.0657000020  -999.250000 2.6554000378 4.0711998940 81.097702026  -999.250000  -999.250000 12.002599716 12.191300392
 3316.5288086 6.0000000000 8.6000003815 8.5000000000 33.073162079 0.0592000000  -999.250000 2.6447000504 4.1430001259 83.480903625  -999.250000  -999.250000 11.871600151 13.159399986
 3316.6813965 6.0000000000 8.5733995438 8.5000000000 33.574802399 0.0636999980  -999.250000 2.6530001163 4.1269001961 84.922798157  -999.250000  -999.250000 13.836299896 16.484899521
 3316.8337402 6.0000000000 8.5923995972 8.5000000000 38.246719360 0.0582000017  -999.250000 2.6498000622 4.1012001038 83.925102234  -999.250000  -999.250000 11.986399651 12.820099831
 3316.9860840 6.0000000000 8.5658998489 8.5000000000 36.647312164 0.0500999987  -999.250000 2.6468999386 4.0211000443 83.286598206  -999.250000  -999.250000 12.732799530 10.625599861
 3317.1384277 6.0000000000 8.5718002319 8.5000000000 37.105972290 0.0549000017  -999.250000 2.6649000645 4.0567998886 79.941398621  -999.250000  -999.250000 11.065299988 13.696499825
 3317.2907715 6.0000000000 8.5743999481 8.5000000000 38.914043427 0.0603000000  -999.250000 2.6628000736 4.1307997704 74.796699524  -999.250000  -999.250000 11.515399933 14.477499962
 3317.4433594 6.0000000000 8.5649003983 8.5000000000 40.547245026 0.0763999969  -999.250000 2.6749999523 4.2277998924 70.609901428  -999.250000  -999.250000 13.080200195 14.892800331
 3317.5957031 6.0000000000 8.5741996765 8.5000000000 40.476707458 0.0670000017  -999.250000 2.6514000893 4.2362999916 70.646598816  -999.250000  -999.250000 16.862300873 14.683600426
 3317.7480469 6.0000000000 8.5881996155 8.5000000000 39.946521759 0.0727000013  -999.250000 2.6645998955 4.2616000175 76.050598145  -999.250000  -999.250000 17.431600571 18.884199142
 3317.9003906 6.0000000000 8.5805997849 8.5000000000 45.147964478 0.0850000009  -999.250000 2.6747999191 4.2669000626 81.755599976  -999.250000  -999.250000 8.8159999847 8.4381999969
 3318.0529785 6.0000000000 8.5845003128 8.5000000000 43.758529663 0.1084999964  -999.250000 2.6830999851 4.2418999672 83.615798950  -999.250000  -999.250000 8.8059997559 8.6161003113
 3318.2053223 6.0000000000 8.5886001587 8.5000000000 41.047573090 0.1036000028  -999.250000 2.6705000401 4.0935001373 81.982597351  -999.250000  -999.250000 8.4730997086 6.5026998520
 3318.3576660 5.0000000000 8.6045999527 8.5000000000 34.470474243 0.0679000020  -999.250000 2.6382000446 3.9853999615 81.278900146  -999.250000  -999.250000 13.870599747 10.381199837
 3318.5100098 5.0000000000 8.6176996231 8.5000000000 35.974411011 0.0364999995  -999.250000 2.6310999393 3.9398000240 82.480598450  -999.250000  -999.250000 12.832200050 14.211700439
 3318.6625977 5.0000000000 8.6821002960 8.5000000000 35.026245117 0.0355999991  -999.250000 2.6435999870 4.0311999321 79.302696228  -999.250000  -999.250000 12.137700081 14.069499969
 3318.8149414 5.0000000000 8.6196002960 8.5000000000 34.503280640 0.0432000011  -999.250000 2.6577000618 3.9918999672 73.363998413  -999.250000  -999.250000 13.199899673 15.795100212
 3318.9672852 5.0000000000 8.5715999603 8.5000000000 33.821193695 0.0438000001  -999.250000 2.6580998898 3.9056000710 66.958099365  -999.250000  -999.250000 13.032870293 10.433300018
 3319.1196289 5.0000000000 8.5651998520 8.5000000000 34.574474335 0.0471000001  -999.250000 2.6549999714 3.8949999809 66.809600830  -999.250000  -999.250000 13.448470116 13.671199799
 3319.2719727 5.0000000000 8.5865001678 8.5000000000 34.315288544 0.0688000023  -999.250000 2.6703999043 3.9767999649 66.158599854  -999.250000  -999.250000 12.063314438 12.987199783
 3319.4245605 5.0000000000 8.5808000565 8.5000000000 33.480312347 0.0713000000  -999.250000 2.6700000763 4.0527000427 65.298202515  -999.250000  -999.250000 14.433398247 15.794199944
 3319.5769043 5.0000000000 8.5756998062 8.5000000000 29.696193695 0.0623000003  -999.250000 2.6654999256 3.9944999218 63.541198730  -999.250000  -999.250000 12.438657761 13.975799561
 3319.7292480 5.0000000000 8.6184997559 8.5000000000 31.167980194 0.0460000001  -999.250000 2.6494998932 3.9607000351 62.604698181  -999.250000  -999.250000 12.038301468 12.455599785
 3319.8815918 5.0000000000 8.6138000488 8.5000000000 35.555118561 0.0496999994  -999.250000 2.6538000107 3.9686000347 63.320499420  -999.250000  -999.250000 11.660463333 13.826999664
 3320.0341797 5.0000000000 8.5607995987 8.5000000000 34.511154175 0.0485999994  -999.250000 2.6505000591 4.0026001930 65.017303467  -999.250000  -999.250000 8.8459987640 9.2838001251
 3320.1865234 5.0000000000 8.5831003189 8.5000000000 35.470474243 0.0491999984  -999.250000 2.6612000465 3.9788999557 68.273399353  -999.250000  -999.250000 12.517260551 13.245200157
 3320.3388672 6.0000000000 8.6030998230 8.5000000000 35.353675842 0.0370000005  -999.250000 2.6561999321 3.9337999821 69.907302856  -999.250000  -999.250000 9.9389390945 10.342499733
 3320.4912109 6.0000000000 8.5719995499 8.5000000000 35.358924866 0.0423000008  -999.250000 2.6612999439 3.9560000896 70.271797180  -999.250000  -999.250000 10.403124809 10.928400040
 3320.6437988 6.0000000000 8.5867004395 8.5000000000 35.581039429 0.0483000018  -999.250000 2.6540000439 4.1188001633 69.174499512  -999.250000  -999.250000 12.591208458 13.722000122
 3320.7961426 6.0000000000 8.5843000412 8.5000000000 35.455707550 0.0606000014  -999.250000 2.6589999199 4.1725001335 68.089401245  -999.250000  -999.250000 10.134046555 11.192399979
 3320.9484863 6.0000000000 8.5783004761 8.5000000000 35.791007996 0.0586000010  -999.250000 2.6568999290 4.1054000854 67.724700928  -999.250000  -999.250000 10.722417831 13.513199806
 3321.1008301 5.0000000000 8.5847997665 8.5000000000 40.772964478 0.0529999994  -999.250000 2.6486001015 3.9767000675 69.439697266  -999.250000  -999.250000 9.5503158569 11.321499825
 3321.2531738 5.0000000000 8.5993003845 8.5000000000 39.701770782 0.0698999986  -999.250000 2.6515998840 4.0050001144 70.622200012  -999.250000  -999.250000 10.059315681 10.125499725
 3321.4057617 5.0000000000 8.6143999100 8.5000000000 36.317256927 0.0734999999  -999.250000 2.6375999451 4.0215997696 70.343696594  -999.250000  -999.250000 10.633299828 11.231699944
 3321.5581055 5.0000000000 8.6170997620 8.5000000000 38.057415009 0.0719000027  -999.250000 2.6386001110 3.9993999004 67.992401123  -999.250000  -999.250000 12.251132011 12.681799889
 3321.7104492 5.0000000000 8.6047000885 8.5000000000 38.452426910 0.0463000014  -999.250000 2.6349999905 3.8392999172 66.163902283  -999.250000  -999.250000 11.275275230 10.618700027
 3321.8627930 5.0000000000 8.5920000076 8.5000000000 39.170928955 0.0423000008  -999.250000 2.6445999146 3.7995998859 65.324897766  -999.250000  -999.250000 11.883157730 14.659700394
 3322.0153809 5.0000000000 8.6126003265 8.5000000000 39.350067139 0.0518000014  -999.250000 2.6580998898 3.8420000076 65.889801025  -999.250000  -999.250000 12.050313950 12.683400154
 3322.1677246 5.0000000000 8.5829000473 8.5000000000 39.447834015 0.0549999997  -999.250000 2.6498000622 3.9212999344 67.372497559  -999.250000  -999.250000 14.108901024 12.656299591
 3322.3200684 5.0000000000 8.6037998199 8.5000000000 40.542980194 0.0794000030  -999.250000 2.6531999111 4.0255999565 67.524497986  -999.250000  -999.250000 13.049153328 11.890600204
 3322.4724121 5.0000000000 8.6344003677 8.5000000000 40.753936768 0.1041999981  -999.250000 2.6538000107 4.1212000847 68.840103149  -999.250000  -999.250000 12.271833420 11.446599960
 3322.6250000 5.0000000000 8.5886001587 8.5000000000 40.354660034 0.1009000018  -999.250000 2.6610999107 4.1357998848 68.624198914  -999.250000  -999.250000 11.725808144 13.638699532
 3322.7773438 5.0000000000 8.6182003021 8.5000000000 38.859252930 0.0914999992  -999.250000 2.6598000526 4.0170001984 68.070800781  -999.250000  -999.250000 9.8574333191 13.216099739
 3322.9296875 5.0000000000 8.6077995300 8.5000000000 40.675525665 0.0740000010  -999.250000 2.6451001167 3.8564000130 64.631698608  -999.250000  -999.250000 8.6964969635 10.343999863
