# LAS format log file from PETREL
# Project units are specified as depth units
#==================================================================
~Version information
VERS.   2.0:
WRAP.   NO:
#==================================================================
~Well
STRT .m      1003.2490234 :
STOP .m      2879.9025879 :
STEP .m     0.00000000 :
NULL .        -999.250000 :
COMP.           : COMPANY
WELL.  35/9-2   : WELL
FLD.            : FIELD
LOC.            : LOCATION
SRVC.           : SERVICE COMPANY
DATE.  2018-09-11 14:49:01   : Log Export Date {yyyy-MM-dd HH:mm:ss}
PROV.           : PROVINCE
UWI.   35/9-2   : UNIQUE WELL ID
API.            : API NUMBER
#==================================================================
~Curve
DEPT .m                   : DEPTH
Lithology_geolink ._      : Lithology_geolink
DCAL .in                  : DCAL
CALI .in                  : CALI
BS .in                    : BS
DRHO .g/cm3               : DRHO
SGR .gAPI                 : SGR
NPHI .m3/m3               : NPHI
RHOB .g/cm3               : RHOB
GR .gAPI                  : GR
DTC .us/ft                : DTC
DTS .us/ft                : DTS
RDEP .ohm.m               : RDEP
SP .mV                    : SP
RSHA .ohm.m               : RSHA
RMIC .ohm.m               : RMIC
RMED .ohm.m               : RMED
~Parameter
#==================================================================
~Ascii
# ...
 1127.3027344 6.0000000000 4.3716340065 16.621629715 12.250000954 0.0542664006  -999.250000  -999.250000 2.1460189819 84.564651489  -999.250000  -999.250000 1.5567630529 160.19749451  -999.250000  -999.250000 1.8796260357
 1127.4550781 6.0000000000 4.3748359680 16.624839783 12.250000954 0.0707664937  -999.250000  -999.250000 2.1295170784 89.560501099  -999.250000  -999.250000 1.5882270336 160.23089600  -999.250000  -999.250000 1.8787300587
 1127.6074219 6.0000000000 4.3380470276 16.588050842 12.250000954 0.0800784007  -999.250000  -999.250000 2.1003029346 87.065933228  -999.250000  -999.250000 1.6054919958 160.63929749  -999.250000  -999.250000 1.8515700102
 1127.7598877 6.0000000000 4.2643470764 16.514350891 12.250000954 0.0771134868  -999.250000  -999.250000 2.0691521168 89.999809265  -999.250000  -999.250000 1.6044620275 160.93060303  -999.250000  -999.250000 1.8676140308
 1127.9122314 6.0000000000 4.1303119659 16.380310059 12.250000954 0.0749875009  -999.250000  -999.250000 2.0550749302 88.125236511  -999.250000  -999.250000 1.5478700399 160.88270569  -999.250000  -999.250000 1.9292869568
 1128.0646973 5.0000000000 4.0220451355 16.272050858 12.250000954 0.0781048089  -999.250000  -999.250000 2.0456171036 88.934257507  -999.250000  -999.250000 1.4971109629 160.66090393  -999.250000  -999.250000 2.0044829845
 1128.2170410 5.0000000000 4.0397591591 16.289760590 12.250000954 0.0709530264  -999.250000  -999.250000 2.0201539993 84.121353149  -999.250000  -999.250000 1.5033320189 160.41090393  -999.250000  -999.250000 2.0358231068
 1128.3695068 5.0000000000 4.0819721222 16.331970215 12.250000954 0.0676845536  -999.250000  -999.250000 2.0093491077 80.625663757  -999.250000  -999.250000 1.5236829519 160.36950684  -999.250000  -999.250000 2.0397980213
 1128.5218506 5.0000000000 4.1728591919 16.422859192 12.250000954 0.0768387988  -999.250000  -999.250000 2.0292880535 81.250480652  -999.250000  -999.250000 1.5548150539 160.45880127  -999.250000  -999.250000 2.0662410259
 1128.6743164 5.0000000000 4.3698902130 16.619890213 12.250000954 0.0813165233  -999.250000  -999.250000 2.0510311127 83.940208435  -999.250000  -999.250000 1.5541249514 160.48699951  -999.250000  -999.250000 2.0427379608
 1128.8266602 5.0000000000 4.5438351631 16.793830872 12.250000954 0.0737763792  -999.250000  -999.250000 2.0589849949 88.873222351  -999.250000  -999.250000 1.5160379410 160.69560242  -999.250000  -999.250000 2.0137920380
 1128.9791260 5.0000000000 4.4320302010 16.682029724 12.250000954 0.0658010915  -999.250000  -999.250000 2.0796160698 86.938110352  -999.250000  -999.250000 1.5284819603 160.93069458  -999.250000  -999.250000 1.9809629917
 1129.1314697 5.0000000000 4.2631030083 16.513099670 12.250000954 0.0614965707  -999.250000  -999.250000 2.1050419807 85.312377930  -999.250000  -999.250000 1.5772629976 161.09129333  -999.250000  -999.250000 1.9488480091
 1129.2839355 5.0000000000 4.2234039307 16.473400116 12.250000954 0.0528329387  -999.250000  -999.250000 2.1128470898 83.063529968  -999.250000  -999.250000 1.6146730185 161.20880127  -999.250000  -999.250000 1.9094339609
 1129.4362793 5.0000000000 4.1953639984 16.445360184 12.250000954 0.0459949300  -999.250000  -999.250000 2.1115040779 85.499862671  -999.250000  -999.250000 1.6569019556 161.26330566  -999.250000  -999.250000 1.8680880070
 1129.5886230 5.0000000000 4.0907797813 16.340780258 12.250000954 0.0390452407  -999.250000  -999.250000 2.1189889908 85.310096741  -999.250000  -999.250000 1.7161899805 161.18859863  -999.250000  -999.250000 1.9024380445
 1129.7410889 5.0000000000 3.9397349358 16.189739227 12.250000954 0.0409214795  -999.250000  -999.250000 2.1390619278 83.250137329  -999.250000  -999.250000 1.7351039648 160.97390747  -999.250000  -999.250000 1.9648940563
 1129.8934326 5.0000000000 3.7571053505 16.007099152 12.250000954 0.0437398590  -999.250000  -999.250000 2.1523489952 82.813957214  -999.250000  -999.250000 1.6941119432 160.72380066  -999.250000  -999.250000 1.9725840092
 1130.0458984 6.0000000000 3.6096796989 15.859680176 12.250000954 0.0441072024  -999.250000  -999.250000 2.1421289444 87.752372742  -999.250000  -999.250000 1.6357569695 160.47390747  -999.250000  -999.250000 1.9442280531
 1130.1982422 6.0000000000 3.5698919296 15.819890976 12.250000954 0.0457342193  -999.250000  -999.250000 2.1074059010 91.314376831  -999.250000  -999.250000 1.5934929848 160.22390747  -999.250000  -999.250000 1.8976010084
 1130.3507080 6.0000000000 3.6438100338 15.893811226 12.250000954 0.0520118997  -999.250000  -999.250000 2.0481050014 93.124641418  -999.250000  -999.250000 1.5811079741 160.07820129  -999.250000  -999.250000 1.9114500284
 1130.5030518 6.0000000000 3.8378260136 16.087829590 12.250000954 0.0516873002  -999.250000  -999.250000 1.9895210266 87.437927246  -999.250000  -999.250000 1.6060949564 159.94569397  -999.250000  -999.250000 1.9606950283
 1130.6555176 6.0000000000 4.0238780975 16.273880005 12.250000954 0.0508693717  -999.250000  -999.250000 1.9715750217 89.935783386  -999.250000  -999.250000 1.6054120064 159.82820129  -999.250000  -999.250000 2.0021009445
 1130.8078613 6.0000000000 4.0530471802 16.303049088 12.250000954 0.0554217286  -999.250000  -999.250000 2.0083889961 86.752212524  -999.250000  -999.250000 1.5355190039 159.69569397  -999.250000  -999.250000 1.9840719700
 1130.9603271 6.0000000000 3.9863929749 16.236389160 12.250000954 0.0603388883  -999.250000  -999.250000 2.0590250492 89.186706543  -999.250000  -999.250000 1.4504630566 159.57809448  -999.250000  -999.250000 1.9621829987
 1131.1126709 6.0000000000 3.8990900517 16.149089813 12.250000954 0.0599262901  -999.250000  -999.250000 2.0986669064 87.312629700  -999.250000  -999.250000 1.3910069466 159.65429688  -999.250000  -999.250000 1.9772629738
 1131.2651367 6.0000000000 3.8011567593 16.051160812 12.250000954 0.0569606386  -999.250000  -999.250000 2.1206090450 90.123779297  -999.250000  -999.250000 1.3823529482 159.77189636  -999.250000  -999.250000 2.0247299671
 1131.4174805 6.0000000000 3.6861860752 15.936189651 12.250000954 0.0580261983  -999.250000  -999.250000 2.1245830059 87.187011719  -999.250000  -999.250000 1.4183039665 159.80000305  -999.250000  -999.250000 2.0149219036
 1131.5698242 6.0000000000 3.5968310833 15.846830368 12.250000954 0.0546546318  -999.250000  -999.250000 2.1136798859 86.562789917  -999.250000  -999.250000 1.4705890417 160.00869751  -999.250000  -999.250000 1.9590179920
 1131.7222900 5.0000000000 3.5435500145 15.793549538 12.250000954 0.0410094298  -999.250000  -999.250000 2.1001489162 86.812477112  -999.250000  -999.250000 1.5418219566 160.34790039  -999.250000  -999.250000 1.9358930588
 1131.8746338 5.0000000000 3.4716360569 15.721638680 12.250000954 0.0335911289  -999.250000  -999.250000 2.1142270565 91.374237061  -999.250000  -999.250000 1.6209650040 160.52180481  -999.250000  -999.250000 1.9254620075
 1132.0270996 5.0000000000 3.2156109810 15.465608597 12.250000954 0.0313438103  -999.250000  -999.250000 2.1441030502 88.747650146  -999.250000  -999.250000 1.6658500433 160.65429688  -999.250000  -999.250000 1.8884960413
 1132.1794434 5.0000000000 3.0416238308 15.291619301 12.250000954 0.0209213905  -999.250000  -999.250000 2.1653618813 85.183723450  -999.250000  -999.250000 1.6348170042 160.56320190  -999.250000  -999.250000 1.8959360123
 1132.3319092 5.0000000000 2.9498772621 15.199880600 12.250000954 0.0148369297  -999.250000  -999.250000 2.1844320297 81.500762939  -999.250000  -999.250000 1.5624890327 160.14779663  -999.250000  -999.250000 1.9262340069
 1132.4842529 5.0000000000 2.7969772816 15.046979904 12.250000954 0.0149594797  -999.250000  -999.250000 2.1947920322 80.063301086  -999.250000  -999.250000 1.5250649452 159.75210571  -999.250000  -999.250000 1.9246000051
 1132.6367188 5.0000000000 2.7904801369 15.040481567 12.250000954 0.0201772507  -999.250000  -999.250000 2.1813309193 84.939567566  -999.250000  -999.250000 1.5409879684 159.36970520  -999.250000  -999.250000 1.8853470087
 1132.7890625 6.0000000000 2.9148509502 15.164851189 12.250000954 0.0314274803  -999.250000  -999.250000 2.1468360424 88.815200806  -999.250000  -999.250000 1.6145559549 159.21069336  -999.250000  -999.250000 1.8241250515
